{
  "version": 0.6,
  "generator": "Overpass API 0.7.57 93a4d346",
  "osm3s": {
    "timestamp_osm_base": "2022-02-13T13:29:38Z",
    "timestamp_areas_base": "2022-02-13T06:31:57Z",
    "copyright": "The data included in this document is from www.openstreetmap.org. The data is made available under ODbL."
  },
  "elements": [

{
  "type": "node",
  "id": 394754846,
  "lat": 41.9359339,
  "lon": 8.7560810,
  "tags": {
    "bus": "yes",
    "highway": "bus_stop",
    "name": "Bel Horizonte",
    "network": "Muvistrada",
    "operator": "CAPA",
    "public_transport": "stop_position"
  }
},
{
  "type": "node",
  "id": 844446977,
  "lat": 41.9118642,
  "lon": 8.7223813,
  "tags": {
    "bench": "no",
    "highway": "bus_stop",
    "name": "Parc Berthault",
    "public_transport": "platform",
    "shelter": "yes"
  }
},
{
  "type": "node",
  "id": 844446982,
  "lat": 41.9118161,
  "lon": 8.7225412,
  "tags": {
    "bench": "no",
    "highway": "bus_stop",
    "name": "Parc Berthault",
    "public_transport": "platform",
    "shelter": "yes"
  }
},
{
  "type": "node",
  "id": 844501057,
  "lat": 41.9056030,
  "lon": 8.6272056,
  "tags": {
    "highway": "bus_stop",
    "name": "Frati",
    "public_transport": "platform"
  }
},
{
  "type": "node",
  "id": 844501058,
  "lat": 41.9076588,
  "lon": 8.6322431,
  "tags": {
    "highway": "bus_stop",
    "name": "Moorea Plage",
    "public_transport": "platform"
  }
},
{
  "type": "node",
  "id": 844501059,
  "lat": 41.9058916,
  "lon": 8.6271942,
  "tags": {
    "highway": "bus_stop",
    "name": "Frati",
    "public_transport": "platform"
  }
},
{
  "type": "node",
  "id": 844501061,
  "lat": 41.9078285,
  "lon": 8.6323682,
  "tags": {
    "highway": "bus_stop",
    "name": "Moorea Plage",
    "public_transport": "platform"
  }
},
{
  "type": "node",
  "id": 844504080,
  "lat": 41.9083459,
  "lon": 8.6357822,
  "tags": {
    "highway": "bus_stop",
    "name": "Eden Roc",
    "public_transport": "platform",
    "shelter": "no"
  }
},
{
  "type": "node",
  "id": 844504082,
  "lat": 41.9084353,
  "lon": 8.6357455,
  "tags": {
    "highway": "bus_stop",
    "name": "Eden Roc",
    "public_transport": "platform",
    "shelter": "no"
  }
},
{
  "type": "node",
  "id": 844504083,
  "lat": 41.9093082,
  "lon": 8.6375924,
  "tags": {
    "highway": "bus_stop",
    "name": "Dolce Vita",
    "public_transport": "platform",
    "shelter": "no"
  }
},
{
  "type": "node",
  "id": 844504084,
  "lat": 41.9108157,
  "lon": 8.6476874,
  "tags": {
    "highway": "bus_stop",
    "name": "Terre Sacrée",
    "public_transport": "platform",
    "shelter": "no"
  }
},
{
  "type": "node",
  "id": 844504085,
  "lat": 41.9093980,
  "lon": 8.6388982,
  "tags": {
    "highway": "bus_stop",
    "name": "Dolce Vita",
    "public_transport": "platform",
    "shelter": "no"
  }
},
{
  "type": "node",
  "id": 844504086,
  "lat": 41.9104379,
  "lon": 8.6478601,
  "tags": {
    "highway": "bus_stop",
    "name": "Terre Sacrée",
    "public_transport": "platform",
    "shelter": "no"
  }
},
{
  "type": "node",
  "id": 844504088,
  "lat": 41.9107177,
  "lon": 8.6431812,
  "tags": {
    "highway": "bus_stop",
    "name": "Capo di Feno",
    "public_transport": "platform",
    "shelter": "yes"
  }
},
{
  "type": "node",
  "id": 844524987,
  "lat": 41.9079698,
  "lon": 8.6603391,
  "tags": {
    "bench": "no",
    "highway": "bus_stop",
    "name": "Stella di Mare",
    "public_transport": "platform",
    "shelter": "no",
    "source": "cadastre-dgi-fr source : Direction Générale des Impôts - Cadastre. Mise à jour : 2010"
  }
},
{
  "type": "node",
  "id": 844524991,
  "lat": 41.9078479,
  "lon": 8.6824209,
  "tags": {
    "highway": "bus_stop",
    "name": "Ariadne",
    "public_transport": "platform",
    "shelter": "no",
    "source": "cadastre-dgi-fr source : Direction Générale des Impôts - Cadastre. Mise à jour : 2010"
  }
},
{
  "type": "node",
  "id": 844524995,
  "lat": 41.9079965,
  "lon": 8.6641064,
  "tags": {
    "highway": "bus_stop",
    "name": "Fontaine",
    "public_transport": "platform",
    "shelter": "no",
    "source": "cadastre-dgi-fr source : Direction Générale des Impôts - Cadastre. Mise à jour : 2010"
  }
},
{
  "type": "node",
  "id": 844525007,
  "lat": 41.9095184,
  "lon": 8.6903009,
  "tags": {
    "highway": "bus_stop",
    "name": "Barbicaja",
    "public_transport": "platform",
    "shelter": "no",
    "source": "cadastre-dgi-fr source : Direction Générale des Impôts - Cadastre. Mise à jour : 2010"
  }
},
{
  "type": "node",
  "id": 844525009,
  "lat": 41.9058490,
  "lon": 8.6716514,
  "tags": {
    "highway": "bus_stop",
    "name": "Scudo",
    "public_transport": "platform",
    "shelter": "no",
    "source": "cadastre-dgi-fr source : Direction Générale des Impôts - Cadastre. Mise à jour : 2010"
  }
},
{
  "type": "node",
  "id": 844525021,
  "lat": 41.9079266,
  "lon": 8.6821469,
  "tags": {
    "highway": "bus_stop",
    "name": "Ariadne",
    "public_transport": "platform",
    "shelter": "no",
    "source": "cadastre-dgi-fr source : Direction Générale des Impôts - Cadastre. Mise à jour : 2010"
  }
},
{
  "type": "node",
  "id": 844525025,
  "lat": 41.9060369,
  "lon": 8.6710069,
  "tags": {
    "highway": "bus_stop",
    "name": "Scudo",
    "public_transport": "platform",
    "shelter": "no",
    "source": "cadastre-dgi-fr source : Direction Générale des Impôts - Cadastre. Mise à jour : 2010"
  }
},
{
  "type": "node",
  "id": 844525044,
  "lat": 41.9094369,
  "lon": 8.6902669,
  "tags": {
    "highway": "bus_stop",
    "name": "Barbicaja",
    "public_transport": "platform",
    "shelter": "no",
    "source": "cadastre-dgi-fr source : Direction Générale des Impôts - Cadastre. Mise à jour : 2010"
  }
},
{
  "type": "node",
  "id": 844525060,
  "lat": 41.9066884,
  "lon": 8.6769474,
  "tags": {
    "highway": "bus_stop",
    "name": "Marinella",
    "public_transport": "platform",
    "shelter": "no",
    "source": "cadastre-dgi-fr source : Direction Générale des Impôts - Cadastre. Mise à jour : 2010"
  }
},
{
  "type": "node",
  "id": 844525062,
  "lat": 41.9080376,
  "lon": 8.6616337,
  "tags": {
    "bench": "no",
    "highway": "bus_stop",
    "name": "Stella di Mare",
    "public_transport": "platform",
    "shelter": "no",
    "source": "cadastre-dgi-fr source : Direction Générale des Impôts - Cadastre. Mise à jour : 2010"
  }
},
{
  "type": "node",
  "id": 844525066,
  "lat": 41.9077603,
  "lon": 8.6806175,
  "tags": {
    "highway": "bus_stop",
    "name": "Neptune",
    "public_transport": "platform",
    "shelter": "no",
    "source": "cadastre-dgi-fr source : Direction Générale des Impôts - Cadastre. Mise à jour : 2010"
  }
},
{
  "type": "node",
  "id": 844525082,
  "lat": 41.9071964,
  "lon": 8.6673678,
  "tags": {
    "highway": "bus_stop",
    "name": "Maxime",
    "public_transport": "platform",
    "shelter": "no",
    "source": "cadastre-dgi-fr source : Direction Générale des Impôts - Cadastre. Mise à jour : 2010"
  }
},
{
  "type": "node",
  "id": 844525099,
  "lat": 41.9094484,
  "lon": 8.6533549,
  "tags": {
    "highway": "bus_stop",
    "name": "Nausica",
    "public_transport": "platform",
    "shelter": "no",
    "source": "cadastre-dgi-fr source : Direction Générale des Impôts - Cadastre. Mise à jour : 2010"
  }
},
{
  "type": "node",
  "id": 844525102,
  "lat": 41.9066210,
  "lon": 8.6770010,
  "tags": {
    "highway": "bus_stop",
    "name": "Marinella",
    "public_transport": "platform",
    "shelter": "no",
    "source": "cadastre-dgi-fr source : Direction Générale des Impôts - Cadastre. Mise à jour : 2010"
  }
},
{
  "type": "node",
  "id": 844525121,
  "lat": 41.9081259,
  "lon": 8.6579666,
  "tags": {
    "highway": "bus_stop",
    "name": "Calanches",
    "public_transport": "platform",
    "shelter": "no",
    "source": "cadastre-dgi-fr source : Direction Générale des Impôts - Cadastre. Mise à jour : 2010"
  }
},
{
  "type": "node",
  "id": 844525133,
  "lat": 41.9075703,
  "lon": 8.6788944,
  "tags": {
    "highway": "bus_stop",
    "name": "Palm Beach",
    "public_transport": "platform",
    "shelter": "no",
    "source": "cadastre-dgi-fr source : Direction Générale des Impôts - Cadastre. Mise à jour : 2010"
  }
},
{
  "type": "node",
  "id": 844525137,
  "lat": 41.9070920,
  "lon": 8.6673675,
  "tags": {
    "highway": "bus_stop",
    "name": "Maxime",
    "public_transport": "platform",
    "shelter": "no",
    "source": "cadastre-dgi-fr source : Direction Générale des Impôts - Cadastre. Mise à jour : 2010"
  }
},
{
  "type": "node",
  "id": 844525139,
  "lat": 41.9080125,
  "lon": 8.6579194,
  "tags": {
    "highway": "bus_stop",
    "name": "Calanches",
    "public_transport": "platform",
    "shelter": "no",
    "source": "cadastre-dgi-fr source : Direction Générale des Impôts - Cadastre. Mise à jour : 2010"
  }
},
{
  "type": "node",
  "id": 844525148,
  "lat": 41.9076195,
  "lon": 8.6799114,
  "tags": {
    "highway": "bus_stop",
    "name": "Neptune",
    "public_transport": "platform",
    "shelter": "no",
    "source": "cadastre-dgi-fr source : Direction Générale des Impôts - Cadastre. Mise à jour : 2010"
  }
},
{
  "type": "node",
  "id": 844535020,
  "lat": 41.9078916,
  "lon": 8.7068331,
  "tags": {
    "highway": "bus_stop",
    "name": "Nouveau Cimetière",
    "public_transport": "platform",
    "shelter": "no",
    "source": "cadastre-dgi-fr source : Direction Générale des Impôts - Cadastre. Mise à jour : 2010"
  }
},
{
  "type": "node",
  "id": 844535023,
  "lat": 41.9080116,
  "lon": 8.7068301,
  "tags": {
    "highway": "bus_stop",
    "name": "Nouveau Cimetière",
    "public_transport": "platform",
    "shelter": "no",
    "source": "cadastre-dgi-fr source : Direction Générale des Impôts - Cadastre. Mise à jour : 2010"
  }
},
{
  "type": "node",
  "id": 844535036,
  "lat": 41.9080311,
  "lon": 8.7040282,
  "tags": {
    "highway": "bus_stop",
    "name": "Ancien Cimetière",
    "public_transport": "platform",
    "shelter": "yes",
    "source": "cadastre-dgi-fr source : Direction Générale des Impôts - Cadastre. Mise à jour : 2010"
  }
},
{
  "type": "node",
  "id": 844535044,
  "lat": 41.9085391,
  "lon": 8.7023691,
  "tags": {
    "highway": "bus_stop",
    "name": "Les Crêtes",
    "public_transport": "platform",
    "shelter": "no",
    "source": "cadastre-dgi-fr source : Direction Générale des Impôts - Cadastre. Mise à jour : 2010"
  }
},
{
  "type": "node",
  "id": 844535053,
  "lat": 41.9090963,
  "lon": 8.6982645,
  "tags": {
    "highway": "bus_stop",
    "name": "Pasci Pécura",
    "public_transport": "platform",
    "shelter": "no",
    "source": "cadastre-dgi-fr source : Direction Générale des Impôts - Cadastre. Mise à jour : 2010"
  }
},
{
  "type": "node",
  "id": 844535079,
  "lat": 41.9083160,
  "lon": 8.7023309,
  "tags": {
    "highway": "bus_stop",
    "name": "Les Crêtes",
    "public_transport": "platform",
    "shelter": "yes",
    "source": "cadastre-dgi-fr source : Direction Générale des Impôts - Cadastre. Mise à jour : 2010"
  }
},
{
  "type": "node",
  "id": 844535082,
  "lat": 41.9081089,
  "lon": 8.7040533,
  "tags": {
    "highway": "bus_stop",
    "name": "Ancien Cimetière",
    "public_transport": "platform",
    "shelter": "no",
    "source": "cadastre-dgi-fr source : Direction Générale des Impôts - Cadastre. Mise à jour : 2010"
  }
},
{
  "type": "node",
  "id": 844535094,
  "lat": 41.9091772,
  "lon": 8.6986836,
  "tags": {
    "highway": "bus_stop",
    "name": "Pasci Pécura",
    "public_transport": "platform",
    "shelter": "no",
    "source": "cadastre-dgi-fr source : Direction Générale des Impôts - Cadastre. Mise à jour : 2010"
  }
},
{
  "type": "node",
  "id": 844546143,
  "lat": 41.9087856,
  "lon": 8.7156245,
  "tags": {
    "highway": "bus_stop",
    "name": "Les Galets",
    "public_transport": "platform",
    "shelter": "yes"
  }
},
{
  "type": "node",
  "id": 844546146,
  "lat": 41.9087309,
  "lon": 8.7105864,
  "tags": {
    "highway": "bus_stop",
    "name": "Résidence des Iles",
    "public_transport": "platform",
    "shelter": "yes"
  }
},
{
  "type": "node",
  "id": 844546148,
  "lat": 41.9090562,
  "lon": 8.7188459,
  "tags": {
    "highway": "bus_stop",
    "name": "Chapelle des Grecs",
    "public_transport": "platform",
    "shelter": "no"
  }
},
{
  "type": "node",
  "id": 844546149,
  "lat": 41.9100797,
  "lon": 8.7209258,
  "tags": {
    "highway": "bus_stop",
    "name": "Les Mouettes",
    "public_transport": "platform",
    "shelter": "no"
  }
},
{
  "type": "node",
  "id": 844546150,
  "lat": 41.9087745,
  "lon": 8.7101336,
  "tags": {
    "highway": "bus_stop",
    "name": "Résidence des Iles",
    "public_transport": "platform",
    "shelter": "no"
  }
},
{
  "type": "node",
  "id": 844546151,
  "lat": 41.9100085,
  "lon": 8.7210225,
  "tags": {
    "highway": "bus_stop",
    "name": "Les Mouettes",
    "public_transport": "platform",
    "shelter": "no"
  }
},
{
  "type": "node",
  "id": 844546152,
  "lat": 41.9089632,
  "lon": 8.7189098,
  "tags": {
    "highway": "bus_stop",
    "name": "Chapelle des Grecs",
    "public_transport": "platform",
    "shelter": "no"
  }
},
{
  "type": "node",
  "id": 844550898,
  "lat": 41.9165261,
  "lon": 8.7317475,
  "tags": {
    "bench": "yes",
    "highway": "bus_stop",
    "name": "Marcaggi",
    "public_transport": "platform",
    "route_ref": "2;5",
    "shelter": "no"
  }
},
{
  "type": "node",
  "id": 844550904,
  "lat": 41.9165770,
  "lon": 8.7231764,
  "tags": {
    "highway": "bus_stop",
    "name": "Austerlitz",
    "shelter": "no",
    "tactile_paving": "no"
  }
},
{
  "type": "node",
  "id": 844550907,
  "lat": 41.9165308,
  "lon": 8.7315393,
  "tags": {
    "highway": "bus_stop",
    "name": "Marcaggi",
    "public_transport": "platform",
    "shelter": "yes"
  }
},
{
  "type": "node",
  "id": 844550908,
  "lat": 41.9130063,
  "lon": 8.7266608,
  "tags": {
    "highway": "bus_stop",
    "name": "Trottel",
    "public_transport": "platform",
    "shelter": "yes"
  }
},
{
  "type": "node",
  "id": 844550910,
  "lat": 41.9143542,
  "lon": 8.7247385,
  "tags": {
    "highway": "bus_stop",
    "name": "Forcone",
    "public_transport": "platform",
    "shelter": "no"
  }
},
{
  "type": "node",
  "id": 844550919,
  "lat": 41.9171086,
  "lon": 8.7340258,
  "tags": {
    "bench": "yes",
    "highway": "bus_stop",
    "name": "Saint-François",
    "public_transport": "platform",
    "route_ref": "2;5",
    "shelter": "yes"
  }
},
{
  "type": "node",
  "id": 844550930,
  "lat": 41.9177191,
  "lon": 8.7344059,
  "tags": {
    "highway": "bus_stop",
    "name": "Place de Gaulle",
    "operator": "TCA",
    "public_transport": "platform",
    "shelter": "no"
  }
},
{
  "type": "node",
  "id": 844550932,
  "lat": 41.9153948,
  "lon": 8.7242886,
  "tags": {
    "bus": "yes",
    "highway": "bus_stop",
    "name": "Casone",
    "public_transport": "platform",
    "shelter": "no"
  }
},
{
  "type": "node",
  "id": 844550935,
  "lat": 41.9156635,
  "lon": 8.7307852,
  "tags": {
    "bench": "yes",
    "highway": "bus_stop",
    "name": "Allée des Mimosas",
    "public_transport": "platform",
    "route_ref": "2;5",
    "shelter": "no"
  }
},
{
  "type": "node",
  "id": 844550940,
  "lat": 41.9154425,
  "lon": 8.7240993,
  "tags": {
    "bus": "yes",
    "highway": "bus_stop",
    "name": "Casone",
    "public_transport": "platform",
    "shelter": "no"
  }
},
{
  "type": "node",
  "id": 844550943,
  "lat": 41.9182292,
  "lon": 8.7342556,
  "tags": {
    "highway": "bus_stop",
    "name": "Place de Gaulle",
    "public_transport": "platform",
    "shelter": "no"
  }
},
{
  "type": "node",
  "id": 844550946,
  "lat": 41.9129458,
  "lon": 8.7252990,
  "tags": {
    "highway": "bus_stop",
    "name": "Trottel",
    "public_transport": "platform",
    "shelter": "no"
  }
},
{
  "type": "node",
  "id": 844550953,
  "lat": 41.9142823,
  "lon": 8.7291583,
  "tags": {
    "bench": "yes",
    "highway": "bus_stop",
    "name": "Place Miot",
    "public_transport": "platform",
    "route_ref": "2;5",
    "shelter": "yes"
  }
},
{
  "type": "node",
  "id": 844556531,
  "lat": 41.9204595,
  "lon": 8.7287161,
  "tags": {
    "highway": "bus_stop",
    "name": "Balestrino",
    "public_transport": "platform",
    "shelter": "no",
    "source": "cadastre-dgi-fr source : Direction Générale des Impôts - Cadastre. Mise à jour : 2010"
  }
},
{
  "type": "node",
  "id": 844556536,
  "lat": 41.9182677,
  "lon": 8.7259548,
  "tags": {
    "highway": "bus_stop",
    "name": "Bois des Anglais",
    "public_transport": "platform",
    "shelter": "no",
    "source": "cadastre-dgi-fr source : Direction Générale des Impôts - Cadastre. Mise à jour : 2010"
  }
},
{
  "type": "node",
  "id": 844556537,
  "lat": 41.9203717,
  "lon": 8.7287478,
  "tags": {
    "highway": "bus_stop",
    "name": "Balestrino",
    "public_transport": "platform",
    "shelter": "no",
    "source": "cadastre-dgi-fr source : Direction Générale des Impôts - Cadastre. Mise à jour : 2010"
  }
},
{
  "type": "node",
  "id": 844556540,
  "lat": 41.9182636,
  "lon": 8.7261590,
  "tags": {
    "highway": "bus_stop",
    "name": "Bois des Anglais",
    "public_transport": "platform",
    "shelter": "no",
    "source": "cadastre-dgi-fr source : Direction Générale des Impôts - Cadastre. Mise à jour : 2010"
  }
},
{
  "type": "node",
  "id": 844597635,
  "lat": 41.9176040,
  "lon": 8.7309246,
  "tags": {
    "highway": "bus_stop",
    "name": "Grandval",
    "public_transport": "platform",
    "shelter": "no",
    "source": "cadastre-dgi-fr source : Direction Générale des Impôts - Cadastre. Mise à jour : 2010"
  }
},
{
  "type": "node",
  "id": 844597638,
  "lat": 41.9251507,
  "lon": 8.7290214,
  "tags": {
    "highway": "bus_stop",
    "name": "Empereur Maillot",
    "public_transport": "platform",
    "shelter": "no",
    "source": "cadastre-dgi-fr source : Direction Générale des Impôts - Cadastre. Mise à jour : 2010"
  }
},
{
  "type": "node",
  "id": 844597641,
  "lat": 41.9162397,
  "lon": 8.7264168,
  "tags": {
    "highway": "bus_stop",
    "name": "Fabiani",
    "public_transport": "platform",
    "shelter": "no",
    "source": "cadastre-dgi-fr source : Direction Générale des Impôts - Cadastre. Mise à jour : 2010",
    "tactile_paving": "no"
  }
},
{
  "type": "node",
  "id": 844597647,
  "lat": 41.9227231,
  "lon": 8.7308735,
  "tags": {
    "highway": "bus_stop",
    "name": "Verdun",
    "public_transport": "platform",
    "shelter": "no",
    "source": "cadastre-dgi-fr source : Direction Générale des Impôts - Cadastre. Mise à jour : 2010"
  }
},
{
  "type": "node",
  "id": 844597649,
  "lat": 41.9177643,
  "lon": 8.7313214,
  "tags": {
    "highway": "bus_stop",
    "name": "Grandval",
    "public_transport": "platform",
    "shelter": "no",
    "source": "cadastre-dgi-fr source : Direction Générale des Impôts - Cadastre. Mise à jour : 2010"
  }
},
{
  "type": "node",
  "id": 844597651,
  "lat": 41.9212365,
  "lon": 8.7298522,
  "tags": {
    "highway": "bus_stop",
    "name": "Oliveto CNFPT",
    "public_transport": "platform",
    "shelter": "no",
    "source": "cadastre-dgi-fr source : Direction Générale des Impôts - Cadastre. Mise à jour : 2010"
  }
},
{
  "type": "node",
  "id": 844597654,
  "lat": 41.9252876,
  "lon": 8.7290746,
  "tags": {
    "highway": "bus_stop",
    "name": "Empereur Maillot",
    "public_transport": "platform",
    "shelter": "no",
    "source": "cadastre-dgi-fr source : Direction Générale des Impôts - Cadastre. Mise à jour : 2010"
  }
},
{
  "type": "node",
  "id": 844597665,
  "lat": 41.9267048,
  "lon": 8.7283745,
  "tags": {
    "highway": "bus_stop",
    "name": "Empereur",
    "public_transport": "platform",
    "shelter": "no",
    "source": "cadastre-dgi-fr source : Direction Générale des Impôts - Cadastre. Mise à jour : 2010"
  }
},
{
  "type": "node",
  "id": 844597669,
  "lat": 41.9180646,
  "lon": 8.7371223,
  "tags": {
    "bench": "yes",
    "highway": "bus_stop",
    "name": "Cathédrale",
    "public_transport": "platform",
    "route_ref": "1;2;3;4;5;7;9",
    "shelter": "yes",
    "source": "cadastre-dgi-fr source : Direction Générale des Impôts - Cadastre. Mise à jour : 2010"
  }
},
{
  "type": "node",
  "id": 844597670,
  "lat": 41.9238173,
  "lon": 8.7301812,
  "tags": {
    "highway": "bus_stop",
    "name": "Collines",
    "public_transport": "platform",
    "shelter": "no",
    "source": "cadastre-dgi-fr source : Direction Générale des Impôts - Cadastre. Mise à jour : 2010"
  }
},
{
  "type": "node",
  "id": 844597675,
  "lat": 41.9171650,
  "lon": 8.7275755,
  "tags": {
    "highway": "bus_stop",
    "name": "Leclerc",
    "public_transport": "platform",
    "shelter": "no",
    "source": "cadastre-dgi-fr source : Direction Générale des Impôts - Cadastre. Mise à jour : 2010"
  }
},
{
  "type": "node",
  "id": 844597679,
  "lat": 41.9147265,
  "lon": 8.7267841,
  "tags": {
    "highway": "bus_stop",
    "name": "Pugliesi-Conti",
    "public_transport": "platform",
    "shelter": "no",
    "source": "cadastre-dgi-fr source : Direction Générale des Impôts - Cadastre. Mise à jour : 2010"
  }
},
{
  "type": "node",
  "id": 844597682,
  "lat": 41.9162012,
  "lon": 8.7291256,
  "tags": {
    "highway": "bus_stop",
    "name": "Sacré-Coeur",
    "public_transport": "platform",
    "shelter": "no",
    "source": "cadastre-dgi-fr source : Direction Générale des Impôts - Cadastre. Mise à jour : 2010"
  }
},
{
  "type": "node",
  "id": 844597686,
  "lat": 41.9237558,
  "lon": 8.7303777,
  "tags": {
    "highway": "bus_stop",
    "name": "Collines",
    "public_transport": "platform",
    "shelter": "no",
    "source": "cadastre-dgi-fr source : Direction Générale des Impôts - Cadastre. Mise à jour : 2010"
  }
},
{
  "type": "node",
  "id": 844597691,
  "lat": 41.9210856,
  "lon": 8.7301128,
  "tags": {
    "highway": "bus_stop",
    "name": "Oliveto CNFPT",
    "public_transport": "platform",
    "shelter": "no",
    "source": "cadastre-dgi-fr source : Direction Générale des Impôts - Cadastre. Mise à jour : 2010"
  }
},
{
  "type": "node",
  "id": 844597695,
  "lat": 41.9151232,
  "lon": 8.7269307,
  "tags": {
    "highway": "bus_stop",
    "name": "Pugliesi-Conti",
    "public_transport": "platform",
    "shelter": "no",
    "source": "cadastre-dgi-fr source : Direction Générale des Impôts - Cadastre. Mise à jour : 2010"
  }
},
{
  "type": "node",
  "id": 844601216,
  "lat": 41.9224067,
  "lon": 8.7375136,
  "tags": {
    "bench": "yes",
    "highway": "bus_stop",
    "name": "Saint-Roch",
    "public_transport": "platform",
    "route_ref": "1;2;3;4;7",
    "shelter": "yes",
    "source": "cadastre-dgi-fr source : Direction Générale des Impôts - Cadastre. Mise à jour : 2010"
  }
},
{
  "type": "node",
  "id": 844601217,
  "lat": 41.9195068,
  "lon": 8.7369413,
  "tags": {
    "highway": "bus_stop",
    "name": "Préfecture",
    "public_transport": "platform",
    "route_ref": "1;2;3;4;7;9",
    "shelter": "yes",
    "source": "cadastre-dgi-fr source : Direction Générale des Impôts - Cadastre. Mise à jour : 2010"
  }
},
{
  "type": "node",
  "id": 844601222,
  "lat": 41.9256553,
  "lon": 8.7382290,
  "tags": {
    "highway": "bus_stop",
    "name": "Abbatucci",
    "public_transport": "platform",
    "shelter": "yes",
    "source": "cadastre-dgi-fr source : Direction Générale des Impôts - Cadastre. Mise à jour : 2010"
  }
},
{
  "type": "node",
  "id": 844601226,
  "lat": 41.9253071,
  "lon": 8.7379949,
  "tags": {
    "highway": "bus_stop",
    "name": "Abbatucci",
    "public_transport": "platform",
    "shelter": "yes",
    "source": "cadastre-dgi-fr source : Direction Générale des Impôts - Cadastre. Mise à jour : 2010"
  }
},
{
  "type": "node",
  "id": 844601235,
  "lat": 41.9221648,
  "lon": 8.7373784,
  "tags": {
    "highway": "bus_stop",
    "name": "Saint-Roch",
    "public_transport": "platform",
    "shelter": "yes",
    "source": "cadastre-dgi-fr source : Direction Générale des Impôts - Cadastre. Mise à jour : 2010"
  }
},
{
  "type": "node",
  "id": 844601237,
  "lat": 41.9195810,
  "lon": 8.7368462,
  "tags": {
    "highway": "bus_stop",
    "name": "Préfecture",
    "public_transport": "platform",
    "shelter": "yes",
    "source": "cadastre-dgi-fr source : Direction Générale des Impôts - Cadastre. Mise à jour : 2010"
  }
},
{
  "type": "node",
  "id": 844619624,
  "lat": 41.9417530,
  "lon": 8.7487786,
  "tags": {
    "highway": "bus_stop",
    "name": "Collège Giovoni",
    "public_transport": "platform",
    "shelter": "yes",
    "source": "cadastre-dgi-fr source : Direction Générale des Impôts - Cadastre. Mise à jour : 2010"
  }
},
{
  "type": "node",
  "id": 844619632,
  "lat": 41.9323725,
  "lon": 8.7375392,
  "tags": {
    "highway": "bus_stop",
    "name": "Biancarello",
    "public_transport": "platform",
    "shelter": "no",
    "source": "cadastre-dgi-fr source : Direction Générale des Impôts - Cadastre. Mise à jour : 2010"
  }
},
{
  "type": "node",
  "id": 844619635,
  "lat": 41.9347954,
  "lon": 8.7366200,
  "tags": {
    "highway": "bus_stop",
    "name": "Brasilia",
    "public_transport": "platform",
    "shelter": "no",
    "source": "cadastre-dgi-fr source : Direction Générale des Impôts - Cadastre. Mise à jour : 2010"
  }
},
{
  "type": "node",
  "id": 844619639,
  "lat": 41.9434030,
  "lon": 8.7538465,
  "tags": {
    "bus": "yes",
    "highway": "bus_stop",
    "name": "Rond-Point Budiccionne",
    "public_transport": "platform",
    "shelter": "no",
    "source": "cadastre-dgi-fr source : Direction Générale des Impôts - Cadastre. Mise à jour : 2010"
  }
},
{
  "type": "node",
  "id": 844619640,
  "lat": 41.9397387,
  "lon": 8.7435884,
  "tags": {
    "highway": "bus_stop",
    "name": "Finosello Rocade",
    "public_transport": "platform",
    "shelter": "no",
    "source": "cadastre-dgi-fr source : Direction Générale des Impôts - Cadastre. Mise à jour : 2010"
  }
},
{
  "type": "node",
  "id": 844619641,
  "lat": 41.9418264,
  "lon": 8.7481156,
  "tags": {
    "highway": "bus_stop",
    "name": "Collège Giovoni",
    "public_transport": "platform",
    "shelter": "yes",
    "source": "cadastre-dgi-fr source : Direction Générale des Impôts - Cadastre. Mise à jour : 2010"
  }
},
{
  "type": "node",
  "id": 844619643,
  "lat": 41.9308078,
  "lon": 8.7397779,
  "tags": {
    "highway": "bus_stop",
    "name": "Saint-Jean",
    "public_transport": "platform",
    "shelter": "no",
    "source": "cadastre-dgi-fr source : Direction Générale des Impôts - Cadastre. Mise à jour : 2010"
  }
},
{
  "type": "node",
  "id": 844619646,
  "lat": 41.9376046,
  "lon": 8.7386739,
  "tags": {
    "highway": "bus_stop",
    "name": "Sécurité Sociale",
    "shelter": "no",
    "source": "cadastre-dgi-fr source : Direction Générale des Impôts - Cadastre. Mise à jour : 2010"
  }
},
{
  "type": "node",
  "id": 844619647,
  "lat": 41.9304463,
  "lon": 8.7387591,
  "tags": {
    "highway": "bus_stop",
    "name": "Kennedy",
    "public_transport": "platform",
    "shelter": "no",
    "source": "cadastre-dgi-fr source : Direction Générale des Impôts - Cadastre. Mise à jour : 2010"
  }
},
{
  "type": "node",
  "id": 844619648,
  "lat": 41.9398505,
  "lon": 8.7434594,
  "tags": {
    "highway": "bus_stop",
    "name": "Finosello Rocade",
    "public_transport": "platform",
    "shelter": "no",
    "source": "cadastre-dgi-fr source : Direction Générale des Impôts - Cadastre. Mise à jour : 2010"
  }
},
{
  "type": "node",
  "id": 844619652,
  "lat": 41.9376017,
  "lon": 8.7389216,
  "tags": {
    "highway": "bus_stop",
    "name": "Sécurité Sociale",
    "shelter": "no",
    "source": "cadastre-dgi-fr source : Direction Générale des Impôts - Cadastre. Mise à jour : 2010"
  }
},
{
  "type": "node",
  "id": 844619658,
  "lat": 41.9327946,
  "lon": 8.7416135,
  "tags": {
    "bench": "yes",
    "highway": "bus_stop",
    "name": "Les Cannes",
    "public_transport": "platform",
    "shelter": "yes",
    "source": "cadastre-dgi-fr source : Direction Générale des Impôts - Cadastre. Mise à jour : 2010"
  }
},
{
  "type": "node",
  "id": 844619660,
  "lat": 41.9434893,
  "lon": 8.7537670,
  "tags": {
    "bus": "yes",
    "highway": "bus_stop",
    "name": "Rond-Point Budiccionne",
    "public_transport": "platform",
    "shelter": "no",
    "source": "cadastre-dgi-fr source : Direction Générale des Impôts - Cadastre. Mise à jour : 2010"
  }
},
{
  "type": "node",
  "id": 844619662,
  "lat": 41.9273886,
  "lon": 8.7384544,
  "tags": {
    "highway": "bus_stop",
    "name": "Sainte-Lucie",
    "public_transport": "platform",
    "shelter": "no",
    "source": "cadastre-dgi-fr source : Direction Générale des Impôts - Cadastre. Mise à jour : 2010"
  }
},
{
  "type": "node",
  "id": 844619666,
  "lat": 41.9309438,
  "lon": 8.7382884,
  "tags": {
    "highway": "bus_stop",
    "name": "Castelvecchio",
    "public_transport": "platform",
    "shelter": "no",
    "source": "cadastre-dgi-fr source : Direction Générale des Impôts - Cadastre. Mise à jour : 2010"
  }
},
{
  "type": "node",
  "id": 844619682,
  "lat": 41.9348713,
  "lon": 8.7364586,
  "tags": {
    "highway": "bus_stop",
    "name": "Brasilia",
    "public_transport": "platform",
    "shelter": "no",
    "source": "cadastre-dgi-fr source : Direction Générale des Impôts - Cadastre. Mise à jour : 2010"
  }
},
{
  "type": "node",
  "id": 844619690,
  "lat": 41.9274008,
  "lon": 8.7385934,
  "tags": {
    "highway": "bus_stop",
    "name": "Sainte-Lucie",
    "public_transport": "platform",
    "shelter": "yes",
    "source": "cadastre-dgi-fr source : Direction Générale des Impôts - Cadastre. Mise à jour : 2010"
  }
},
{
  "type": "node",
  "id": 844704863,
  "lat": 41.9202222,
  "lon": 8.7333969,
  "tags": {
    "highway": "bus_stop",
    "name": "Caisse d'Allocations Familiales",
    "public_transport": "platform",
    "shelter": "no",
    "source": "cadastre-dgi-fr source : Direction Générale des Impôts - Cadastre. Mise à jour : 2010"
  }
},
{
  "type": "node",
  "id": 844704871,
  "lat": 41.9199786,
  "lon": 8.7365205,
  "tags": {
    "highway": "bus_stop",
    "name": "Casalonga",
    "public_transport": "platform",
    "shelter": "no",
    "source": "cadastre-dgi-fr source : Direction Générale des Impôts - Cadastre. Mise à jour : 2010"
  }
},
{
  "type": "node",
  "id": 844704876,
  "lat": 41.9208312,
  "lon": 8.7343289,
  "tags": {
    "highway": "bus_stop",
    "name": "Caisse d'Allocations Familiales",
    "public_transport": "platform",
    "shelter": "no",
    "source": "cadastre-dgi-fr source : Direction Générale des Impôts - Cadastre. Mise à jour : 2010"
  }
},
{
  "type": "node",
  "id": 844704879,
  "lat": 41.9292411,
  "lon": 8.7302232,
  "tags": {
    "highway": "bus_stop",
    "name": "Battesti",
    "public_transport": "platform",
    "shelter": "no",
    "source": "cadastre-dgi-fr source : Direction Générale des Impôts - Cadastre. Mise à jour : 2010"
  }
},
{
  "type": "node",
  "id": 844704883,
  "lat": 41.9269848,
  "lon": 8.7352288,
  "tags": {
    "highway": "bus_stop",
    "name": "La Vilette",
    "public_transport": "platform",
    "shelter": "no",
    "source": "cadastre-dgi-fr source : Direction Générale des Impôts - Cadastre. Mise à jour : 2010"
  }
},
{
  "type": "node",
  "id": 844704890,
  "lat": 41.9285366,
  "lon": 8.7366984,
  "tags": {
    "highway": "bus_stop",
    "name": "Kallisté",
    "public_transport": "platform",
    "shelter": "no",
    "source": "cadastre-dgi-fr source : Direction Générale des Impôts - Cadastre. Mise à jour : 2010"
  }
},
{
  "type": "node",
  "id": 844704896,
  "lat": 41.9290451,
  "lon": 8.7329772,
  "tags": {
    "highway": "bus_stop",
    "name": "Moncey",
    "public_transport": "platform",
    "shelter": "no",
    "source": "cadastre-dgi-fr source : Direction Générale des Impôts - Cadastre. Mise à jour : 2010"
  }
},
{
  "type": "node",
  "id": 844704899,
  "lat": 41.9293226,
  "lon": 8.7302351,
  "tags": {
    "highway": "bus_stop",
    "name": "Battesti",
    "public_transport": "platform",
    "shelter": "no",
    "source": "cadastre-dgi-fr source : Direction Générale des Impôts - Cadastre. Mise à jour : 2010"
  }
},
{
  "type": "node",
  "id": 844704902,
  "lat": 41.9288142,
  "lon": 8.7327268,
  "tags": {
    "highway": "bus_stop",
    "name": "Moncey",
    "public_transport": "platform",
    "shelter": "no",
    "source": "cadastre-dgi-fr source : Direction Générale des Impôts - Cadastre. Mise à jour : 2010"
  }
},
{
  "type": "node",
  "id": 844704912,
  "lat": 41.9290249,
  "lon": 8.7330624,
  "tags": {
    "highway": "bus_stop",
    "name": "Moncey",
    "public_transport": "platform",
    "shelter": "no",
    "source": "cadastre-dgi-fr source : Direction Générale des Impôts - Cadastre. Mise à jour : 2010"
  }
},
{
  "type": "node",
  "id": 844704913,
  "lat": 41.9227322,
  "lon": 8.7351038,
  "tags": {
    "highway": "bus_stop",
    "name": "Centre Hospitalier",
    "public_transport": "platform",
    "shelter": "no",
    "source": "cadastre-dgi-fr source : Direction Générale des Impôts - Cadastre. Mise à jour : 2010"
  }
},
{
  "type": "node",
  "id": 844704915,
  "lat": 41.9311318,
  "lon": 8.7333779,
  "tags": {
    "highway": "bus_stop",
    "name": "Loretto",
    "public_transport": "platform",
    "shelter": "yes",
    "source": "cadastre-dgi-fr source : Direction Générale des Impôts - Cadastre. Mise à jour : 2010"
  }
},
{
  "type": "node",
  "id": 844704918,
  "lat": 41.9289615,
  "lon": 8.7325741,
  "tags": {
    "highway": "bus_stop",
    "name": "Moncey",
    "shelter": "no",
    "source": "cadastre-dgi-fr source : Direction Générale des Impôts - Cadastre. Mise à jour : 2010"
  }
},
{
  "type": "node",
  "id": 844704922,
  "lat": 41.9307828,
  "lon": 8.7353630,
  "tags": {
    "highway": "bus_stop",
    "name": "Pellegrino",
    "public_transport": "platform",
    "shelter": "no",
    "source": "cadastre-dgi-fr source : Direction Générale des Impôts - Cadastre. Mise à jour : 2010"
  }
},
{
  "type": "node",
  "id": 1709221449,
  "lat": 41.9206007,
  "lon": 8.7941358,
  "tags": {
    "bench": "yes",
    "highway": "bus_stop",
    "name": "Aéroport",
    "public_transport": "platform",
    "shelter": "yes"
  }
},
{
  "type": "node",
  "id": 1709221450,
  "lat": 41.9213351,
  "lon": 8.7868738,
  "tags": {
    "highway": "bus_stop",
    "name": "Capitello Plage",
    "public_transport": "platform"
  }
},
{
  "type": "node",
  "id": 1709221462,
  "lat": 41.9214348,
  "lon": 8.7870060,
  "tags": {
    "highway": "bus_stop",
    "name": "Capitello Plage",
    "public_transport": "platform"
  }
},
{
  "type": "node",
  "id": 1709221463,
  "lat": 41.9213856,
  "lon": 8.7905480,
  "tags": {
    "highway": "bus_stop",
    "name": "Capitello",
    "public_transport": "platform"
  }
},
{
  "type": "node",
  "id": 1709221464,
  "lat": 41.9255567,
  "lon": 8.7799898,
  "tags": {
    "highway": "bus_stop",
    "name": "Ricanto",
    "public_transport": "platform"
  }
},
{
  "type": "node",
  "id": 1712427459,
  "lat": 41.9295965,
  "lon": 8.7604703,
  "tags": {
    "highway": "bus_stop",
    "name": "Aspretto",
    "public_transport": "platform"
  }
},
{
  "type": "node",
  "id": 1712427462,
  "lat": 41.9295829,
  "lon": 8.7625769,
  "tags": {
    "bus": "yes",
    "highway": "bus_stop",
    "name": "Aspretto",
    "public_transport": "platform"
  }
},
{
  "type": "node",
  "id": 1712427475,
  "lat": 41.9330864,
  "lon": 8.7548123,
  "tags": {
    "highway": "bus_stop",
    "name": "Maison de l'Emploi - CAPA",
    "public_transport": "platform"
  }
},
{
  "type": "node",
  "id": 1712427480,
  "lat": 41.9337119,
  "lon": 8.7540297,
  "tags": {
    "bench": "yes",
    "highway": "bus_stop",
    "name": "Maison de l'Emploi - CAPA",
    "public_transport": "platform",
    "shelter": "yes"
  }
},
{
  "type": "node",
  "id": 1712427490,
  "lat": 41.9284261,
  "lon": 8.7679048,
  "tags": {
    "highway": "bus_stop",
    "name": "Pont du Ricanto",
    "public_transport": "platform",
    "shelter": "no"
  }
},
{
  "type": "node",
  "id": 1712427492,
  "lat": 41.9287388,
  "lon": 8.7687384,
  "tags": {
    "bench": "yes",
    "highway": "bus_stop",
    "name": "Pont du Ricanto",
    "public_transport": "platform",
    "shelter": "yes"
  }
},
{
  "type": "node",
  "id": 1712427494,
  "lat": 41.9305935,
  "lon": 8.7569896,
  "tags": {
    "highway": "bus_stop",
    "name": "Saint-Joseph",
    "public_transport": "platform"
  }
},
{
  "type": "node",
  "id": 1712427518,
  "lat": 41.9315058,
  "lon": 8.7570133,
  "tags": {
    "highway": "bus_stop",
    "name": "Saint-Joseph",
    "public_transport": "platform"
  }
},
{
  "type": "node",
  "id": 1712456612,
  "lat": 41.9224474,
  "lon": 8.7395989,
  "tags": {
    "highway": "bus_stop",
    "name": "Ajaccio Gare Routière",
    "wheelchair": "yes"
  }
},
{
  "type": "node",
  "id": 1712467166,
  "lat": 41.9268296,
  "lon": 8.7388001,
  "tags": {
    "highway": "bus_stop",
    "name": "Gare CFC",
    "public_transport": "platform",
    "shelter": "no",
    "source": "cadastre-dgi-fr source : Direction Générale des Impôts - Cadastre. Mise à jour : 2010"
  }
},
{
  "type": "node",
  "id": 1712467173,
  "lat": 41.9273720,
  "lon": 8.7398204,
  "tags": {
    "highway": "bus_stop",
    "name": "Gare CFC",
    "public_transport": "platform",
    "shelter": "yes",
    "source": "cadastre-dgi-fr source : Direction Générale des Impôts - Cadastre. Mise à jour : 2010"
  }
},
{
  "type": "node",
  "id": 1712467185,
  "lat": 41.9276068,
  "lon": 8.7760506,
  "tags": {
    "bus": "yes",
    "highway": "bus_stop",
    "name": "Institut Consulaire",
    "public_transport": "platform"
  }
},
{
  "type": "node",
  "id": 1712467188,
  "lat": 41.9280262,
  "lon": 8.7759157,
  "tags": {
    "bus": "yes",
    "highway": "bus_stop",
    "name": "Institut Consulaire",
    "public_transport": "platform"
  }
},
{
  "type": "node",
  "id": 1712467191,
  "lat": 41.9331659,
  "lon": 8.7434195,
  "tags": {
    "highway": "bus_stop",
    "name": "Les Cannes Amirauté",
    "public_transport": "platform",
    "shelter": "no",
    "source": "cadastre-dgi-fr source : Direction Générale des Impôts - Cadastre. Mise à jour : 2010"
  }
},
{
  "type": "node",
  "id": 1712467218,
  "lat": 41.9341847,
  "lon": 8.7504024,
  "tags": {
    "highway": "bus_stop",
    "name": "Les Salines",
    "public_transport": "platform"
  }
},
{
  "type": "node",
  "id": 1712467222,
  "lat": 41.9342540,
  "lon": 8.7462219,
  "tags": {
    "highway": "bus_stop",
    "name": "Prince Impérial",
    "public_transport": "platform"
  }
},
{
  "type": "node",
  "id": 1712820677,
  "lat": 41.9506818,
  "lon": 8.7826212,
  "tags": {
    "highway": "bus_stop",
    "name": "Confina",
    "public_transport": "platform",
    "shelter": "yes"
  }
},
{
  "type": "node",
  "id": 1785285346,
  "lat": 41.9349149,
  "lon": 8.7456402,
  "tags": {
    "bench": "yes",
    "highway": "bus_stop",
    "name": "Prince Impérial",
    "public_transport": "platform"
  }
},
{
  "type": "node",
  "id": 1785285386,
  "lat": 41.9346497,
  "lon": 8.7449647,
  "tags": {
    "highway": "bus_stop",
    "name": "Prince Impérial",
    "public_transport": "platform"
  }
},
{
  "type": "node",
  "id": 2903844440,
  "lat": 41.9255728,
  "lon": 8.7805171,
  "tags": {
    "bench": "yes",
    "highway": "bus_stop",
    "name": "P+R Campo Dell' Oro",
    "public_transport": "platform",
    "route_ref": "8",
    "shelter": "yes"
  }
},
{
  "type": "node",
  "id": 2904618042,
  "lat": 41.9269482,
  "lon": 8.7385963,
  "tags": {
    "bench": "yes",
    "highway": "bus_stop",
    "name": "Gare CFC",
    "public_transport": "platform",
    "shelter": "yes"
  }
},
{
  "type": "node",
  "id": 2905253051,
  "lat": 41.9135687,
  "lon": 8.7282783,
  "tags": {
    "bench": "yes",
    "highway": "bus_stop",
    "name": "Place Miot",
    "public_transport": "platform",
    "route_ref": "2;5",
    "shelter": "no"
  }
},
{
  "type": "node",
  "id": 2905346659,
  "lat": 41.9332171,
  "lon": 8.7430947,
  "tags": {
    "bench": "yes",
    "highway": "bus_stop",
    "name": "Les Cannes",
    "public_transport": "platform",
    "shelter": "yes"
  }
},
{
  "type": "node",
  "id": 5193583057,
  "lat": 41.9359209,
  "lon": 8.7561401,
  "tags": {
    "bench": "yes",
    "highway": "bus_stop",
    "name": "Bel Horizonte",
    "network": "Muvistrada",
    "operator": "CAPA",
    "public_transport": "platform",
    "shelter": "no"
  }
},
{
  "type": "node",
  "id": 5747048363,
  "lat": 41.9017502,
  "lon": 8.6192363,
  "tags": {
    "highway": "bus_stop",
    "name": "Parata",
    "public_transport": "platform"
  }
},
{
  "type": "node",
  "id": 5975021423,
  "lat": 41.9359437,
  "lon": 8.7147653,
  "tags": {
    "bus": "yes",
    "highway": "bus_stop",
    "name": "Castelluccio",
    "public_transport": "platform"
  }
},
{
  "type": "node",
  "id": 5975196471,
  "lat": 41.9331009,
  "lon": 8.7347276,
  "tags": {
    "highway": "bus_stop",
    "name": "AGJA",
    "public_transport": "platform"
  }
},
{
  "type": "node",
  "id": 5975196484,
  "lat": 41.9313449,
  "lon": 8.7330714,
  "tags": {
    "highway": "bus_stop",
    "name": "Loretto Supranu",
    "public_transport": "platform",
    "shelter": "yes",
    "source": "cadastre-dgi-fr source : Direction Générale des Impôts - Cadastre. Mise à jour : 2010"
  }
},
{
  "type": "node",
  "id": 5975200086,
  "lat": 41.9291160,
  "lon": 8.7272349,
  "tags": {
    "highway": "bus_stop",
    "name": "Résidence Loreto",
    "public_transport": "platform"
  }
},
{
  "type": "node",
  "id": 5975200087,
  "lat": 41.9293714,
  "lon": 8.7264785,
  "tags": {
    "highway": "bus_stop",
    "name": "Résidence Loreto",
    "public_transport": "platform"
  }
},
{
  "type": "node",
  "id": 5975200089,
  "lat": 41.9312312,
  "lon": 8.7247539,
  "tags": {
    "highway": "bus_stop",
    "name": "Vittulo",
    "public_transport": "platform"
  }
},
{
  "type": "node",
  "id": 5975200090,
  "lat": 41.9313290,
  "lon": 8.7248397,
  "tags": {
    "highway": "bus_stop",
    "name": "Vittulo",
    "public_transport": "platform"
  }
},
{
  "type": "node",
  "id": 5975507932,
  "lat": 41.9283937,
  "lon": 8.7942955,
  "tags": {
    "highway": "bus_stop",
    "name": "Cavone",
    "public_transport": "platform"
  }
},
{
  "type": "node",
  "id": 5975507933,
  "lat": 41.9284715,
  "lon": 8.7934855,
  "tags": {
    "highway": "bus_stop",
    "name": "Cavone",
    "public_transport": "platform"
  }
},
{
  "type": "node",
  "id": 5975507935,
  "lat": 41.9367024,
  "lon": 8.7936947,
  "tags": {
    "highway": "bus_stop",
    "name": "Hauts du Vazzio",
    "public_transport": "platform"
  }
},
{
  "type": "node",
  "id": 5975507936,
  "lat": 41.9314248,
  "lon": 8.7898940,
  "tags": {
    "highway": "bus_stop",
    "name": "Espace Funéraire",
    "public_transport": "platform"
  }
},
{
  "type": "node",
  "id": 5975507937,
  "lat": 41.9313589,
  "lon": 8.7900442,
  "tags": {
    "highway": "bus_stop",
    "name": "Espace Funéraire",
    "public_transport": "platform"
  }
},
{
  "type": "node",
  "id": 5975507938,
  "lat": 41.9331009,
  "lon": 8.7880942,
  "tags": {
    "highway": "bus_stop",
    "name": "Vazzio",
    "public_transport": "platform"
  }
},
{
  "type": "node",
  "id": 5975507939,
  "lat": 41.9328954,
  "lon": 8.7881961,
  "tags": {
    "highway": "bus_stop",
    "name": "Vazzio",
    "public_transport": "platform"
  }
},
{
  "type": "node",
  "id": 5975507940,
  "lat": 41.9305178,
  "lon": 8.7871836,
  "tags": {
    "highway": "bus_stop",
    "name": "Corse Composites",
    "public_transport": "platform"
  }
},
{
  "type": "node",
  "id": 5975507941,
  "lat": 41.9305557,
  "lon": 8.7873499,
  "tags": {
    "highway": "bus_stop",
    "name": "Corse Composites",
    "public_transport": "platform"
  }
},
{
  "type": "node",
  "id": 5975507943,
  "lat": 41.9300918,
  "lon": 8.7834379,
  "tags": {
    "highway": "bus_stop",
    "name": "Coteaux de Timizzolo",
    "public_transport": "platform"
  }
},
{
  "type": "node",
  "id": 5975507944,
  "lat": 41.9299102,
  "lon": 8.7756488,
  "tags": {
    "highway": "bus_stop",
    "name": "Stade François Coty",
    "public_transport": "platform"
  }
},
{
  "type": "node",
  "id": 5975507946,
  "lat": 41.9297646,
  "lon": 8.7755200,
  "tags": {
    "highway": "bus_stop",
    "name": "Stade François Coty",
    "public_transport": "platform"
  }
},
{
  "type": "node",
  "id": 5975507947,
  "lat": 41.9300080,
  "lon": 8.7626615,
  "tags": {
    "highway": "bus_stop",
    "name": "Alzo di Sole",
    "public_transport": "platform"
  }
},
{
  "type": "node",
  "id": 5975507948,
  "lat": 41.9300838,
  "lon": 8.7621760,
  "tags": {
    "highway": "bus_stop",
    "name": "Alzo di Sole",
    "public_transport": "platform"
  }
},
{
  "type": "node",
  "id": 5975507950,
  "lat": 41.9338770,
  "lon": 8.7516350,
  "tags": {
    "highway": "bus_stop",
    "name": "Salines CFC",
    "public_transport": "platform"
  }
},
{
  "type": "node",
  "id": 5975507952,
  "lat": 41.9350513,
  "lon": 8.7503971,
  "tags": {
    "highway": "bus_stop",
    "name": "Les Salines",
    "public_transport": "platform"
  }
},
{
  "type": "node",
  "id": 5975811701,
  "lat": 41.9296668,
  "lon": 8.7390715,
  "tags": {
    "highway": "bus_stop",
    "name": "Saint-Jean",
    "public_transport": "platform",
    "shelter": "yes"
  }
},
{
  "type": "node",
  "id": 5975964015,
  "lat": 41.9087328,
  "lon": 8.7137863,
  "tags": {
    "highway": "bus_stop",
    "name": "Sept Chapelles",
    "public_transport": "platform"
  }
},
{
  "type": "node",
  "id": 5975964016,
  "lat": 41.9088406,
  "lon": 8.7132036,
  "tags": {
    "highway": "bus_stop",
    "name": "Sept Chapelles",
    "public_transport": "platform"
  }
},
{
  "type": "node",
  "id": 5975964018,
  "lat": 41.9088416,
  "lon": 8.7161742,
  "tags": {
    "highway": "bus_stop",
    "name": "Les Galets",
    "public_transport": "platform",
    "shelter": "yes"
  }
},
{
  "type": "node",
  "id": 5975964033,
  "lat": 41.9148966,
  "lon": 8.7298635,
  "tags": {
    "bench": "yes",
    "highway": "bus_stop",
    "name": "Allée des Mimosas",
    "public_transport": "platform",
    "route_ref": "2;5",
    "shelter": "no"
  }
},
{
  "type": "node",
  "id": 5975964046,
  "lat": 41.9356569,
  "lon": 8.7533931,
  "tags": {
    "highway": "bus_stop",
    "name": "LEP Antonini",
    "public_transport": "platform"
  }
},
{
  "type": "node",
  "id": 5975964047,
  "lat": 41.9356759,
  "lon": 8.7535956,
  "tags": {
    "highway": "bus_stop",
    "name": "LEP Antonini",
    "public_transport": "platform"
  }
},
{
  "type": "node",
  "id": 5975964055,
  "lat": 41.9377419,
  "lon": 8.7541938,
  "tags": {
    "highway": "bus_stop",
    "name": "Chambre d'Agriculture",
    "public_transport": "platform"
  }
},
{
  "type": "node",
  "id": 5975964057,
  "lat": 41.9386019,
  "lon": 8.7545210,
  "tags": {
    "highway": "bus_stop",
    "name": "Madonuccia",
    "public_transport": "platform"
  }
},
{
  "type": "node",
  "id": 5975964058,
  "lat": 41.9392144,
  "lon": 8.7555832,
  "tags": {
    "highway": "bus_stop",
    "name": "Madonuccia",
    "public_transport": "platform"
  }
},
{
  "type": "node",
  "id": 5975964061,
  "lat": 41.9414609,
  "lon": 8.7560499,
  "tags": {
    "highway": "bus_stop",
    "name": "Orée des Bois",
    "public_transport": "platform"
  }
},
{
  "type": "node",
  "id": 5975964062,
  "lat": 41.9413023,
  "lon": 8.7562175,
  "tags": {
    "highway": "bus_stop",
    "name": "Orée des Bois",
    "public_transport": "platform"
  }
},
{
  "type": "node",
  "id": 5975964064,
  "lat": 41.9429757,
  "lon": 8.7571194,
  "tags": {
    "highway": "bus_stop",
    "name": "AFP",
    "public_transport": "platform"
  }
},
{
  "type": "node",
  "id": 5975964065,
  "lat": 41.9429682,
  "lon": 8.7569726,
  "tags": {
    "highway": "bus_stop",
    "name": "AFP",
    "public_transport": "platform"
  }
},
{
  "type": "node",
  "id": 5975964067,
  "lat": 41.9453802,
  "lon": 8.7587656,
  "tags": {
    "bus": "yes",
    "highway": "bus_stop",
    "name": "Rocade",
    "public_transport": "platform"
  }
},
{
  "type": "node",
  "id": 5975964069,
  "lat": 41.9474330,
  "lon": 8.7631483,
  "tags": {
    "highway": "bus_stop",
    "name": "Suartello",
    "public_transport": "platform"
  }
},
{
  "type": "node",
  "id": 5975964070,
  "lat": 41.9475028,
  "lon": 8.7630773,
  "tags": {
    "highway": "bus_stop",
    "name": "Suartello",
    "public_transport": "platform"
  }
},
{
  "type": "node",
  "id": 5975964073,
  "lat": 41.9491077,
  "lon": 8.7672293,
  "tags": {
    "highway": "bus_stop",
    "name": "Ranucchietto",
    "public_transport": "platform"
  }
},
{
  "type": "node",
  "id": 5975964074,
  "lat": 41.9490907,
  "lon": 8.7669195,
  "tags": {
    "highway": "bus_stop",
    "name": "Ranucchietto",
    "public_transport": "platform"
  }
},
{
  "type": "node",
  "id": 5975964079,
  "lat": 41.9505869,
  "lon": 8.7724636,
  "tags": {
    "highway": "bus_stop",
    "name": "Acqualongua Stade",
    "public_transport": "platform"
  }
},
{
  "type": "node",
  "id": 5975964080,
  "lat": 41.9515663,
  "lon": 8.7732643,
  "tags": {
    "highway": "bus_stop",
    "name": "Acqualongua Stade",
    "public_transport": "platform"
  }
},
{
  "type": "node",
  "id": 5975964083,
  "lat": 41.9519084,
  "lon": 8.7769067,
  "tags": {
    "highway": "bus_stop",
    "name": "Acqualongua",
    "public_transport": "platform"
  }
},
{
  "type": "node",
  "id": 5975964084,
  "lat": 41.9519842,
  "lon": 8.7773466,
  "tags": {
    "highway": "bus_stop",
    "name": "Acqualongua",
    "public_transport": "platform"
  }
},
{
  "type": "node",
  "id": 5975967087,
  "lat": 41.9520879,
  "lon": 8.7786448,
  "tags": {
    "highway": "bus_stop",
    "name": "Mairie Annexe",
    "public_transport": "platform"
  }
},
{
  "type": "node",
  "id": 5975967088,
  "lat": 41.9519932,
  "lon": 8.7784517,
  "tags": {
    "highway": "bus_stop",
    "name": "Mairie Annexe",
    "public_transport": "platform"
  }
},
{
  "type": "node",
  "id": 5975967091,
  "lat": 41.9523203,
  "lon": 8.7804459,
  "tags": {
    "highway": "bus_stop",
    "name": "Mezzavia",
    "public_transport": "platform"
  }
},
{
  "type": "node",
  "id": 5975967092,
  "lat": 41.9524699,
  "lon": 8.7810574,
  "tags": {
    "highway": "bus_stop",
    "name": "Mezzavia",
    "public_transport": "platform"
  }
},
{
  "type": "node",
  "id": 5975967093,
  "lat": 41.9519623,
  "lon": 8.7845322,
  "tags": {
    "highway": "bus_stop",
    "name": "Pont de la Confina",
    "public_transport": "platform"
  }
},
{
  "type": "node",
  "id": 5975967094,
  "lat": 41.9518546,
  "lon": 8.7845886,
  "tags": {
    "highway": "bus_stop",
    "name": "Pont de la Confina",
    "public_transport": "platform"
  }
},
{
  "type": "node",
  "id": 5977723245,
  "lat": 41.9266695,
  "lon": 8.7289944,
  "tags": {
    "highway": "bus_stop",
    "name": "Parc Empereur",
    "public_transport": "platform",
    "shelter": "no",
    "source": "cadastre-dgi-fr source : Direction Générale des Impôts - Cadastre. Mise à jour : 2010"
  }
},
{
  "type": "node",
  "id": 5977723269,
  "lat": 41.9145268,
  "lon": 8.7250570,
  "tags": {
    "bus": "yes",
    "highway": "bus_stop",
    "name": "Forcone",
    "public_transport": "platform",
    "shelter": "no",
    "tactile_paving": "yes"
  }
},
{
  "type": "node",
  "id": 5977834086,
  "lat": 41.9347555,
  "lon": 8.7448429,
  "tags": {
    "highway": "bus_stop",
    "name": "Prince Impérial",
    "public_transport": "platform"
  }
},
{
  "type": "node",
  "id": 5977834087,
  "lat": 41.9372436,
  "lon": 8.7447236,
  "tags": {
    "highway": "bus_stop",
    "name": "Maréchal Lyautey",
    "public_transport": "platform"
  }
},
{
  "type": "node",
  "id": 5977834088,
  "lat": 41.9374436,
  "lon": 8.7446465,
  "tags": {
    "highway": "bus_stop",
    "name": "Maréchal Lyautey",
    "public_transport": "platform"
  }
},
{
  "type": "node",
  "id": 5977834091,
  "lat": 41.9391745,
  "lon": 8.7457140,
  "tags": {
    "highway": "bus_stop",
    "name": "LEP Finosello",
    "public_transport": "platform"
  }
},
{
  "type": "node",
  "id": 5977834092,
  "lat": 41.9392722,
  "lon": 8.7456134,
  "tags": {
    "highway": "bus_stop",
    "name": "LEP Finosello",
    "public_transport": "platform"
  }
},
{
  "type": "node",
  "id": 5977834094,
  "lat": 41.9412554,
  "lon": 8.7468553,
  "tags": {
    "highway": "bus_stop",
    "name": "Rocade Lyautey",
    "public_transport": "platform",
    "shelter": "yes"
  }
},
{
  "type": "node",
  "id": 5977834095,
  "lat": 41.9414051,
  "lon": 8.7467426,
  "tags": {
    "highway": "bus_stop",
    "name": "Rocade Lyautey",
    "public_transport": "platform",
    "shelter": "yes"
  }
},
{
  "type": "node",
  "id": 5977834102,
  "lat": 41.9389969,
  "lon": 8.7507284,
  "tags": {
    "highway": "bus_stop",
    "name": "Résidence Candia",
    "public_transport": "platform"
  }
},
{
  "type": "node",
  "id": 5977834103,
  "lat": 41.9394558,
  "lon": 8.7509456,
  "tags": {
    "highway": "bus_stop",
    "name": "Résidence Candia",
    "public_transport": "platform"
  }
},
{
  "type": "node",
  "id": 5977834106,
  "lat": 41.9374736,
  "lon": 8.7510389,
  "tags": {
    "highway": "bus_stop",
    "name": "Piscine Canetons",
    "public_transport": "platform"
  }
},
{
  "type": "node",
  "id": 5977834107,
  "lat": 41.9354254,
  "lon": 8.7509631,
  "tags": {
    "highway": "bus_stop",
    "name": "Maréchal Juin",
    "public_transport": "platform"
  }
},
{
  "type": "node",
  "id": 5977834110,
  "lat": 41.9338631,
  "lon": 8.7547557,
  "tags": {
    "bench": "no",
    "highway": "bus_stop",
    "name": "Maison de l'Emploi - CAPA",
    "public_transport": "platform",
    "shelter": "no"
  }
},
{
  "type": "node",
  "id": 5977834111,
  "lat": 41.9358993,
  "lon": 8.7562175,
  "tags": {
    "bus": "yes",
    "highway": "bus_stop",
    "name": "Bel Horizonte",
    "network": "Muvistrada",
    "operator": "CAPA",
    "public_transport": "stop_position"
  }
},
{
  "type": "node",
  "id": 5977834112,
  "lat": 41.9368511,
  "lon": 8.7577598,
  "tags": {
    "bench": "no",
    "highway": "bus_stop",
    "name": "Mont Thabor",
    "public_transport": "platform"
  }
},
{
  "type": "node",
  "id": 5977834113,
  "lat": 41.9369548,
  "lon": 8.7576713,
  "tags": {
    "bench": "yes",
    "highway": "bus_stop",
    "name": "Mont Thabor",
    "public_transport": "platform"
  }
},
{
  "type": "node",
  "id": 5977834115,
  "lat": 41.9369668,
  "lon": 8.7600423,
  "tags": {
    "highway": "bus_stop",
    "name": "Résidence les Pins",
    "public_transport": "platform"
  }
},
{
  "type": "node",
  "id": 5977834116,
  "lat": 41.9370646,
  "lon": 8.7599364,
  "tags": {
    "highway": "bus_stop",
    "name": "Résidence les Pins",
    "public_transport": "platform"
  }
},
{
  "type": "node",
  "id": 5977834118,
  "lat": 41.9376362,
  "lon": 8.7624443,
  "tags": {
    "highway": "bus_stop",
    "name": "Collines de Pietralba",
    "public_transport": "platform"
  }
},
{
  "type": "node",
  "id": 5977834119,
  "lat": 41.9377559,
  "lon": 8.7622270,
  "tags": {
    "highway": "bus_stop",
    "name": "Collines de Pietralba",
    "public_transport": "platform"
  }
},
{
  "type": "node",
  "id": 5977834120,
  "lat": 41.9384921,
  "lon": 8.7632757,
  "tags": {
    "highway": "bus_stop",
    "name": "Pietralba",
    "public_transport": "platform"
  }
},
{
  "type": "node",
  "id": 5977860111,
  "lat": 41.9352399,
  "lon": 8.7541120,
  "tags": {
    "highway": "bus_stop",
    "name": "Rue de Pietralba",
    "public_transport": "platform"
  }
},
{
  "type": "node",
  "id": 5977860113,
  "lat": 41.9350194,
  "lon": 8.7512246,
  "tags": {
    "highway": "bus_stop",
    "name": "Maréchal Juin",
    "public_transport": "platform"
  }
},
{
  "type": "node",
  "id": 5977860115,
  "lat": 41.9377739,
  "lon": 8.7507659,
  "tags": {
    "highway": "bus_stop",
    "name": "Piscine Canetons",
    "public_transport": "platform"
  }
},
{
  "type": "node",
  "id": 5977860117,
  "lat": 41.9409103,
  "lon": 8.7503824,
  "tags": {
    "highway": "bus_stop",
    "name": "Résidence les Fleurs",
    "public_transport": "platform"
  }
},
{
  "type": "node",
  "id": 5977860118,
  "lat": 41.9405681,
  "lon": 8.7503676,
  "tags": {
    "highway": "bus_stop",
    "name": "Résidence les Fleurs",
    "public_transport": "platform"
  }
},
{
  "type": "node",
  "id": 5977919781,
  "lat": 41.9484125,
  "lon": 8.7544727,
  "tags": {
    "bus": "yes",
    "highway": "bus_stop",
    "name": "Terra Rossa",
    "public_transport": "platform"
  }
},
{
  "type": "node",
  "id": 5977919782,
  "lat": 41.9477093,
  "lon": 8.7577115,
  "tags": {
    "bus": "yes",
    "highway": "bus_stop",
    "name": "Chambre des Métiers",
    "public_transport": "platform"
  }
},
{
  "type": "node",
  "id": 5977928885,
  "lat": 41.9322109,
  "lon": 8.7374514,
  "tags": {
    "highway": "bus_stop",
    "name": "Biancarello",
    "public_transport": "platform",
    "shelter": "no",
    "source": "cadastre-dgi-fr source : Direction Générale des Impôts - Cadastre. Mise à jour : 2010"
  }
},
{
  "type": "node",
  "id": 5977928890,
  "lat": 41.9362285,
  "lon": 8.7388502,
  "tags": {
    "highway": "bus_stop",
    "name": "Padules",
    "public_transport": "platform"
  }
},
{
  "type": "node",
  "id": 5977928891,
  "lat": 41.9363423,
  "lon": 8.7387711,
  "tags": {
    "highway": "bus_stop",
    "name": "Padules",
    "public_transport": "platform"
  }
},
{
  "type": "node",
  "id": 5977928893,
  "lat": 41.9363343,
  "lon": 8.7421574,
  "tags": {
    "highway": "bus_stop",
    "name": "Alzo di Leva",
    "public_transport": "platform"
  }
},
{
  "type": "node",
  "id": 5977928894,
  "lat": 41.9364730,
  "lon": 8.7419307,
  "tags": {
    "highway": "bus_stop",
    "name": "Alzo di Leva",
    "public_transport": "platform"
  }
},
{
  "type": "node",
  "id": 5977928896,
  "lat": 41.9367533,
  "lon": 8.7427662,
  "tags": {
    "highway": "bus_stop",
    "name": "Gymnase",
    "public_transport": "platform"
  }
},
{
  "type": "node",
  "id": 5977928897,
  "lat": 41.9366675,
  "lon": 8.7425530,
  "tags": {
    "highway": "bus_stop",
    "name": "Gymnase",
    "public_transport": "platform"
  }
},
{
  "type": "node",
  "id": 5977928900,
  "lat": 41.9424305,
  "lon": 8.7513748,
  "tags": {
    "highway": "bus_stop",
    "name": "Sainte-Cécile",
    "public_transport": "platform"
  }
},
{
  "type": "node",
  "id": 5977928901,
  "lat": 41.9426839,
  "lon": 8.7516524,
  "tags": {
    "highway": "bus_stop",
    "name": "Sainte Cécile",
    "public_transport": "platform"
  }
},
{
  "type": "node",
  "id": 5977928904,
  "lat": 41.9463597,
  "lon": 8.7540878,
  "tags": {
    "bus": "yes",
    "highway": "bus_stop",
    "name": "Cardo",
    "public_transport": "platform"
  }
},
{
  "type": "node",
  "id": 5977928905,
  "lat": 41.9478788,
  "lon": 8.7533288,
  "tags": {
    "bus": "yes",
    "highway": "bus_stop",
    "name": "Budiccione",
    "public_transport": "platform"
  }
},
{
  "type": "node",
  "id": 5978088284,
  "lat": 41.9093681,
  "lon": 8.6878346,
  "tags": {
    "highway": "bus_stop",
    "name": "Santa Lina",
    "public_transport": "platform",
    "shelter": "no",
    "source": "cadastre-dgi-fr source : Direction Générale des Impôts - Cadastre. Mise à jour : 2010"
  }
},
{
  "type": "node",
  "id": 5978089300,
  "lat": 41.9095363,
  "lon": 8.6531201,
  "tags": {
    "highway": "bus_stop",
    "name": "Nausica",
    "public_transport": "platform",
    "shelter": "no",
    "source": "cadastre-dgi-fr source : Direction Générale des Impôts - Cadastre. Mise à jour : 2010"
  }
},
{
  "type": "node",
  "id": 5978089302,
  "lat": 41.9108193,
  "lon": 8.6430001,
  "tags": {
    "highway": "bus_stop",
    "name": "Capo di Feno",
    "public_transport": "platform",
    "shelter": "yes"
  }
},
{
  "type": "node",
  "id": 5978122503,
  "lat": 41.9234606,
  "lon": 8.7337681,
  "tags": {
    "highway": "bus_stop",
    "name": "Hôpital Miséricorde",
    "public_transport": "platform",
    "shelter": "no",
    "source": "cadastre-dgi-fr source : Direction Générale des Impôts - Cadastre. Mise à jour : 2010"
  }
},
{
  "type": "node",
  "id": 5978122504,
  "lat": 41.9227481,
  "lon": 8.7354116,
  "tags": {
    "highway": "bus_stop",
    "name": "Centre Hospitalier",
    "public_transport": "platform",
    "shelter": "no",
    "source": "cadastre-dgi-fr source : Direction Générale des Impôts - Cadastre. Mise à jour : 2010"
  }
},
{
  "type": "node",
  "id": 5978213272,
  "lat": 41.9283138,
  "lon": 8.7621479,
  "tags": {
    "highway": "bus_stop",
    "name": "Hauts d'Aspretto",
    "public_transport": "platform"
  }
},
{
  "type": "node",
  "id": 5978213273,
  "lat": 41.9289564,
  "lon": 8.7576056,
  "tags": {
    "highway": "bus_stop",
    "name": "Corse Azur",
    "public_transport": "platform"
  }
},
{
  "type": "node",
  "id": 5978213274,
  "lat": 41.9291021,
  "lon": 8.7575546,
  "tags": {
    "highway": "bus_stop",
    "name": "Corse Azur",
    "public_transport": "platform"
  }
},
{
  "type": "node",
  "id": 5978213275,
  "lat": 41.9337623,
  "lon": 8.7458575,
  "tags": {
    "bus": "yes",
    "highway": "bus_stop",
    "name": "Cannes Prince Impérial",
    "public_transport": "platform",
    "shelter": "yes"
  }
},
{
  "type": "node",
  "id": 5978386196,
  "lat": 41.9112878,
  "lon": 8.7026927,
  "tags": {
    "highway": "bus_stop",
    "name": "Chemin des Cyprès",
    "public_transport": "platform"
  }
},
{
  "type": "node",
  "id": 5978386198,
  "lat": 41.9100962,
  "lon": 8.7031996,
  "tags": {
    "highway": "bus_stop",
    "name": "Creste e Mare",
    "public_transport": "platform"
  }
},
{
  "type": "node",
  "id": 5978386200,
  "lat": 41.9119545,
  "lon": 8.7108037,
  "tags": {
    "highway": "bus_stop",
    "name": "Helios",
    "public_transport": "platform"
  }
},
{
  "type": "node",
  "id": 5978386202,
  "lat": 41.9129785,
  "lon": 8.7107071,
  "tags": {
    "highway": "bus_stop",
    "name": "Crêtes I et II",
    "public_transport": "platform"
  }
},
{
  "type": "node",
  "id": 5978386203,
  "lat": 41.9121661,
  "lon": 8.7118229,
  "tags": {
    "highway": "bus_stop",
    "name": "Giraglia",
    "public_transport": "platform"
  }
},
{
  "type": "node",
  "id": 5978386205,
  "lat": 41.9112769,
  "lon": 8.7114032,
  "tags": {
    "highway": "bus_stop",
    "name": "La fourche",
    "public_transport": "platform"
  }
},
{
  "type": "node",
  "id": 5978386206,
  "lat": 41.9131322,
  "lon": 8.7201458,
  "tags": {
    "highway": "bus_stop",
    "name": "Palmeraie",
    "public_transport": "platform"
  }
},
{
  "type": "node",
  "id": 5978386207,
  "lat": 41.9137319,
  "lon": 8.7199232,
  "tags": {
    "highway": "bus_stop",
    "name": "Cacalovo",
    "public_transport": "platform"
  }
},
{
  "type": "node",
  "id": 5978486221,
  "lat": 41.9445523,
  "lon": 8.7583753,
  "tags": {
    "bus": "yes",
    "highway": "bus_stop",
    "name": "Rocade",
    "public_transport": "platform"
  }
},
{
  "type": "node",
  "id": 5978486222,
  "lat": 41.9392114,
  "lon": 8.7556154,
  "tags": {
    "highway": "bus_stop",
    "name": "Madonuccia",
    "public_transport": "platform"
  }
},
{
  "type": "node",
  "id": 5978486223,
  "lat": 41.9377739,
  "lon": 8.7541965,
  "tags": {
    "highway": "bus_stop",
    "name": "Chambre d'Agriculture",
    "public_transport": "platform"
  }
},
{
  "type": "node",
  "id": 8255089384,
  "lat": 41.9370229,
  "lon": 8.7364249,
  "tags": {
    "bench": "yes",
    "bus": "yes",
    "highway": "bus_stop",
    "public_transport": "platform",
    "shelter": "yes",
    "source": "survey 2020"
  }
},
{
  "type": "node",
  "id": 8255089386,
  "lat": 41.9368639,
  "lon": 8.7365107,
  "tags": {
    "bench": "yes",
    "bus": "yes",
    "highway": "bus_stop",
    "public_transport": "platform",
    "shelter": "yes",
    "source": "survey 2020"
  }
}

  ]
}
