{
  "version": 0.6,
  "generator": "Overpass API 0.7.57.1 74a55df1",
  "osm3s": {
    "timestamp_osm_base": "2022-02-13T13:28:39Z",
    "timestamp_areas_base": "2022-02-13T06:29:09Z",
    "copyright": "The data included in this document is from www.openstreetmap.org. The data is made available under ODbL."
  },
  "elements": [

{
  "type": "node",
  "id": 33707149,
  "lat": 43.5241764,
  "lon": 5.4330050,
  "tags": {
    "bus": "yes",
    "highway": "bus_stop",
    "name": "Encagnane Mairie Annexe",
    "public_transport": "stop_position"
  }
},
{
  "type": "node",
  "id": 33763961,
  "lat": 43.5133866,
  "lon": 5.4521230,
  "tags": {
    "bus": "yes",
    "highway": "bus_stop",
    "name": "Coton Rouge",
    "public_transport": "stop_position"
  }
},
{
  "type": "node",
  "id": 33855140,
  "lat": 43.5225825,
  "lon": 5.4365632,
  "tags": {
    "bus": "yes",
    "highway": "bus_stop",
    "name": "Aix-en-Provence - Gare Routière",
    "public_transport": "stop_position"
  }
},
{
  "type": "node",
  "id": 33855141,
  "lat": 43.5223528,
  "lon": 5.4365465,
  "tags": {
    "bus": "yes",
    "highway": "bus_stop",
    "name": "Aix-en-Provence - Gare Routière",
    "public_transport": "stop_position"
  }
},
{
  "type": "node",
  "id": 34552833,
  "lat": 43.5283735,
  "lon": 5.4334957,
  "tags": {
    "bus": "yes",
    "highway": "bus_stop",
    "name": "Galice",
    "public_transport": "stop_position"
  }
},
{
  "type": "node",
  "id": 34630865,
  "lat": 43.5353689,
  "lon": 5.4142029,
  "tags": {
    "bus": "yes",
    "highway": "bus_stop",
    "name": "Ravanasse",
    "public_transport": "stop_position"
  }
},
{
  "type": "node",
  "id": 250612693,
  "lat": 43.4918534,
  "lon": 5.3551230,
  "tags": {
    "bus": "yes",
    "highway": "bus_stop",
    "name": "Arago",
    "public_transport": "stop_position"
  }
},
{
  "type": "node",
  "id": 250615437,
  "lat": 43.4855553,
  "lon": 5.3617129,
  "tags": {
    "bus": "yes",
    "highway": "bus_stop",
    "name": "Parc Club du Golf",
    "public_transport": "stop_position"
  }
},
{
  "type": "node",
  "id": 251400956,
  "lat": 43.4780334,
  "lon": 5.3747042,
  "tags": {
    "bus": "yes",
    "highway": "bus_stop",
    "name": "La Robole",
    "public_transport": "stop_position"
  }
},
{
  "type": "node",
  "id": 251401027,
  "lat": 43.4787411,
  "lon": 5.3718181,
  "tags": {
    "bus": "yes",
    "highway": "bus_stop",
    "name": "Les Grottes",
    "public_transport": "stop_position"
  }
},
{
  "type": "node",
  "id": 251401368,
  "lat": 43.4810520,
  "lon": 5.3794241,
  "tags": {
    "bus": "yes",
    "highway": "bus_stop",
    "name": "Berthier",
    "public_transport": "stop_position"
  }
},
{
  "type": "node",
  "id": 251401370,
  "lat": 43.4810804,
  "lon": 5.3795274,
  "tags": {
    "bus": "yes",
    "highway": "bus_stop",
    "name": "Berthier",
    "public_transport": "stop_position"
  }
},
{
  "type": "node",
  "id": 251410316,
  "lat": 43.4911281,
  "lon": 5.3735449,
  "tags": {
    "bus": "yes",
    "highway": "bus_stop",
    "name": "Pôle d'Activités",
    "public_transport": "stop_position"
  }
},
{
  "type": "node",
  "id": 251410716,
  "lat": 43.4887554,
  "lon": 5.3764070,
  "tags": {
    "bus": "yes",
    "highway": "bus_stop",
    "name": "Le Frère",
    "public_transport": "stop_position"
  }
},
{
  "type": "node",
  "id": 255410406,
  "lat": 43.5218014,
  "lon": 5.4188249,
  "tags": {
    "bus": "yes",
    "highway": "bus_stop",
    "name": "Coq d'Argent",
    "public_transport": "stop_position"
  }
},
{
  "type": "node",
  "id": 256594573,
  "lat": 43.5076476,
  "lon": 5.4171542,
  "tags": {
    "bus": "yes",
    "highway": "bus_stop",
    "name": "Champ de Foire",
    "public_transport": "stop_position"
  }
},
{
  "type": "node",
  "id": 256594822,
  "lat": 43.5100693,
  "lon": 5.4361505,
  "tags": {
    "bus": "yes",
    "highway": "bus_stop",
    "name": "L'Armelière",
    "public_transport": "stop_position"
  }
},
{
  "type": "node",
  "id": 259760751,
  "lat": 43.5166085,
  "lon": 5.4350171,
  "tags": {
    "bus": "yes",
    "highway": "bus_stop",
    "name": "La Figuière",
    "public_transport": "stop_position"
  }
},
{
  "type": "node",
  "id": 259760760,
  "lat": 43.5171112,
  "lon": 5.4370956,
  "tags": {
    "bus": "yes",
    "highway": "bus_stop",
    "name": "Les Alpilles",
    "public_transport": "stop_position"
  }
},
{
  "type": "node",
  "id": 259968347,
  "lat": 43.5117563,
  "lon": 5.4532250,
  "tags": {
    "bus": "yes",
    "highway": "bus_stop",
    "name": "Meyran",
    "public_transport": "stop_position"
  }
},
{
  "type": "node",
  "id": 265000350,
  "lat": 43.5403093,
  "lon": 5.4571860,
  "tags": {
    "bus": "yes",
    "highway": "bus_stop",
    "name": "P+R Route des Alpes",
    "public_transport": "stop_position"
  }
},
{
  "type": "node",
  "id": 265005474,
  "lat": 43.5769203,
  "lon": 5.4576220,
  "tags": {
    "bus": "yes",
    "highway": "bus_stop",
    "name": "D14",
    "public_transport": "stop_position"
  }
},
{
  "type": "node",
  "id": 265010260,
  "lat": 43.5869860,
  "lon": 5.4235273,
  "tags": {
    "bus": "yes",
    "highway": "bus_stop",
    "name": "I.A.E.",
    "public_transport": "stop_position"
  }
},
{
  "type": "node",
  "id": 265010612,
  "lat": 43.5374051,
  "lon": 5.4447345,
  "tags": {
    "bus": "yes",
    "highway": "bus_stop",
    "name": "Paquerettes",
    "public_transport": "stop_position"
  }
},
{
  "type": "node",
  "id": 265487639,
  "lat": 43.5750802,
  "lon": 5.4180051,
  "tags": {
    "bus": "yes",
    "highway": "bus_stop",
    "name": "Colonel Bellec",
    "public_transport": "stop_position"
  }
},
{
  "type": "node",
  "id": 265488171,
  "lat": 43.5562472,
  "lon": 5.4197058,
  "tags": {
    "bus": "yes",
    "highway": "bus_stop",
    "name": "Celony Ecole",
    "public_transport": "stop_position"
  }
},
{
  "type": "node",
  "id": 265488256,
  "lat": 43.5687418,
  "lon": 5.4254710,
  "tags": {
    "bus": "yes",
    "highway": "bus_stop",
    "name": "Fusains",
    "public_transport": "stop_position"
  }
},
{
  "type": "node",
  "id": 265488264,
  "lat": 43.5635828,
  "lon": 5.4296552,
  "tags": {
    "bus": "yes",
    "highway": "bus_stop",
    "name": "Résidence Beaufort",
    "public_transport": "stop_position"
  }
},
{
  "type": "node",
  "id": 265488267,
  "lat": 43.5628212,
  "lon": 5.4301496,
  "tags": {
    "bus": "yes",
    "highway": "bus_stop",
    "name": "Résidence Beaufort",
    "public_transport": "stop_position"
  }
},
{
  "type": "node",
  "id": 265488299,
  "lat": 43.5747754,
  "lon": 5.4218511,
  "tags": {
    "bus": "yes",
    "highway": "bus_stop",
    "name": "Glacière",
    "public_transport": "stop_position"
  }
},
{
  "type": "node",
  "id": 265488787,
  "lat": 43.5572607,
  "lon": 5.4336764,
  "tags": {
    "bus": "yes",
    "highway": "bus_stop",
    "name": "Eperon",
    "public_transport": "stop_position"
  }
},
{
  "type": "node",
  "id": 277035934,
  "lat": 43.5900445,
  "lon": 5.4319044,
  "tags": {
    "bus": "yes",
    "highway": "bus_stop",
    "name": "Village du Soleil",
    "public_transport": "stop_position"
  }
},
{
  "type": "node",
  "id": 277037520,
  "lat": 43.5795990,
  "lon": 5.4093637,
  "tags": {
    "bus": "yes",
    "highway": "bus_stop",
    "name": "Les Palombes",
    "public_transport": "stop_position"
  }
},
{
  "type": "node",
  "id": 278857558,
  "lat": 43.5078184,
  "lon": 5.3866721,
  "tags": {
    "bus": "yes",
    "highway": "bus_stop",
    "name": "Monclar",
    "public_transport": "stop_position"
  }
},
{
  "type": "node",
  "id": 278863170,
  "lat": 43.5383373,
  "lon": 5.4114719,
  "tags": {
    "bus": "yes",
    "highway": "bus_stop",
    "name": "La Mayanelle",
    "public_transport": "stop_position"
  }
},
{
  "type": "node",
  "id": 295252647,
  "lat": 43.5118663,
  "lon": 5.4359497,
  "tags": {
    "bus": "yes",
    "highway": "bus_stop",
    "name": "California",
    "public_transport": "stop_position"
  }
},
{
  "type": "node",
  "id": 295252678,
  "lat": 43.5131220,
  "lon": 5.4370002,
  "tags": {
    "bus": "yes",
    "highway": "bus_stop",
    "name": "Pôle de la Beauvalle",
    "public_transport": "stop_position"
  }
},
{
  "type": "node",
  "id": 297921554,
  "lat": 43.5032063,
  "lon": 5.3910043,
  "tags": {
    "bus": "yes",
    "highway": "bus_stop",
    "name": "Couton",
    "public_transport": "stop_position"
  }
},
{
  "type": "node",
  "id": 298111340,
  "lat": 43.4886400,
  "lon": 5.3411580,
  "tags": {
    "bus": "yes",
    "highway": "bus_stop",
    "name": "Galilée",
    "public_transport": "stop_position"
  }
},
{
  "type": "node",
  "id": 299650528,
  "lat": 43.5190492,
  "lon": 5.4457430,
  "tags": {
    "bus": "yes",
    "highway": "bus_stop",
    "name": "W. Churchill",
    "public_transport": "stop_position"
  }
},
{
  "type": "node",
  "id": 302786297,
  "lat": 43.5348541,
  "lon": 5.4151361,
  "tags": {
    "bus": "yes",
    "highway": "bus_stop",
    "name": "Bouffan",
    "public_transport": "stop_position"
  }
},
{
  "type": "node",
  "id": 309451711,
  "lat": 43.5287609,
  "lon": 5.4361450,
  "tags": {
    "bench": "yes",
    "bus": "yes",
    "highway": "bus_stop",
    "name": "Minimes",
    "public_transport": "platform",
    "shelter": "yes",
    "wheelchair": "yes"
  }
},
{
  "type": "node",
  "id": 312299536,
  "lat": 43.5368986,
  "lon": 5.4467542,
  "tags": {
    "bench": "no",
    "bus": "yes",
    "highway": "bus_stop",
    "name": "Atelier Cézanne",
    "public_transport": "platform",
    "shelter": "no"
  }
},
{
  "type": "node",
  "id": 312299545,
  "lat": 43.5358941,
  "lon": 5.4460002,
  "tags": {
    "bench": "no",
    "bus": "yes",
    "highway": "bus_stop",
    "lit": "no",
    "name": "Alexis",
    "public_transport": "platform",
    "shelter": "no"
  }
},
{
  "type": "node",
  "id": 312299546,
  "lat": 43.5358535,
  "lon": 5.4460826,
  "tags": {
    "bench": "no",
    "bus": "yes",
    "highway": "bus_stop",
    "lit": "no",
    "name": "Alexis",
    "public_transport": "platform",
    "shelter": "no"
  }
},
{
  "type": "node",
  "id": 320282022,
  "lat": 43.5299815,
  "lon": 5.4530876,
  "tags": {
    "bench": "yes",
    "bus": "yes",
    "highway": "bus_stop",
    "lit": "yes",
    "local_ref": "4",
    "name": "Saint-Louis - Quai n°4",
    "public_transport": "platform",
    "ref": "Quai n°4",
    "shelter": "yes",
    "wheelchair": "yes"
  }
},
{
  "type": "node",
  "id": 320282023,
  "lat": 43.5303527,
  "lon": 5.4527391,
  "tags": {
    "bench": "yes",
    "bus": "yes",
    "highway": "bus_stop",
    "lit": "yes",
    "local_ref": "3",
    "name": "Saint-Louis - Quai n°3",
    "public_transport": "platform",
    "ref": "Quai n°3",
    "shelter": "yes",
    "wheelchair": "yes"
  }
},
{
  "type": "node",
  "id": 320282025,
  "lat": 43.5307134,
  "lon": 5.4524289,
  "tags": {
    "bench": "yes",
    "bus": "yes",
    "highway": "bus_stop",
    "lit": "yes",
    "local_ref": "2",
    "name": "Saint-Louis - Quai n°2",
    "public_transport": "platform",
    "ref": "Quai n°2",
    "shelter": "yes",
    "wheelchair": "yes"
  }
},
{
  "type": "node",
  "id": 338788730,
  "lat": 43.4905032,
  "lon": 5.3320288,
  "tags": {
    "bus": "yes",
    "highway": "bus_stop",
    "name": "Europôle de l'Arbois",
    "public_transport": "stop_position"
  }
},
{
  "type": "node",
  "id": 673344579,
  "lat": 43.5605758,
  "lon": 5.4346850,
  "tags": {
    "bus": "yes",
    "fixme": "name",
    "highway": "bus_stop",
    "public_transport": "platform"
  }
},
{
  "type": "node",
  "id": 673344583,
  "lat": 43.5538756,
  "lon": 5.4436287,
  "tags": {
    "bus": "yes",
    "fixme": "name",
    "highway": "bus_stop",
    "public_transport": "platform"
  }
},
{
  "type": "node",
  "id": 673344585,
  "lat": 43.5589230,
  "lon": 5.4418108,
  "tags": {
    "bus": "yes",
    "fixme": "name",
    "highway": "bus_stop",
    "public_transport": "platform"
  }
},
{
  "type": "node",
  "id": 673344587,
  "lat": 43.5589613,
  "lon": 5.4427974,
  "tags": {
    "bus": "yes",
    "highway": "bus_stop",
    "name": "B20",
    "public_transport": "platform"
  }
},
{
  "type": "node",
  "id": 673344589,
  "lat": 43.5554013,
  "lon": 5.4439008,
  "tags": {
    "bus": "yes",
    "fixme": "name",
    "highway": "bus_stop",
    "public_transport": "platform"
  }
},
{
  "type": "node",
  "id": 1013743554,
  "lat": 43.5338203,
  "lon": 5.4625708,
  "tags": {
    "bus": "yes",
    "highway": "bus_stop",
    "name": "Petit Nice",
    "public_transport": "platform"
  }
},
{
  "type": "node",
  "id": 1022597634,
  "lat": 43.5478096,
  "lon": 5.4553383,
  "tags": {
    "bus": "yes",
    "highway": "bus_stop",
    "name": "Jardins de Saint-Donat",
    "public_transport": "stop_position"
  }
},
{
  "type": "node",
  "id": 1022597714,
  "lat": 43.5464090,
  "lon": 5.4548863,
  "tags": {
    "bus": "yes",
    "highway": "bus_stop",
    "name": "Maruège Haut",
    "public_transport": "stop_position"
  }
},
{
  "type": "node",
  "id": 1022598137,
  "lat": 43.5449912,
  "lon": 5.4553769,
  "tags": {
    "bus": "yes",
    "highway": "bus_stop",
    "name": "Maruège",
    "public_transport": "stop_position"
  }
},
{
  "type": "node",
  "id": 1025739222,
  "lat": 43.5856327,
  "lon": 5.3692134,
  "tags": {
    "bus": "yes",
    "highway": "bus_stop",
    "name": "Lignane",
    "public_transport": "stop_position"
  }
},
{
  "type": "node",
  "id": 1210852203,
  "lat": 43.5473549,
  "lon": 5.4393193,
  "tags": {
    "bus": "yes",
    "highway": "bus_stop",
    "name": "P+R Haut de Brunet",
    "public_transport": "stop_position"
  }
},
{
  "type": "node",
  "id": 1317850869,
  "lat": 43.5111540,
  "lon": 5.4132327,
  "tags": {
    "bus": "yes",
    "highway": "bus_stop",
    "name": "Camp de Menthe",
    "public_transport": "platform"
  }
},
{
  "type": "node",
  "id": 1317850877,
  "lat": 43.5119031,
  "lon": 5.4216916,
  "tags": {
    "bus": "yes",
    "highway": "bus_stop",
    "name": "Aubépines",
    "public_transport": "platform"
  }
},
{
  "type": "node",
  "id": 1317850879,
  "lat": 43.5104369,
  "lon": 5.4147923,
  "tags": {
    "bus": "yes",
    "highway": "bus_stop",
    "name": "Camp de Menthe",
    "public_transport": "platform"
  }
},
{
  "type": "node",
  "id": 1317850886,
  "lat": 43.5119624,
  "lon": 5.4215944,
  "tags": {
    "bus": "yes",
    "highway": "bus_stop",
    "name": "Aubépines",
    "public_transport": "platform"
  }
},
{
  "type": "node",
  "id": 1317854785,
  "lat": 43.5081302,
  "lon": 5.4080980,
  "tags": {
    "bench": "yes",
    "bus": "yes",
    "highway": "bus_stop",
    "name": "Beauvoisin",
    "public_transport": "platform",
    "shelter": "yes",
    "tactile_paving": "no"
  }
},
{
  "type": "node",
  "id": 1317854788,
  "lat": 43.5080536,
  "lon": 5.4062258,
  "tags": {
    "bench": "no",
    "bus": "yes",
    "highway": "bus_stop",
    "name": "Château",
    "public_transport": "platform",
    "shelter": "no",
    "tactile_paving": "no"
  }
},
{
  "type": "node",
  "id": 1317854789,
  "lat": 43.5081159,
  "lon": 5.4060266,
  "tags": {
    "bench": "no",
    "bus": "yes",
    "highway": "bus_stop",
    "name": "Château",
    "public_transport": "platform",
    "shelter": "no",
    "tactile_paving": "no"
  }
},
{
  "type": "node",
  "id": 1317854790,
  "lat": 43.5106214,
  "lon": 5.4098390,
  "tags": {
    "bench": "no",
    "bus": "yes",
    "highway": "bus_stop",
    "lit": "yes",
    "name": "Valcros",
    "public_transport": "platform",
    "shelter": "yes",
    "tactile_paving": "no"
  }
},
{
  "type": "node",
  "id": 1317854791,
  "lat": 43.5073816,
  "lon": 5.4007810,
  "tags": {
    "bench": "no",
    "bus": "yes",
    "highway": "bus_stop",
    "name": "La Pioline",
    "name:oc": "La Piolina",
    "public_transport": "platform",
    "shelter": "no",
    "source:name:oc": "ieo-bdtopoc",
    "tactile_paving": "no"
  }
},
{
  "type": "node",
  "id": 1317854800,
  "lat": 43.5073001,
  "lon": 5.4008438,
  "tags": {
    "bench": "no",
    "bus": "yes",
    "highway": "bus_stop",
    "name": "La Pioline",
    "name:oc": "La Piolina",
    "public_transport": "platform",
    "shelter": "no",
    "source:name:oc": "ieo-bdtopoc",
    "tactile_paving": "no"
  }
},
{
  "type": "node",
  "id": 1317854802,
  "lat": 43.5104853,
  "lon": 5.4095570,
  "tags": {
    "bench": "no",
    "bus": "yes",
    "highway": "bus_stop",
    "lit": "yes",
    "name": "Valcros",
    "name:oc": "Val Cros",
    "public_transport": "platform",
    "shelter": "no",
    "source:name:oc": "ieo-bdtopoc",
    "tactile_paving": "no"
  }
},
{
  "type": "node",
  "id": 1349599361,
  "lat": 43.5770390,
  "lon": 5.4098702,
  "tags": {
    "bus": "yes",
    "highway": "bus_stop",
    "public_transport": "platform"
  }
},
{
  "type": "node",
  "id": 1461885467,
  "lat": 43.5177841,
  "lon": 5.4544616,
  "tags": {
    "bench": "no",
    "highway": "bus_stop",
    "name": "Cité U",
    "network": "La Métropole Mobilité - LeBus",
    "operator": "Keolis",
    "public_transport": "platform",
    "shelter": "no",
    "source": "survey"
  }
},
{
  "type": "node",
  "id": 1610315147,
  "lat": 43.4787269,
  "lon": 5.3762495,
  "tags": {
    "bus": "yes",
    "highway": "bus_stop",
    "name": "Auguste Comte",
    "public_transport": "stop_position"
  }
},
{
  "type": "node",
  "id": 1610805246,
  "lat": 43.4879751,
  "lon": 5.3591986,
  "tags": {
    "bus": "yes",
    "highway": "bus_stop",
    "name": "Foucault",
    "public_transport": "stop_position"
  }
},
{
  "type": "node",
  "id": 1629179611,
  "lat": 43.4776358,
  "lon": 5.4268559,
  "tags": {
    "bus": "yes",
    "highway": "bus_stop",
    "name": "Hameau de Turin",
    "public_transport": "stop_position"
  }
},
{
  "type": "node",
  "id": 1827443898,
  "lat": 43.5123367,
  "lon": 5.4726936,
  "tags": {
    "bus": "yes",
    "highway": "bus_stop",
    "name": "Les 3 Sautets",
    "public_transport": "platform",
    "shelter": "no"
  }
},
{
  "type": "node",
  "id": 1829807307,
  "lat": 43.5143972,
  "lon": 5.4641060,
  "tags": {
    "bus": "yes",
    "highway": "bus_stop",
    "name": "Beausoleil",
    "public_transport": "stop_position"
  }
},
{
  "type": "node",
  "id": 1831735316,
  "lat": 43.5159019,
  "lon": 5.4714688,
  "tags": {
    "bus": "yes",
    "highway": "bus_stop",
    "name": "Val St André",
    "public_transport": "stop_position"
  }
},
{
  "type": "node",
  "id": 1832633759,
  "lat": 43.5181853,
  "lon": 5.4639138,
  "tags": {
    "bus": "yes",
    "highway": "bus_stop",
    "name": "Tourelles",
    "public_transport": "stop_position"
  }
},
{
  "type": "node",
  "id": 1837997820,
  "lat": 43.5303626,
  "lon": 5.4349804,
  "tags": {
    "bus": "yes",
    "highway": "bus_stop",
    "name": "Castors",
    "public_transport": "stop_position"
  }
},
{
  "type": "node",
  "id": 1837998148,
  "lat": 43.5318854,
  "lon": 5.4303098,
  "tags": {
    "bus": "yes",
    "highway": "bus_stop",
    "name": "Dalmas",
    "public_transport": "stop_position"
  }
},
{
  "type": "node",
  "id": 1877523561,
  "lat": 43.5449489,
  "lon": 5.4009998,
  "tags": {
    "bus": "yes",
    "highway": "bus_stop",
    "name": "Hameau de Victoria",
    "public_transport": "stop_position"
  }
},
{
  "type": "node",
  "id": 1877523567,
  "lat": 43.5451352,
  "lon": 5.4008512,
  "tags": {
    "bus": "yes",
    "highway": "bus_stop",
    "name": "Hameau de Victoria",
    "public_transport": "stop_position"
  }
},
{
  "type": "node",
  "id": 1961959585,
  "lat": 43.5822168,
  "lon": 5.4112303,
  "tags": {
    "bus": "yes",
    "highway": "bus_stop",
    "name": "Grand Domaine",
    "public_transport": "stop_position"
  }
},
{
  "type": "node",
  "id": 2031678916,
  "lat": 43.5507042,
  "lon": 5.4569117,
  "tags": {
    "bus": "yes",
    "highway": "bus_stop",
    "name": "Fontlèbre",
    "public_transport": "stop_position"
  }
},
{
  "type": "node",
  "id": 2117168754,
  "lat": 43.5176430,
  "lon": 5.4597483,
  "tags": {
    "bus": "yes",
    "highway": "bus_stop",
    "name": "Saint-Jérome",
    "public_transport": "stop_position"
  }
},
{
  "type": "node",
  "id": 2181910944,
  "lat": 43.5177956,
  "lon": 5.4544262,
  "tags": {
    "bus": "yes",
    "highway": "bus_stop",
    "name": "Cité U",
    "public_transport": "stop_position"
  }
},
{
  "type": "node",
  "id": 2308458844,
  "lat": 43.5521927,
  "lon": 5.4243415,
  "tags": {
    "bus": "yes",
    "highway": "bus_stop",
    "name": "Rapine",
    "public_transport": "stop_position"
  }
},
{
  "type": "node",
  "id": 2324620670,
  "lat": 43.5142682,
  "lon": 5.4613892,
  "tags": {
    "bus": "yes",
    "highway": "bus_stop",
    "name": "Saint-Benoit",
    "public_transport": "stop_position"
  }
},
{
  "type": "node",
  "id": 2355557090,
  "lat": 43.5309372,
  "lon": 5.4561275,
  "tags": {
    "bus": "yes",
    "highway": "bus_stop",
    "name": "Parc Rambot",
    "public_transport": "stop_position"
  }
},
{
  "type": "node",
  "id": 2403605567,
  "lat": 43.5146811,
  "lon": 5.4426462,
  "tags": {
    "bus": "yes",
    "highway": "bus_stop",
    "name": "La Beauvalle",
    "public_transport": "stop_position"
  }
},
{
  "type": "node",
  "id": 2495432567,
  "lat": 43.5195784,
  "lon": 5.4536552,
  "tags": {
    "bench": "no",
    "description": "Ligne M2 Hôpital Tamaris",
    "highway": "bus_stop",
    "local_ref": "Mini 2",
    "name": "Courcy",
    "public_transport": "platform",
    "shelter": "no"
  }
},
{
  "type": "node",
  "id": 2495432575,
  "lat": 43.5194923,
  "lon": 5.4536762,
  "tags": {
    "bus": "yes",
    "highway": "bus_stop",
    "public_transport": "stop_position"
  }
},
{
  "type": "node",
  "id": 2495432580,
  "lat": 43.5195673,
  "lon": 5.4536142,
  "tags": {
    "bus": "yes",
    "highway": "bus_stop",
    "public_transport": "stop_position"
  }
},
{
  "type": "node",
  "id": 2505884728,
  "lat": 43.4798802,
  "lon": 5.3675984,
  "tags": {
    "bus": "yes",
    "highway": "bus_stop",
    "name": "Pichaury",
    "public_transport": "stop_position"
  }
},
{
  "type": "node",
  "id": 2510481464,
  "lat": 43.4839492,
  "lon": 5.4180886,
  "tags": {
    "bus": "yes",
    "highway": "bus_stop",
    "name": "Luynes Sud",
    "public_transport": "stop_position"
  }
},
{
  "type": "node",
  "id": 2537725702,
  "lat": 43.5212723,
  "lon": 5.4544581,
  "tags": {
    "bus": "yes",
    "highway": "bus_stop",
    "name": "Oraison",
    "public_transport": "stop_position"
  }
},
{
  "type": "node",
  "id": 2538507245,
  "lat": 43.5231755,
  "lon": 5.4486445,
  "tags": {
    "bus": "yes",
    "highway": "bus_stop",
    "name": "Reine Jeanne",
    "public_transport": "stop_position"
  }
},
{
  "type": "node",
  "id": 2606055601,
  "lat": 43.5196652,
  "lon": 5.4497742,
  "tags": {
    "bus": "yes",
    "highway": "bus_stop",
    "public_transport": "stop_position"
  }
},
{
  "type": "node",
  "id": 2607919030,
  "lat": 43.5197095,
  "lon": 5.4427359,
  "tags": {
    "bus": "yes",
    "highway": "bus_stop",
    "name": "Sous-Préfecture",
    "public_transport": "stop_position"
  }
},
{
  "type": "node",
  "id": 3136816693,
  "lat": 43.5283090,
  "lon": 5.4298267,
  "tags": {
    "bus": "yes",
    "highway": "bus_stop",
    "name": "Corsy",
    "public_transport": "stop_position"
  }
},
{
  "type": "node",
  "id": 3492844138,
  "lat": 43.5300472,
  "lon": 5.4095285,
  "tags": {
    "bus": "yes",
    "highway": "bus_stop",
    "name": "Grande Bastide",
    "public_transport": "stop_position"
  }
},
{
  "type": "node",
  "id": 3534629581,
  "lat": 43.5681417,
  "lon": 5.4259852,
  "tags": {
    "bus": "yes",
    "highway": "bus_stop",
    "name": "Fusains",
    "public_transport": "stop_position"
  }
},
{
  "type": "node",
  "id": 3883558610,
  "lat": 43.5171302,
  "lon": 5.4540480,
  "tags": {
    "bus": "yes",
    "highway": "bus_stop",
    "name": "Cuques",
    "public_transport": "stop_position"
  }
},
{
  "type": "node",
  "id": 3900720920,
  "lat": 43.5806418,
  "lon": 5.4214060,
  "tags": {
    "bus": "yes",
    "highway": "bus_stop",
    "name": "Puyricard - Salle des Fêtes",
    "public_transport": "stop_position"
  }
},
{
  "type": "node",
  "id": 3900723259,
  "lat": 43.5824517,
  "lon": 5.4219985,
  "tags": {
    "bus": "yes",
    "highway": "bus_stop",
    "name": "Mairie Puyricard",
    "public_transport": "stop_position"
  }
},
{
  "type": "node",
  "id": 4000840181,
  "lat": 43.4862117,
  "lon": 5.4154619,
  "tags": {
    "bus": "yes",
    "highway": "bus_stop",
    "name": "Vidal",
    "public_transport": "stop_position"
  }
},
{
  "type": "node",
  "id": 4109190577,
  "lat": 43.4836787,
  "lon": 5.4177213,
  "tags": {
    "bus": "yes",
    "highway": "bus_stop",
    "name": "Luynes Sud",
    "public_transport": "stop_position"
  }
},
{
  "type": "node",
  "id": 4420040427,
  "lat": 43.5033337,
  "lon": 5.3834477,
  "tags": {
    "bus": "yes",
    "highway": "bus_stop",
    "name": "Gare des Milles",
    "public_transport": "stop_position"
  }
},
{
  "type": "node",
  "id": 4420094959,
  "lat": 43.5029900,
  "lon": 5.3758458,
  "tags": {
    "bus": "yes",
    "highway": "bus_stop",
    "name": "Badesse",
    "public_transport": "platform"
  }
},
{
  "type": "node",
  "id": 4425266770,
  "lat": 43.5857274,
  "lon": 5.3911532,
  "tags": {
    "bench": "yes",
    "bus": "yes",
    "highway": "bus_stop",
    "name": "C 17",
    "public_transport": "platform",
    "shelter": "yes"
  }
},
{
  "type": "node",
  "id": 4426164805,
  "lat": 43.5839415,
  "lon": 5.4567227,
  "tags": {
    "bus": "yes",
    "highway": "bus_stop",
    "name": "D7",
    "public_transport": "stop_position"
  }
},
{
  "type": "node",
  "id": 4426164811,
  "lat": 43.5878186,
  "lon": 5.4571756,
  "tags": {
    "bus": "yes",
    "highway": "bus_stop",
    "name": "D6",
    "public_transport": "platform"
  }
},
{
  "type": "node",
  "id": 4426451680,
  "lat": 43.5115484,
  "lon": 5.4487960,
  "tags": {
    "bus": "yes",
    "highway": "bus_stop",
    "name": "P+R Krypton",
    "public_transport": "stop_position"
  }
},
{
  "type": "node",
  "id": 4427542370,
  "lat": 43.5230635,
  "lon": 5.4367576,
  "tags": {
    "bus": "yes",
    "highway": "bus_stop",
    "name": "Aix-en-Provence - Gare Routière",
    "public_transport": "stop_position"
  }
},
{
  "type": "node",
  "id": 4427542371,
  "lat": 43.5230997,
  "lon": 5.4371930,
  "tags": {
    "bus": "yes",
    "highway": "bus_stop",
    "local_ref": "22",
    "name": "Aix-en-Provence - Gare Routière",
    "public_transport": "stop_position"
  }
},
{
  "type": "node",
  "id": 4427542374,
  "lat": 43.5232733,
  "lon": 5.4372763,
  "tags": {
    "bus": "yes",
    "highway": "bus_stop",
    "local_ref": "21",
    "name": "Aix-en-Provence - Gare Routière",
    "public_transport": "stop_position"
  }
},
{
  "type": "node",
  "id": 4427542375,
  "lat": 43.5233929,
  "lon": 5.4415264,
  "tags": {
    "bus": "yes",
    "highway": "bus_stop",
    "name": "Aix-en-Provence - Gare Routière",
    "public_transport": "stop_position",
    "ref": "Quai 1"
  }
},
{
  "type": "node",
  "id": 4427542376,
  "lat": 43.5233966,
  "lon": 5.4414451,
  "tags": {
    "bus": "yes",
    "highway": "bus_stop",
    "name": "Aix-en-Provence - Gare Routière",
    "public_transport": "stop_position",
    "ref": "Quai 2"
  }
},
{
  "type": "node",
  "id": 4427542377,
  "lat": 43.5234003,
  "lon": 5.4413638,
  "tags": {
    "bus": "yes",
    "highway": "bus_stop",
    "name": "Aix-en-Provence - Gare Routière",
    "public_transport": "stop_position",
    "ref": "Quai 3"
  }
},
{
  "type": "node",
  "id": 4427542378,
  "lat": 43.5234039,
  "lon": 5.4412825,
  "tags": {
    "bus": "yes",
    "highway": "bus_stop",
    "name": "Aix-en-Provence - Gare Routière",
    "public_transport": "stop_position",
    "ref": "Quai 4"
  }
},
{
  "type": "node",
  "id": 4427542379,
  "lat": 43.5234076,
  "lon": 5.4412011,
  "tags": {
    "bus": "yes",
    "highway": "bus_stop",
    "name": "Aix-en-Provence - Gare Routière",
    "public_transport": "stop_position",
    "ref": "Quai 5"
  }
},
{
  "type": "node",
  "id": 4427542380,
  "lat": 43.5234719,
  "lon": 5.4397658,
  "tags": {
    "bus": "yes",
    "highway": "bus_stop",
    "local_ref": "16",
    "name": "Aix-en-Provence - Gare Routière",
    "public_transport": "stop_position",
    "ref": "Quai 16"
  }
},
{
  "type": "node",
  "id": 4427542381,
  "lat": 43.5234755,
  "lon": 5.4396848,
  "tags": {
    "bus": "yes",
    "highway": "bus_stop",
    "name": "Aix-en-Provence - Gare Routière",
    "public_transport": "stop_position",
    "ref": "Quai 17"
  }
},
{
  "type": "node",
  "id": 4427542382,
  "lat": 43.5234791,
  "lon": 5.4396038,
  "tags": {
    "bus": "yes",
    "highway": "bus_stop",
    "name": "Aix-en-Provence - Gare Routière",
    "public_transport": "stop_position",
    "ref": "Quai 18"
  }
},
{
  "type": "node",
  "id": 4427542384,
  "lat": 43.5234827,
  "lon": 5.4395228,
  "tags": {
    "bus": "yes",
    "highway": "bus_stop",
    "name": "Aix-en-Provence - Gare Routière",
    "public_transport": "stop_position",
    "ref": "Quai 19"
  }
},
{
  "type": "node",
  "id": 4427542386,
  "lat": 43.5234864,
  "lon": 5.4394418,
  "tags": {
    "bus": "yes",
    "highway": "bus_stop",
    "name": "Aix-en-Provence - Gare Routière",
    "public_transport": "stop_position",
    "ref": "Quai 20"
  }
},
{
  "type": "node",
  "id": 4427544253,
  "lat": 43.5227627,
  "lon": 5.4370194,
  "tags": {
    "bus": "yes",
    "highway": "bus_stop",
    "name": "Aix-en-Provence - Gare Routière",
    "public_transport": "stop_position"
  }
},
{
  "type": "node",
  "id": 4427544255,
  "lat": 43.5229183,
  "lon": 5.4370945,
  "tags": {
    "bus": "yes",
    "highway": "bus_stop",
    "name": "Aix-en-Provence - Gare Routière",
    "public_transport": "stop_position"
  }
},
{
  "type": "node",
  "id": 4427544257,
  "lat": 43.5229073,
  "lon": 5.4366686,
  "tags": {
    "bus": "yes",
    "highway": "bus_stop",
    "name": "Aix-en-Provence - Gare Routière",
    "public_transport": "stop_position"
  }
},
{
  "type": "node",
  "id": 4427544260,
  "lat": 43.5234113,
  "lon": 5.4411198,
  "tags": {
    "bus": "yes",
    "highway": "bus_stop",
    "name": "Aix-en-Provence - Gare Routière",
    "public_transport": "stop_position",
    "ref": "Quai 6"
  }
},
{
  "type": "node",
  "id": 4427544261,
  "lat": 43.5234149,
  "lon": 5.4410385,
  "tags": {
    "bus": "yes",
    "highway": "bus_stop",
    "name": "Aix-en-Provence - Gare Routière",
    "public_transport": "stop_position",
    "ref": "Quai 7"
  }
},
{
  "type": "node",
  "id": 4427544262,
  "lat": 43.5234186,
  "lon": 5.4409572,
  "tags": {
    "bus": "yes",
    "highway": "bus_stop",
    "name": "Aix-en-Provence - Gare Routière",
    "public_transport": "stop_position",
    "ref": "Quai 8"
  }
},
{
  "type": "node",
  "id": 4427544264,
  "lat": 43.5234223,
  "lon": 5.4408759,
  "tags": {
    "bus": "yes",
    "highway": "bus_stop",
    "name": "Aix-en-Provence - Gare Routière",
    "public_transport": "stop_position",
    "ref": "Quai 9"
  }
},
{
  "type": "node",
  "id": 4427544265,
  "lat": 43.5234259,
  "lon": 5.4407945,
  "tags": {
    "bus": "yes",
    "highway": "bus_stop",
    "name": "Aix-en-Provence - Gare Routière",
    "public_transport": "stop_position",
    "ref": "Quai 10"
  }
},
{
  "type": "node",
  "id": 4427544271,
  "lat": 43.5234539,
  "lon": 5.4401708,
  "tags": {
    "bus": "yes",
    "highway": "bus_stop",
    "name": "Aix-en-Provence - Gare Routière",
    "public_transport": "stop_position",
    "ref": "Quai 11"
  }
},
{
  "type": "node",
  "id": 4427544274,
  "lat": 43.5234575,
  "lon": 5.4400898,
  "tags": {
    "bus": "yes",
    "highway": "bus_stop",
    "name": "Aix-en-Provence - Gare Routière",
    "public_transport": "stop_position",
    "ref": "Quai 12"
  }
},
{
  "type": "node",
  "id": 4427544276,
  "lat": 43.5234611,
  "lon": 5.4400088,
  "tags": {
    "bus": "yes",
    "highway": "bus_stop",
    "name": "Aix-en-Provence - Gare Routière",
    "public_transport": "stop_position",
    "ref": "Quai 13"
  }
},
{
  "type": "node",
  "id": 4427544278,
  "lat": 43.5234647,
  "lon": 5.4399278,
  "tags": {
    "bus": "yes",
    "highway": "bus_stop",
    "local_ref": "14",
    "name": "Aix-en-Provence - Gare Routière",
    "public_transport": "stop_position",
    "ref": "Quai 14"
  }
},
{
  "type": "node",
  "id": 4427544279,
  "lat": 43.5234683,
  "lon": 5.4398468,
  "tags": {
    "bus": "yes",
    "highway": "bus_stop",
    "local_ref": "15",
    "name": "Aix-en-Provence - Gare Routière",
    "public_transport": "stop_position",
    "ref": "Quai 15"
  }
},
{
  "type": "node",
  "id": 4429323718,
  "lat": 43.4977463,
  "lon": 5.3705385,
  "tags": {
    "bench": "yes",
    "bus": "yes",
    "highway": "bus_stop",
    "local_ref": "1",
    "name": "Plan d'Aillane",
    "passenger_information_display": "yes",
    "public_transport": "platform",
    "ref": "Quai 1",
    "shelter": "yes"
  }
},
{
  "type": "node",
  "id": 4429323721,
  "lat": 43.4977992,
  "lon": 5.3706779,
  "tags": {
    "bench": "yes",
    "bus": "yes",
    "highway": "bus_stop",
    "local_ref": "10",
    "name": "Plan d'Aillane",
    "passenger_information_display": "yes",
    "public_transport": "platform",
    "ref": "Quai 10",
    "shelter": "yes"
  }
},
{
  "type": "node",
  "id": 4429323722,
  "lat": 43.4978718,
  "lon": 5.3704222,
  "tags": {
    "bench": "yes",
    "bus": "yes",
    "highway": "bus_stop",
    "local_ref": "2",
    "name": "Plan d'Aillane",
    "passenger_information_display": "yes",
    "public_transport": "platform",
    "ref": "Quai 2",
    "shelter": "yes"
  }
},
{
  "type": "node",
  "id": 4429323723,
  "lat": 43.4979239,
  "lon": 5.3705637,
  "tags": {
    "bench": "yes",
    "bus": "yes",
    "highway": "bus_stop",
    "local_ref": "9",
    "name": "Plan d'Aillane",
    "passenger_information_display": "yes",
    "public_transport": "platform",
    "ref": "Quai 9",
    "shelter": "yes"
  }
},
{
  "type": "node",
  "id": 4429323724,
  "lat": 43.4979924,
  "lon": 5.3703092,
  "tags": {
    "bench": "yes",
    "bus": "yes",
    "highway": "bus_stop",
    "local_ref": "3",
    "name": "Plan d'Aillane",
    "passenger_information_display": "yes",
    "public_transport": "platform",
    "ref": "Quai 3",
    "shelter": "yes"
  }
},
{
  "type": "node",
  "id": 4429323725,
  "lat": 43.4980475,
  "lon": 5.3704506,
  "tags": {
    "bench": "yes",
    "bus": "yes",
    "highway": "bus_stop",
    "local_ref": "8",
    "name": "Plan d'Aillane",
    "passenger_information_display": "yes",
    "public_transport": "platform",
    "ref": "Quai 8",
    "shelter": "yes"
  }
},
{
  "type": "node",
  "id": 4429323727,
  "lat": 43.4982001,
  "lon": 5.3703015,
  "tags": {
    "bench": "yes",
    "bus": "yes",
    "highway": "bus_stop",
    "local_ref": "7",
    "name": "Plan d'Aillane",
    "passenger_information_display": "yes",
    "public_transport": "platform",
    "ref": "Quai 7",
    "shelter": "yes"
  }
},
{
  "type": "node",
  "id": 4429323728,
  "lat": 43.4983330,
  "lon": 5.3699984,
  "tags": {
    "bench": "yes",
    "bus": "yes",
    "highway": "bus_stop",
    "local_ref": "5",
    "name": "Plan d'Aillane",
    "passenger_information_display": "yes",
    "public_transport": "platform",
    "ref": "Quai 5",
    "shelter": "yes"
  }
},
{
  "type": "node",
  "id": 4429323729,
  "lat": 43.4983225,
  "lon": 5.3701840,
  "tags": {
    "bench": "yes",
    "bus": "yes",
    "highway": "bus_stop",
    "local_ref": "6",
    "name": "Plan d'Aillane",
    "passenger_information_display": "yes",
    "public_transport": "platform",
    "ref": "Quai 6",
    "shelter": "yes"
  }
},
{
  "type": "node",
  "id": 4632590774,
  "lat": 43.5323237,
  "lon": 5.4520797,
  "tags": {
    "bus": "yes",
    "highway": "bus_stop",
    "name": "Bellegarde",
    "public_transport": "stop_position"
  }
},
{
  "type": "node",
  "id": 4687180177,
  "lat": 43.5936157,
  "lon": 5.3665411,
  "tags": {
    "bus": "yes",
    "highway": "bus_stop",
    "name": "C05",
    "public_transport": "platform"
  }
},
{
  "type": "node",
  "id": 4687188229,
  "lat": 43.6019196,
  "lon": 5.3660556,
  "tags": {
    "bus": "yes",
    "highway": "bus_stop",
    "name": "C06",
    "public_transport": "platform"
  }
},
{
  "type": "node",
  "id": 4799136022,
  "lat": 43.5164157,
  "lon": 5.3140447,
  "tags": {
    "bus": "yes",
    "highway": "bus_stop",
    "name": "Aqueduc",
    "public_transport": "platform"
  }
},
{
  "type": "node",
  "id": 5181531181,
  "lat": 43.5726951,
  "lon": 5.3928072,
  "tags": {
    "bus": "yes",
    "highway": "bus_stop",
    "name": "La Calade",
    "public_transport": "stop_position"
  }
},
{
  "type": "node",
  "id": 5228153859,
  "lat": 43.5304090,
  "lon": 5.4346487,
  "tags": {
    "bus": "yes",
    "highway": "bus_stop",
    "public_transport": "stop_position"
  }
},
{
  "type": "node",
  "id": 5235718057,
  "lat": 43.5315451,
  "lon": 5.4319580,
  "tags": {
    "bus": "yes",
    "highway": "bus_stop",
    "name": "Petite Chartreuse",
    "public_transport": "stop_position"
  }
},
{
  "type": "node",
  "id": 5235718058,
  "lat": 43.5315636,
  "lon": 5.4317789,
  "tags": {
    "bus": "yes",
    "highway": "bus_stop",
    "public_transport": "stop_position"
  }
},
{
  "type": "node",
  "id": 5241018237,
  "lat": 43.5319695,
  "lon": 5.4300698,
  "tags": {
    "bus": "yes",
    "highway": "bus_stop",
    "name": "Dalmas",
    "public_transport": "stop_position"
  }
},
{
  "type": "node",
  "id": 5244297492,
  "lat": 43.5326600,
  "lon": 5.4268164,
  "tags": {
    "bus": "yes",
    "highway": "bus_stop",
    "name": "Rond-Point d'Éguilles",
    "public_transport": "stop_position"
  }
},
{
  "type": "node",
  "id": 5244297497,
  "lat": 43.5326793,
  "lon": 5.4272252,
  "tags": {
    "bus": "yes",
    "highway": "bus_stop",
    "name": "Rond-Point d'Éguilles",
    "public_transport": "stop_position"
  }
},
{
  "type": "node",
  "id": 5661456349,
  "lat": 43.5112031,
  "lon": 5.4482595,
  "tags": {
    "bus": "yes",
    "highway": "bus_stop",
    "local_ref": "1",
    "name": "P+R Krypton",
    "public_transport": "stop_position",
    "ref": "Quai 1"
  }
},
{
  "type": "node",
  "id": 5661456352,
  "lat": 43.5112414,
  "lon": 5.4483206,
  "tags": {
    "bus": "yes",
    "highway": "bus_stop",
    "local_ref": "2",
    "name": "P+R Krypton",
    "public_transport": "stop_position",
    "ref": "Quai 2",
    "route_ref": "Flixbus 482, 728, 734, 739, 768, 798, 799, 1649, 1768, 1922, N708, N719, N720"
  }
},
{
  "type": "node",
  "id": 5661456353,
  "lat": 43.5112982,
  "lon": 5.4484113,
  "tags": {
    "bus": "yes",
    "highway": "bus_stop",
    "local_ref": "3",
    "name": "P+R Krypton",
    "public_transport": "stop_position",
    "ref": "Quai 3"
  }
},
{
  "type": "node",
  "id": 5661456355,
  "lat": 43.5113510,
  "lon": 5.4485277,
  "tags": {
    "bus": "yes",
    "highway": "bus_stop",
    "local_ref": "4",
    "name": "P+R Krypton",
    "public_transport": "stop_position",
    "ref": "Quai 4"
  }
},
{
  "type": "node",
  "id": 5661456357,
  "lat": 43.5113655,
  "lon": 5.4486497,
  "tags": {
    "bus": "yes",
    "highway": "bus_stop",
    "local_ref": "5",
    "name": "P+R Krypton",
    "public_transport": "stop_position",
    "ref": "Quai 5"
  }
},
{
  "type": "node",
  "id": 5661456359,
  "lat": 43.5113704,
  "lon": 5.4487464,
  "tags": {
    "bus": "yes",
    "highway": "bus_stop",
    "local_ref": "6",
    "name": "P+R Krypton",
    "public_transport": "stop_position",
    "ref": "Quai 6"
  }
},
{
  "type": "node",
  "id": 5661456361,
  "lat": 43.5113750,
  "lon": 5.4488392,
  "tags": {
    "bus": "yes",
    "highway": "bus_stop",
    "local_ref": "7",
    "name": "P+R Krypton",
    "public_transport": "stop_position",
    "ref": "Quai 7"
  }
},
{
  "type": "node",
  "id": 5661456363,
  "lat": 43.5113797,
  "lon": 5.4489320,
  "tags": {
    "bus": "yes",
    "highway": "bus_stop",
    "local_ref": "8",
    "name": "P+R Krypton",
    "public_transport": "stop_position",
    "ref": "Quai 8"
  }
},
{
  "type": "node",
  "id": 5661456365,
  "lat": 43.5113626,
  "lon": 5.4490883,
  "tags": {
    "bus": "yes",
    "highway": "bus_stop",
    "local_ref": "A",
    "name": "P+R Krypton",
    "public_transport": "stop_position",
    "ref": "Quai A"
  }
},
{
  "type": "node",
  "id": 5661456367,
  "lat": 43.5113815,
  "lon": 5.4491532,
  "tags": {
    "bus": "yes",
    "highway": "bus_stop",
    "local_ref": "B",
    "name": "P+R Krypton",
    "public_transport": "stop_position",
    "ref": "Quai B"
  }
},
{
  "type": "node",
  "id": 5661456369,
  "lat": 43.5113991,
  "lon": 5.4492135,
  "tags": {
    "bus": "yes",
    "highway": "bus_stop",
    "local_ref": "C",
    "name": "P+R Krypton",
    "public_transport": "stop_position",
    "ref": "Quai C"
  }
},
{
  "type": "node",
  "id": 5661456371,
  "lat": 43.5114179,
  "lon": 5.4492777,
  "tags": {
    "bus": "yes",
    "highway": "bus_stop",
    "local_ref": "D",
    "name": "P+R Krypton",
    "public_transport": "stop_position",
    "ref": "Quai D"
  }
},
{
  "type": "node",
  "id": 5685142347,
  "lat": 43.5472524,
  "lon": 5.4398243,
  "tags": {
    "bus": "yes",
    "fixme": "Please add name.",
    "highway": "bus_stop",
    "public_transport": "stop_position"
  }
},
{
  "type": "node",
  "id": 5685142350,
  "lat": 43.5471362,
  "lon": 5.4400101,
  "tags": {
    "bus": "yes",
    "fixme": "Please add name.",
    "highway": "bus_stop",
    "public_transport": "stop_position"
  }
},
{
  "type": "node",
  "id": 5685142360,
  "lat": 43.5457182,
  "lon": 5.4407985,
  "tags": {
    "bus": "yes",
    "fixme": "Please add name.",
    "highway": "bus_stop",
    "public_transport": "stop_position"
  }
},
{
  "type": "node",
  "id": 5685142389,
  "lat": 43.5425177,
  "lon": 5.4411107,
  "tags": {
    "bus": "yes",
    "highway": "bus_stop",
    "name": "Murier Blanc",
    "public_transport": "stop_position"
  }
},
{
  "type": "node",
  "id": 5685142459,
  "lat": 43.5398354,
  "lon": 5.4425287,
  "tags": {
    "bus": "yes",
    "highway": "bus_stop",
    "name": "La Ginette",
    "public_transport": "stop_position"
  }
},
{
  "type": "node",
  "id": 5777231255,
  "lat": 43.4555789,
  "lon": 5.3167803,
  "tags": {
    "bus": "yes",
    "highway": "bus_stop",
    "level": "-1",
    "name": "Gare Aix TGV",
    "name:oc": "Gara Ais - TGV",
    "public_transport": "stop_position",
    "source:name:oc": "ieo-bdtopoc"
  }
},
{
  "type": "node",
  "id": 5777231256,
  "lat": 43.4554972,
  "lon": 5.3163886,
  "tags": {
    "bus": "yes",
    "highway": "bus_stop",
    "level": "-1",
    "name": "Gare Aix TGV",
    "public_transport": "stop_position"
  }
},
{
  "type": "node",
  "id": 5779545295,
  "lat": 43.4854806,
  "lon": 5.4178436,
  "tags": {
    "bus": "yes",
    "highway": "bus_stop",
    "name": "Luynes Mail",
    "public_transport": "stop_position"
  }
},
{
  "type": "node",
  "id": 5854431551,
  "lat": 43.5281163,
  "lon": 5.4111488,
  "tags": {
    "bench": "yes",
    "bus": "yes",
    "departures_board": "timetable",
    "highway": "bus_stop",
    "lit": "yes",
    "name": "Four d'Eyglun",
    "network": "La Métropole Mobilité - LeBus",
    "operator": "Keolis",
    "public_transport": "platform",
    "shelter": "yes",
    "tactile_paving": "yes",
    "wheelchair": "yes"
  }
},
{
  "type": "node",
  "id": 5856972847,
  "lat": 43.4718510,
  "lon": 5.4018815,
  "tags": {
    "bus": "yes",
    "highway": "bus_stop",
    "name": "P + R Aréna",
    "public_transport": "platform"
  }
},
{
  "type": "node",
  "id": 5856972848,
  "lat": 43.4717648,
  "lon": 5.4020346,
  "tags": {
    "bus": "yes",
    "highway": "bus_stop",
    "name": "P + R Aréna",
    "public_transport": "platform"
  }
},
{
  "type": "node",
  "id": 5856972849,
  "lat": 43.4716821,
  "lon": 5.4021852,
  "tags": {
    "bus": "yes",
    "highway": "bus_stop",
    "name": "P + R Aréna",
    "public_transport": "platform"
  }
},
{
  "type": "node",
  "id": 5856972850,
  "lat": 43.4716019,
  "lon": 5.4023438,
  "tags": {
    "bus": "yes",
    "highway": "bus_stop",
    "name": "P + R Aréna",
    "public_transport": "platform"
  }
},
{
  "type": "node",
  "id": 5856972851,
  "lat": 43.4716235,
  "lon": 5.4020087,
  "tags": {
    "bus": "yes",
    "highway": "bus_stop",
    "name": "P + R Aréna",
    "public_transport": "platform"
  }
},
{
  "type": "node",
  "id": 5856972852,
  "lat": 43.4717100,
  "lon": 5.4018448,
  "tags": {
    "bus": "yes",
    "highway": "bus_stop",
    "name": "P + R Aréna",
    "public_transport": "platform"
  }
},
{
  "type": "node",
  "id": 5856972853,
  "lat": 43.4717937,
  "lon": 5.4016291,
  "tags": {
    "bus": "yes",
    "highway": "bus_stop",
    "name": "P + R Aréna",
    "public_transport": "platform"
  }
},
{
  "type": "node",
  "id": 5856972854,
  "lat": 43.4715359,
  "lon": 5.4021819,
  "tags": {
    "bus": "yes",
    "highway": "bus_stop",
    "name": "P + R Aréna",
    "public_transport": "platform"
  }
},
{
  "type": "node",
  "id": 5876290598,
  "lat": 43.5211013,
  "lon": 5.4589527,
  "tags": {
    "bus": "yes",
    "highway": "bus_stop",
    "name": "Sainte-Anne",
    "public_transport": "stop_position"
  }
},
{
  "type": "node",
  "id": 5876353593,
  "lat": 43.5382698,
  "lon": 5.4570812,
  "tags": {
    "bus": "yes",
    "highway": "bus_stop",
    "name": "Espérantistes",
    "public_transport": "stop_position"
  }
},
{
  "type": "node",
  "id": 6002885125,
  "lat": 43.5339109,
  "lon": 5.4593742,
  "tags": {
    "bus": "yes",
    "highway": "bus_stop",
    "name": "Lycée Paul Cézanne",
    "public_transport": "stop_position"
  }
},
{
  "type": "node",
  "id": 6012944434,
  "lat": 43.5289125,
  "lon": 5.4396467,
  "tags": {
    "bench": "no",
    "bus": "yes",
    "highway": "bus_stop",
    "name": "République",
    "public_transport": "platform",
    "shelter": "no",
    "tactile_paving": "yes",
    "wheelchair": "yes"
  }
},
{
  "type": "node",
  "id": 6013127109,
  "lat": 43.5312609,
  "lon": 5.4418702,
  "tags": {
    "bus": "yes",
    "highway": "bus_stop",
    "name": "Vendôme",
    "public_transport": "stop_position"
  }
},
{
  "type": "node",
  "id": 6013212863,
  "lat": 43.4791000,
  "lon": 5.3946368,
  "tags": {
    "bus": "yes",
    "departures_board": "timetable",
    "highway": "bus_stop",
    "name": "Maison Arrêt D59",
    "public_transport": "platform",
    "tactile_paving": "yes",
    "wheelchair": "yes"
  }
},
{
  "type": "node",
  "id": 6013231272,
  "lat": 43.4813675,
  "lon": 5.3951725,
  "tags": {
    "bus": "yes",
    "highway": "bus_stop",
    "name": "Maison d'Arrêt",
    "network": "La Métropole Mobilité",
    "public_transport": "platform"
  }
},
{
  "type": "node",
  "id": 6013231273,
  "lat": 43.4817904,
  "lon": 5.3957202,
  "tags": {
    "bus": "yes",
    "highway": "bus_stop",
    "name": "Maison d'Arrêt",
    "network": "La Métropole Mobilité",
    "public_transport": "platform"
  }
},
{
  "type": "node",
  "id": 6013263465,
  "lat": 43.4872550,
  "lon": 5.3861059,
  "tags": {
    "bus": "yes",
    "highway": "bus_stop",
    "name": "Baltard",
    "network": "La Métropole Mobilité",
    "public_transport": "platform"
  }
},
{
  "type": "node",
  "id": 6013263466,
  "lat": 43.4872306,
  "lon": 5.3859097,
  "tags": {
    "bus": "yes",
    "highway": "bus_stop",
    "name": "Baltard",
    "network": "La Métropole Mobilité",
    "public_transport": "platform"
  }
},
{
  "type": "node",
  "id": 6013340661,
  "lat": 43.4977220,
  "lon": 5.3704874,
  "tags": {
    "bus": "yes",
    "highway": "bus_stop",
    "local_ref": "1",
    "name": "Plan d'Aillane",
    "public_transport": "stop_position",
    "ref": "Quai 1"
  }
},
{
  "type": "node",
  "id": 6048652160,
  "lat": 43.5220380,
  "lon": 5.4237794,
  "tags": {
    "bus": "yes",
    "highway": "bus_stop",
    "name": "Vasarely",
    "public_transport": "stop_position"
  }
},
{
  "type": "node",
  "id": 6076603783,
  "lat": 43.5269170,
  "lon": 5.4634861,
  "tags": {
    "bus": "yes",
    "highway": "bus_stop",
    "name": "Pont de la Torse",
    "public_transport": "stop_position"
  }
},
{
  "type": "node",
  "id": 6109443817,
  "lat": 43.5219380,
  "lon": 5.4182564,
  "tags": {
    "bus": "yes",
    "highway": "bus_stop",
    "name": "Coq d'Argent",
    "public_transport": "stop_position"
  }
},
{
  "type": "node",
  "id": 6109987482,
  "lat": 43.5264256,
  "lon": 5.4171491,
  "tags": {
    "bus": "yes",
    "highway": "bus_stop",
    "name": "Thermidor",
    "public_transport": "stop_position"
  }
},
{
  "type": "node",
  "id": 6110534537,
  "lat": 43.4826122,
  "lon": 5.3967393,
  "tags": {
    "bus": "yes",
    "highway": "bus_stop",
    "name": "Maison Arrêt",
    "public_transport": "stop_position"
  }
},
{
  "type": "node",
  "id": 6116171018,
  "lat": 43.5234956,
  "lon": 5.4313067,
  "tags": {
    "bench": "no",
    "bus": "yes",
    "highway": "bus_stop",
    "lit": "yes",
    "name": "Le Corbusier",
    "public_transport": "platform",
    "shelter": "no"
  }
},
{
  "type": "node",
  "id": 6124132187,
  "lat": 43.5379805,
  "lon": 5.4466766,
  "tags": {
    "bench": "no",
    "bus": "yes",
    "highway": "bus_stop",
    "lit": "no",
    "name": "Auriol",
    "public_transport": "platform",
    "shelter": "no"
  }
},
{
  "type": "node",
  "id": 6175158561,
  "lat": 43.5340438,
  "lon": 5.4452382,
  "tags": {
    "bus": "yes",
    "highway": "bus_stop",
    "name": "Nations",
    "public_transport": "stop_position"
  }
},
{
  "type": "node",
  "id": 6175158564,
  "lat": 43.5342844,
  "lon": 5.4464846,
  "tags": {
    "bus": "yes",
    "highway": "bus_stop",
    "name": "Pasteur Notre Dame",
    "public_transport": "stop_position"
  }
},
{
  "type": "node",
  "id": 6226917095,
  "lat": 43.5082545,
  "lon": 5.4081026,
  "tags": {
    "bench": "no",
    "bus": "yes",
    "highway": "bus_stop",
    "name": "Beauvoisin",
    "public_transport": "platform",
    "shelter": "no",
    "tactile_paving": "no"
  }
},
{
  "type": "node",
  "id": 6227149315,
  "lat": 43.5339981,
  "lon": 5.4433707,
  "tags": {
    "bus": "yes",
    "highway": "bus_stop",
    "name": "Hôpital",
    "public_transport": "stop_position"
  }
},
{
  "type": "node",
  "id": 6227149318,
  "lat": 43.5328401,
  "lon": 5.4393309,
  "tags": {
    "bus": "yes",
    "highway": "bus_stop",
    "name": "Rocher du Dragon",
    "public_transport": "stop_position"
  }
},
{
  "type": "node",
  "id": 6227324351,
  "lat": 43.5878296,
  "lon": 5.4571489,
  "tags": {
    "bus": "yes",
    "highway": "bus_stop",
    "name": "D6",
    "public_transport": "stop_position"
  }
},
{
  "type": "node",
  "id": 6397063914,
  "lat": 43.5159848,
  "lon": 5.4611870,
  "tags": {
    "bus": "yes",
    "highway": "bus_stop",
    "name": "Cible",
    "public_transport": "stop_position"
  }
},
{
  "type": "node",
  "id": 6402928717,
  "lat": 43.5249175,
  "lon": 5.4241804,
  "tags": {
    "bench": "yes",
    "bin": "yes",
    "bus": "yes",
    "departures_board": "realtime",
    "highway": "bus_stop",
    "lit": "yes",
    "name": "Saint-John Perse",
    "public_transport": "platform",
    "shelter": "yes",
    "tactile_paving": "yes",
    "wheelchair": "yes"
  }
},
{
  "type": "node",
  "id": 6414388123,
  "lat": 43.5267062,
  "lon": 5.4239172,
  "tags": {
    "bus": "yes",
    "highway": "bus_stop",
    "name": "Marcel Pagnol",
    "public_transport": "stop_position"
  }
},
{
  "type": "node",
  "id": 6418043212,
  "lat": 43.5356410,
  "lon": 5.4694654,
  "tags": {
    "bus": "yes",
    "highway": "bus_stop",
    "name": "Petit Roquefavour",
    "public_transport": "stop_position"
  }
},
{
  "type": "node",
  "id": 6419193299,
  "lat": 43.5112631,
  "lon": 5.4653067,
  "tags": {
    "bus": "yes",
    "highway": "bus_stop",
    "name": "Val de l'Arc",
    "public_transport": "stop_position"
  }
},
{
  "type": "node",
  "id": 6421495714,
  "lat": 43.5302154,
  "lon": 5.4386549,
  "tags": {
    "bus": "yes",
    "highway": "bus_stop",
    "name": "De la Molle",
    "public_transport": "platform"
  }
},
{
  "type": "node",
  "id": 6421495716,
  "lat": 43.6118966,
  "lon": 5.3831950,
  "tags": {
    "bus": "yes",
    "highway": "bus_stop",
    "name": "Grand-Saint-Jean",
    "public_transport": "platform"
  }
},
{
  "type": "node",
  "id": 6422668314,
  "lat": 43.5434867,
  "lon": 5.4031568,
  "tags": {
    "bus": "yes",
    "highway": "bus_stop",
    "name": "Résidence du Pey Blanc",
    "public_transport": "stop_position"
  }
},
{
  "type": "node",
  "id": 6423246748,
  "lat": 43.5405831,
  "lon": 5.4192694,
  "tags": {
    "bus": "yes",
    "highway": "bus_stop",
    "name": "Tennis",
    "network": "La Métropole Mobilité",
    "network:wikidata": "Q2940676",
    "network:wikipedia": "fr:La Métropole Mobilité",
    "public_transport": "platform"
  }
},
{
  "type": "node",
  "id": 6423617020,
  "lat": 43.5676213,
  "lon": 5.4569210,
  "tags": {
    "bus": "yes",
    "highway": "bus_stop",
    "name": "D16",
    "public_transport": "stop_position"
  }
},
{
  "type": "node",
  "id": 6425144095,
  "lat": 43.5175017,
  "lon": 5.4246802,
  "tags": {
    "bus": "yes",
    "highway": "bus_stop",
    "name": "Martelly",
    "public_transport": "platform"
  }
},
{
  "type": "node",
  "id": 6425144096,
  "lat": 43.5174435,
  "lon": 5.4252035,
  "tags": {
    "bus": "yes",
    "highway": "bus_stop",
    "name": "Martelly",
    "public_transport": "platform"
  }
},
{
  "type": "node",
  "id": 6429159608,
  "lat": 43.5248390,
  "lon": 5.3898563,
  "tags": {
    "bench": "no",
    "bus": "yes",
    "highway": "bus_stop",
    "name": "CIAM",
    "network": "La Métropole Mobilité - LeBus",
    "operator": "Keolis",
    "public_transport": "platform",
    "shelter": "no"
  }
},
{
  "type": "node",
  "id": 6429159621,
  "lat": 43.5252292,
  "lon": 5.4222854,
  "tags": {
    "bus": "yes",
    "highway": "bus_stop",
    "name": "Collège Jas de Bouffan",
    "public_transport": "platform",
    "shelter": "no",
    "tactile_paving": "yes"
  }
},
{
  "type": "node",
  "id": 6429159622,
  "lat": 43.5249166,
  "lon": 5.4231522,
  "tags": {
    "bus": "yes",
    "highway": "bus_stop",
    "lit": "yes",
    "name": "Collège Jas de Bouffan",
    "public_transport": "platform",
    "shelter": "no",
    "tactile_paving": "no"
  }
},
{
  "type": "node",
  "id": 6436364935,
  "lat": 43.5992171,
  "lon": 5.4445779,
  "tags": {
    "bus": "yes",
    "highway": "bus_stop",
    "name": "Couteron Eglise",
    "public_transport": "stop_position"
  }
},
{
  "type": "node",
  "id": 6436467931,
  "lat": 43.5995563,
  "lon": 5.4471877,
  "tags": {
    "bus": "yes",
    "highway": "bus_stop",
    "name": "Couteron Ecole",
    "public_transport": "platform"
  }
},
{
  "type": "node",
  "id": 6442687430,
  "lat": 43.5151869,
  "lon": 5.4707648,
  "tags": {
    "bus": "yes",
    "highway": "bus_stop",
    "name": "Magnan",
    "public_transport": "stop_position"
  }
},
{
  "type": "node",
  "id": 6447809503,
  "lat": 43.5471099,
  "lon": 5.4454953,
  "tags": {
    "bench": "no",
    "bus": "yes",
    "highway": "bus_stop",
    "name": "De Mazenod",
    "public_transport": "platform",
    "shelter": "no"
  }
},
{
  "type": "node",
  "id": 6534849582,
  "lat": 43.4908570,
  "lon": 5.3725249,
  "tags": {
    "bus": "yes",
    "highway": "bus_stop",
    "name": "Pôle d'Activités",
    "public_transport": "stop_position"
  }
},
{
  "type": "node",
  "id": 6969713785,
  "lat": 43.5235930,
  "lon": 5.4394815,
  "tags": {
    "bench": "yes",
    "bin": "yes",
    "highway": "bus_stop",
    "lit": "yes",
    "name": "Aix gare routière",
    "shelter": "yes",
    "tactile_paving": "yes"
  }
},
{
  "type": "node",
  "id": 7023698725,
  "lat": 43.5304568,
  "lon": 5.4175869,
  "tags": {
    "bus": "yes",
    "highway": "bus_stop",
    "name": "P+R Lieutenant-Colonel Jeanpierre",
    "public_transport": "stop_position"
  }
},
{
  "type": "node",
  "id": 7023698733,
  "lat": 43.5305531,
  "lon": 5.4176048,
  "tags": {
    "bus": "yes",
    "highway": "bus_stop",
    "name": "P+R Lieutenant-Colonel Jeanpierre",
    "public_transport": "stop_position"
  }
},
{
  "type": "node",
  "id": 7082376485,
  "lat": 43.5246670,
  "lon": 5.4357995,
  "tags": {
    "bus": "yes",
    "departures_board": "timetable",
    "highway": "bus_stop",
    "name": "Pérouse",
    "public_transport": "platform",
    "shelter": "no"
  }
},
{
  "type": "node",
  "id": 7093410528,
  "lat": 43.5146273,
  "lon": 5.4701783,
  "tags": {
    "bus": "yes",
    "highway": "bus_stop",
    "name": "Magnan",
    "public_transport": "stop_position"
  }
},
{
  "type": "node",
  "id": 7096711927,
  "lat": 43.5339189,
  "lon": 5.4424235,
  "tags": {
    "bus": "yes",
    "highway": "bus_stop",
    "public_transport": "stop_position"
  }
},
{
  "type": "node",
  "id": 7098595674,
  "lat": 43.5263735,
  "lon": 5.4602982,
  "tags": {
    "bus": "yes",
    "highway": "bus_stop",
    "public_transport": "stop_position"
  }
},
{
  "type": "node",
  "id": 7099582488,
  "lat": 43.5365294,
  "lon": 5.4370394,
  "tags": {
    "bench": "no",
    "bus": "yes",
    "departures_board": "timetable",
    "highway": "bus_stop",
    "lit": "yes",
    "name": "Olympia",
    "network": "La Métropole Mobilité - LeBus",
    "operator": "Keolis",
    "public_transport": "platform",
    "shelter": "no"
  }
},
{
  "type": "node",
  "id": 7099582490,
  "lat": 43.5415491,
  "lon": 5.4389006,
  "tags": {
    "bus": "yes",
    "highway": "bus_stop",
    "public_transport": "stop_position"
  }
},
{
  "type": "node",
  "id": 7099582492,
  "lat": 43.5416005,
  "lon": 5.4388477,
  "tags": {
    "bench": "no",
    "bus": "yes",
    "departures_board": "timetable",
    "highway": "bus_stop",
    "lit": "yes",
    "name": "Beauvallon",
    "network": "La Métropole Mobilité - LeBus",
    "operator": "Keolis",
    "public_transport": "platform",
    "shelter": "no"
  }
},
{
  "type": "node",
  "id": 7099582493,
  "lat": 43.5401489,
  "lon": 5.4365120,
  "tags": {
    "bus": "yes",
    "description": "Arrêt desservi uniquement sur certains horaires",
    "highway": "bus_stop",
    "name": "Chalet",
    "public_transport": "platform"
  }
},
{
  "type": "node",
  "id": 7102037231,
  "lat": 43.5248749,
  "lon": 5.4401060,
  "tags": {
    "bus": "yes",
    "highway": "bus_stop",
    "public_transport": "stop_position"
  }
},
{
  "type": "node",
  "id": 7119037733,
  "lat": 43.5499957,
  "lon": 5.3901287,
  "tags": {
    "bus": "yes",
    "highway": "bus_stop",
    "name": "Vallons des Mourgues",
    "public_transport": "platform"
  }
},
{
  "type": "node",
  "id": 7209337000,
  "lat": 43.5120576,
  "lon": 5.4619420,
  "tags": {
    "bus": "yes",
    "highway": "bus_stop",
    "name": "Arc de Meyran Zola",
    "public_transport": "stop_position"
  }
},
{
  "type": "node",
  "id": 7209337068,
  "lat": 43.5267006,
  "lon": 5.4380771,
  "tags": {
    "bench": "no",
    "bus": "yes",
    "highway": "bus_stop",
    "name": "GTP",
    "public_transport": "platform",
    "shelter": "no"
  }
},
{
  "type": "node",
  "id": 7216978043,
  "lat": 43.5222345,
  "lon": 5.4517052,
  "tags": {
    "bench": "no",
    "bus": "yes",
    "departures_board": "timetable",
    "highway": "bus_stop",
    "name": "Robert",
    "network": "La Métropole Mobilité - LeBus",
    "operator": "Keolis",
    "public_transport": "platform",
    "shelter": "no"
  }
},
{
  "type": "node",
  "id": 7313794531,
  "lat": 43.5369621,
  "lon": 5.3934472,
  "tags": {
    "bench": "no",
    "bus": "yes",
    "highway": "bus_stop",
    "name": "A4",
    "operator": "Keolis Pays d'Aix",
    "public_transport": "platform",
    "shelter": "no"
  }
},
{
  "type": "node",
  "id": 7314847419,
  "lat": 43.5339403,
  "lon": 5.4430320,
  "tags": {
    "bus": "yes",
    "highway": "bus_stop",
    "name": "Hôpital",
    "public_transport": "stop_position"
  }
},
{
  "type": "node",
  "id": 7371649055,
  "lat": 43.5562662,
  "lon": 5.4197929,
  "tags": {
    "bench": "no",
    "bus": "yes",
    "departures_board": "timetable",
    "highway": "bus_stop",
    "lit": "no",
    "name": "Celony Ecole",
    "network": "La Métropole Mobilité",
    "network:wikidata": "Q2940676",
    "network:wikipedia": "fr:La Métropole Mobilité",
    "public_transport": "platform",
    "shelter": "no",
    "wheelchair": "yes"
  }
},
{
  "type": "node",
  "id": 7570304439,
  "lat": 43.4780733,
  "lon": 5.3747886,
  "tags": {
    "bus": "yes",
    "highway": "bus_stop",
    "name": "La Robole",
    "public_transport": "stop_position"
  }
},
{
  "type": "node",
  "id": 8100577674,
  "lat": 43.5256808,
  "lon": 5.4447709,
  "tags": {
    "bus": "yes",
    "highway": "bus_stop",
    "name": "Rotonde",
    "public_transport": "stop_position"
  }
},
{
  "type": "node",
  "id": 8145831353,
  "lat": 43.5284804,
  "lon": 5.4252388,
  "tags": {
    "bus": "yes",
    "highway": "bus_stop",
    "name": "Stade Ouest",
    "public_transport": "stop_position"
  }
},
{
  "type": "node",
  "id": 8290152506,
  "lat": 43.5201603,
  "lon": 5.4350999,
  "tags": {
    "bus": "yes",
    "highway": "bus_stop",
    "name": "Mouret",
    "public_transport": "stop_position"
  }
},
{
  "type": "node",
  "id": 8354878349,
  "lat": 43.5309063,
  "lon": 5.4521558,
  "tags": {
    "bus": "yes",
    "highway": "bus_stop",
    "local_ref": "1",
    "name": "Saint-Louis - Quai n°1",
    "public_transport": "stop_position",
    "ref": "Quai n°1"
  }
},
{
  "type": "node",
  "id": 8354878350,
  "lat": 43.5250853,
  "lon": 5.4544088,
  "tags": {
    "bus": "yes",
    "highway": "bus_stop",
    "name": "Saint-Jean",
    "public_transport": "stop_position"
  }
},
{
  "type": "node",
  "id": 8354878351,
  "lat": 43.5386025,
  "lon": 5.4570186,
  "tags": {
    "bus": "yes",
    "highway": "bus_stop",
    "name": "Espérantistes",
    "public_transport": "stop_position"
  }
},
{
  "type": "node",
  "id": 8358623877,
  "lat": 43.4920210,
  "lon": 5.3723828,
  "tags": {
    "bus": "yes",
    "highway": "bus_stop",
    "name": "Duchesne",
    "public_transport": "stop_position"
  }
},
{
  "type": "node",
  "id": 8361146150,
  "lat": 43.5316433,
  "lon": 5.4514946,
  "tags": {
    "bus": "yes",
    "highway": "bus_stop",
    "name": "Bellegarde",
    "public_transport": "stop_position"
  }
},
{
  "type": "node",
  "id": 8361146151,
  "lat": 43.5278921,
  "lon": 5.4552135,
  "tags": {
    "bus": "yes",
    "highway": "bus_stop",
    "name": "Miollis",
    "public_transport": "stop_position"
  }
},
{
  "type": "node",
  "id": 8361146152,
  "lat": 43.5307631,
  "lon": 5.4397805,
  "tags": {
    "bus": "yes",
    "highway": "bus_stop",
    "name": "Silvacane",
    "public_transport": "stop_position"
  }
},
{
  "type": "node",
  "id": 8361146153,
  "lat": 43.5321356,
  "lon": 5.4451441,
  "tags": {
    "bus": "yes",
    "highway": "bus_stop",
    "name": "Bourse",
    "public_transport": "stop_position"
  }
},
{
  "type": "node",
  "id": 8361146154,
  "lat": 43.5325922,
  "lon": 5.4489016,
  "tags": {
    "bus": "yes",
    "highway": "bus_stop",
    "name": "Briand",
    "public_transport": "stop_position"
  }
},
{
  "type": "node",
  "id": 8367593385,
  "lat": 43.5328805,
  "lon": 5.4548708,
  "tags": {
    "bus": "yes",
    "highway": "bus_stop",
    "name": "Zola",
    "public_transport": "stop_position"
  }
},
{
  "type": "node",
  "id": 8367593398,
  "lat": 43.5358493,
  "lon": 5.4577066,
  "tags": {
    "bus": "yes",
    "highway": "bus_stop",
    "name": "Moulin",
    "public_transport": "stop_position"
  }
},
{
  "type": "node",
  "id": 8367618939,
  "lat": 43.5563013,
  "lon": 5.4598672,
  "tags": {
    "bus": "yes",
    "highway": "bus_stop",
    "name": "Les Platanes",
    "public_transport": "stop_position"
  }
},
{
  "type": "node",
  "id": 8367618945,
  "lat": 43.5404822,
  "lon": 5.4572439,
  "tags": {
    "bus": "yes",
    "highway": "bus_stop",
    "name": "P+R Route des Alpes",
    "public_transport": "stop_position"
  }
},
{
  "type": "node",
  "id": 8367618946,
  "lat": 43.5364404,
  "lon": 5.4575591,
  "tags": {
    "bus": "yes",
    "highway": "bus_stop",
    "name": "Moulin",
    "public_transport": "stop_position"
  }
},
{
  "type": "node",
  "id": 8367618947,
  "lat": 43.5329260,
  "lon": 5.4551025,
  "tags": {
    "bus": "yes",
    "highway": "bus_stop",
    "name": "Zola",
    "public_transport": "stop_position"
  }
},
{
  "type": "node",
  "id": 8367618948,
  "lat": 43.5292392,
  "lon": 5.4538134,
  "tags": {
    "bus": "yes",
    "highway": "bus_stop",
    "name": "Saint-Louis",
    "public_transport": "stop_position"
  }
},
{
  "type": "node",
  "id": 8367618949,
  "lat": 43.5230120,
  "lon": 5.4560046,
  "tags": {
    "bus": "yes",
    "highway": "bus_stop",
    "name": "Saint-Pierre",
    "public_transport": "stop_position"
  }
},
{
  "type": "node",
  "id": 8367618950,
  "lat": 43.5196542,
  "lon": 5.4613846,
  "tags": {
    "bus": "yes",
    "highway": "bus_stop",
    "name": "Tour d'Aygosi",
    "public_transport": "stop_position"
  }
},
{
  "type": "node",
  "id": 8367619101,
  "lat": 43.5245006,
  "lon": 5.4546442,
  "tags": {
    "bus": "yes",
    "highway": "bus_stop",
    "name": "Gambetta",
    "public_transport": "stop_position"
  }
},
{
  "type": "node",
  "id": 8367619115,
  "lat": 43.5132812,
  "lon": 5.4415832,
  "tags": {
    "bus": "yes",
    "highway": "bus_stop",
    "name": "Colonel Schuler",
    "public_transport": "stop_position"
  }
},
{
  "type": "node",
  "id": 8367619116,
  "lat": 43.5132233,
  "lon": 5.4416422,
  "tags": {
    "bus": "yes",
    "highway": "bus_stop",
    "name": "Colonel Schuler",
    "public_transport": "stop_position"
  }
},
{
  "type": "node",
  "id": 8369778946,
  "lat": 43.4907606,
  "lon": 5.3722809,
  "tags": {
    "bus": "yes",
    "highway": "bus_stop",
    "name": "Pôle d'Activités",
    "public_transport": "stop_position"
  }
},
{
  "type": "node",
  "id": 8371041339,
  "lat": 43.5284098,
  "lon": 5.4389861,
  "tags": {
    "bus": "yes",
    "highway": "bus_stop",
    "name": "Pompidou",
    "public_transport": "stop_position"
  }
},
{
  "type": "node",
  "id": 8371041340,
  "lat": 43.5282635,
  "lon": 5.4333106,
  "tags": {
    "bus": "yes",
    "highway": "bus_stop",
    "name": "Galice",
    "public_transport": "stop_position"
  }
},
{
  "type": "node",
  "id": 8371041346,
  "lat": 43.5282275,
  "lon": 5.4296789,
  "tags": {
    "bus": "yes",
    "highway": "bus_stop",
    "name": "Corsy",
    "public_transport": "stop_position"
  }
},
{
  "type": "node",
  "id": 8371041367,
  "lat": 43.5291289,
  "lon": 5.4226830,
  "tags": {
    "bus": "yes",
    "highway": "bus_stop",
    "name": "Stade Ouest",
    "public_transport": "stop_position"
  }
},
{
  "type": "node",
  "id": 8371821507,
  "lat": 43.4916239,
  "lon": 5.3392720,
  "tags": {
    "bus": "yes",
    "highway": "bus_stop",
    "name": "Archimède",
    "public_transport": "stop_position"
  }
},
{
  "type": "node",
  "id": 8371821508,
  "lat": 43.4917194,
  "lon": 5.3394252,
  "tags": {
    "bus": "yes",
    "highway": "bus_stop",
    "name": "Archimède",
    "public_transport": "stop_position"
  }
},
{
  "type": "node",
  "id": 8371821509,
  "lat": 43.4948327,
  "lon": 5.3428423,
  "tags": {
    "bus": "yes",
    "highway": "bus_stop",
    "name": "Philibert",
    "public_transport": "stop_position"
  }
},
{
  "type": "node",
  "id": 8371821510,
  "lat": 43.4949037,
  "lon": 5.3427378,
  "tags": {
    "bus": "yes",
    "highway": "bus_stop",
    "name": "Philibert",
    "public_transport": "stop_position"
  }
},
{
  "type": "node",
  "id": 8371842518,
  "lat": 43.4957412,
  "lon": 5.3471055,
  "tags": {
    "bus": "yes",
    "highway": "bus_stop",
    "name": "Descartes",
    "public_transport": "stop_position"
  }
},
{
  "type": "node",
  "id": 8371842519,
  "lat": 43.4955624,
  "lon": 5.3475060,
  "tags": {
    "bus": "yes",
    "highway": "bus_stop",
    "name": "Descartes",
    "public_transport": "stop_position"
  }
},
{
  "type": "node",
  "id": 8371842541,
  "lat": 43.4958016,
  "lon": 5.3514829,
  "tags": {
    "bus": "yes",
    "highway": "bus_stop",
    "name": "Fresnel",
    "public_transport": "stop_position"
  }
},
{
  "type": "node",
  "id": 8371842542,
  "lat": 43.4956994,
  "lon": 5.3512219,
  "tags": {
    "bus": "yes",
    "highway": "bus_stop",
    "name": "Fresnel",
    "public_transport": "stop_position"
  }
},
{
  "type": "node",
  "id": 8371842583,
  "lat": 43.4924880,
  "lon": 5.3553776,
  "tags": {
    "bus": "yes",
    "highway": "bus_stop",
    "name": "Arago",
    "public_transport": "stop_position"
  }
},
{
  "type": "node",
  "id": 8371842593,
  "lat": 43.4906062,
  "lon": 5.3562494,
  "tags": {
    "bus": "yes",
    "highway": "bus_stop",
    "name": "De Broglie",
    "public_transport": "stop_position"
  }
},
{
  "type": "node",
  "id": 8371842594,
  "lat": 43.4906525,
  "lon": 5.3561494,
  "tags": {
    "bus": "yes",
    "highway": "bus_stop",
    "name": "De Broglie",
    "public_transport": "stop_position"
  }
},
{
  "type": "node",
  "id": 8371842608,
  "lat": 43.4880270,
  "lon": 5.3593272,
  "tags": {
    "bus": "yes",
    "highway": "bus_stop",
    "name": "Foucault",
    "public_transport": "stop_position"
  }
},
{
  "type": "node",
  "id": 8371842625,
  "lat": 43.4849795,
  "lon": 5.3627249,
  "tags": {
    "bus": "yes",
    "highway": "bus_stop",
    "name": "Parc Club du Golf",
    "public_transport": "stop_position"
  }
},
{
  "type": "node",
  "id": 8371842650,
  "lat": 43.4802785,
  "lon": 5.3669822,
  "tags": {
    "bus": "yes",
    "highway": "bus_stop",
    "name": "Pichaury",
    "public_transport": "stop_position"
  }
},
{
  "type": "node",
  "id": 8371842687,
  "lat": 43.4790709,
  "lon": 5.3706783,
  "tags": {
    "bus": "yes",
    "highway": "bus_stop",
    "name": "Les Grottes",
    "public_transport": "stop_position"
  }
},
{
  "type": "node",
  "id": 8371842709,
  "lat": 43.4844302,
  "lon": 5.3820361,
  "tags": {
    "bus": "yes",
    "highway": "bus_stop",
    "name": "Bessemer",
    "public_transport": "stop_position"
  }
},
{
  "type": "node",
  "id": 8371842710,
  "lat": 43.4844166,
  "lon": 5.3822675,
  "tags": {
    "bus": "yes",
    "highway": "bus_stop",
    "name": "Bessemer",
    "public_transport": "stop_position"
  }
},
{
  "type": "node",
  "id": 8371842723,
  "lat": 43.4864731,
  "lon": 5.3795913,
  "tags": {
    "bus": "yes",
    "highway": "bus_stop",
    "name": "Ampère",
    "public_transport": "stop_position"
  }
},
{
  "type": "node",
  "id": 8371842724,
  "lat": 43.4863551,
  "lon": 5.3795182,
  "tags": {
    "bus": "yes",
    "highway": "bus_stop",
    "name": "Ampère",
    "public_transport": "stop_position"
  }
},
{
  "type": "node",
  "id": 8371842725,
  "lat": 43.4887845,
  "lon": 5.3765859,
  "tags": {
    "bus": "yes",
    "highway": "bus_stop",
    "name": "Le Frère",
    "public_transport": "stop_position"
  }
},
{
  "type": "node",
  "id": 8371842734,
  "lat": 43.4910631,
  "lon": 5.3731801,
  "tags": {
    "bus": "yes",
    "highway": "bus_stop",
    "name": "Pôle d'Activités",
    "public_transport": "stop_position"
  }
},
{
  "type": "node",
  "id": 8411842019,
  "lat": 43.5566967,
  "lon": 5.4192571,
  "tags": {
    "bus": "yes",
    "highway": "bus_stop",
    "name": "Celony Ecole",
    "public_transport": "stop_position"
  }
},
{
  "type": "node",
  "id": 8758827683,
  "lat": 43.5140281,
  "lon": 5.4611197,
  "tags": {
    "bus": "yes",
    "highway": "bus_stop",
    "name": "Saint-Benoit",
    "public_transport": "stop_position"
  }
},
{
  "type": "node",
  "id": 8760556973,
  "lat": 43.5141317,
  "lon": 5.4621108,
  "tags": {
    "bus": "yes",
    "highway": "bus_stop",
    "name": "Saint-Benoit",
    "public_transport": "stop_position"
  }
},
{
  "type": "node",
  "id": 8760556974,
  "lat": 43.5135335,
  "lon": 5.4483868,
  "tags": {
    "bus": "yes",
    "highway": "bus_stop",
    "name": "Fenouillères",
    "public_transport": "stop_position"
  }
},
{
  "type": "node",
  "id": 8760556975,
  "lat": 43.5135399,
  "lon": 5.4482358,
  "tags": {
    "bus": "yes",
    "highway": "bus_stop",
    "name": "Fenouillères",
    "public_transport": "stop_position"
  }
},
{
  "type": "node",
  "id": 8843419299,
  "lat": 43.4770215,
  "lon": 5.4284711,
  "tags": {
    "bus": "yes",
    "highway": "bus_stop",
    "name": "Hameau de Turin",
    "public_transport": "stop_position"
  }
},
{
  "type": "node",
  "id": 8843419300,
  "lat": 43.4729923,
  "lon": 5.4098681,
  "tags": {
    "bus": "yes",
    "highway": "bus_stop",
    "name": "Trois Pigeons",
    "public_transport": "stop_position"
  }
},
{
  "type": "node",
  "id": 8843419301,
  "lat": 43.4779005,
  "lon": 5.4143521,
  "tags": {
    "bus": "yes",
    "highway": "bus_stop",
    "name": "Rampellin",
    "public_transport": "stop_position"
  }
},
{
  "type": "node",
  "id": 8843419302,
  "lat": 43.4803117,
  "lon": 5.4150584,
  "tags": {
    "bus": "yes",
    "highway": "bus_stop",
    "name": "Lycée International de Luynes",
    "public_transport": "stop_position"
  }
},
{
  "type": "node",
  "id": 8843419303,
  "lat": 43.4805047,
  "lon": 5.4147387,
  "tags": {
    "bus": "yes",
    "highway": "bus_stop",
    "name": "Lycée International de Luynes",
    "public_transport": "stop_position"
  }
},
{
  "type": "node",
  "id": 8843419308,
  "lat": 43.4938124,
  "lon": 5.3552120,
  "tags": {
    "bus": "yes",
    "highway": "bus_stop",
    "name": "Magellan",
    "public_transport": "stop_position"
  }
},
{
  "type": "node",
  "id": 8843481025,
  "lat": 43.4812186,
  "lon": 5.3876701,
  "tags": {
    "bus": "yes",
    "highway": "bus_stop",
    "name": "Eiffel",
    "public_transport": "stop_position"
  }
},
{
  "type": "node",
  "id": 8843481028,
  "lat": 43.4821907,
  "lon": 5.3852977,
  "tags": {
    "bus": "yes",
    "highway": "bus_stop",
    "name": "Eiffel",
    "public_transport": "stop_position"
  }
},
{
  "type": "node",
  "id": 8843481038,
  "lat": 43.4888744,
  "lon": 5.3411418,
  "tags": {
    "bus": "yes",
    "highway": "bus_stop",
    "name": "Galilée",
    "public_transport": "stop_position"
  }
},
{
  "type": "node",
  "id": 8843481039,
  "lat": 43.5042952,
  "lon": 5.3948490,
  "tags": {
    "bus": "yes",
    "crossing_ref": "zebra",
    "highway": "bus_stop",
    "name": "Centre Commercial des Milles",
    "public_transport": "stop_position",
    "source": "BDortho IGN 2021"
  }
},
{
  "type": "node",
  "id": 8843481041,
  "lat": 43.4911477,
  "lon": 5.3403957,
  "tags": {
    "bus": "yes",
    "highway": "bus_stop",
    "name": "Pléiades",
    "public_transport": "stop_position"
  }
},
{
  "type": "node",
  "id": 8843481044,
  "lat": 43.4849335,
  "lon": 5.3428966,
  "tags": {
    "bus": "yes",
    "highway": "bus_stop",
    "name": "Bull",
    "public_transport": "stop_position"
  }
},
{
  "type": "node",
  "id": 8843481046,
  "lat": 43.4865627,
  "lon": 5.3446299,
  "tags": {
    "bus": "yes",
    "highway": "bus_stop",
    "name": "Duranne École",
    "public_transport": "stop_position"
  }
},
{
  "type": "node",
  "id": 8843481061,
  "lat": 43.4931214,
  "lon": 5.3693050,
  "tags": {
    "bus": "yes",
    "highway": "bus_stop",
    "name": "Zone Artisanale",
    "public_transport": "stop_position"
  }
},
{
  "type": "node",
  "id": 8843481067,
  "lat": 43.4933150,
  "lon": 5.3691213,
  "tags": {
    "bus": "yes",
    "highway": "bus_stop",
    "name": "Zone Artisanale",
    "public_transport": "stop_position"
  }
},
{
  "type": "node",
  "id": 8843481070,
  "lat": 43.4789921,
  "lon": 5.3944828,
  "tags": {
    "bus": "yes",
    "highway": "bus_stop",
    "name": "Maison Arrêt D59",
    "public_transport": "stop_position"
  }
},
{
  "type": "node",
  "id": 8843481071,
  "lat": 43.4814044,
  "lon": 5.3952876,
  "tags": {
    "bus": "yes",
    "highway": "bus_stop",
    "name": "Maison d'Arrêt",
    "public_transport": "stop_position"
  }
},
{
  "type": "node",
  "id": 8843481075,
  "lat": 43.4817450,
  "lon": 5.3955786,
  "tags": {
    "bus": "yes",
    "highway": "bus_stop",
    "name": "Maison d'Arrêt",
    "public_transport": "stop_position"
  }
},
{
  "type": "node",
  "id": 8843481086,
  "lat": 43.5199900,
  "lon": 5.4346407,
  "tags": {
    "bus": "yes",
    "highway": "bus_stop",
    "name": "Mouret",
    "public_transport": "stop_position"
  }
},
{
  "type": "node",
  "id": 8843481087,
  "lat": 43.4790349,
  "lon": 5.3946345,
  "tags": {
    "bus": "yes",
    "highway": "bus_stop",
    "name": "Maison Arrêt D59",
    "public_transport": "stop_position"
  }
},
{
  "type": "node",
  "id": 8846916223,
  "lat": 43.5154274,
  "lon": 5.4685720,
  "tags": {
    "bus": "yes",
    "highway": "bus_stop",
    "name": "Malacrida",
    "public_transport": "stop_position"
  }
},
{
  "type": "node",
  "id": 8846916224,
  "lat": 43.5159893,
  "lon": 5.4666370,
  "tags": {
    "bus": "yes",
    "highway": "bus_stop",
    "name": "Mauriat",
    "public_transport": "stop_position"
  }
},
{
  "type": "node",
  "id": 8846916225,
  "lat": 43.5203150,
  "lon": 5.4556453,
  "tags": {
    "bus": "yes",
    "highway": "bus_stop",
    "name": "Bourget",
    "public_transport": "stop_position"
  }
},
{
  "type": "node",
  "id": 8846916226,
  "lat": 43.5221160,
  "lon": 5.4519680,
  "tags": {
    "bus": "yes",
    "highway": "bus_stop",
    "name": "Robert",
    "public_transport": "stop_position"
  }
},
{
  "type": "node",
  "id": 8846916227,
  "lat": 43.5238907,
  "lon": 5.4470716,
  "tags": {
    "bus": "yes",
    "highway": "bus_stop",
    "name": "Malherbe",
    "public_transport": "stop_position"
  }
},
{
  "type": "node",
  "id": 8846916228,
  "lat": 43.5256488,
  "lon": 5.4448843,
  "tags": {
    "bus": "yes",
    "highway": "bus_stop",
    "name": "Rotonde",
    "public_transport": "stop_position"
  }
},
{
  "type": "node",
  "id": 8846916229,
  "lat": 43.5236612,
  "lon": 5.4426379,
  "tags": {
    "bus": "yes",
    "highway": "bus_stop",
    "name": "Gare Routière Belges",
    "public_transport": "stop_position"
  }
},
{
  "type": "node",
  "id": 8846916230,
  "lat": 43.5229241,
  "lon": 5.4424140,
  "tags": {
    "bus": "yes",
    "highway": "bus_stop",
    "name": "Brossolette",
    "public_transport": "stop_position"
  }
},
{
  "type": "node",
  "id": 8846916233,
  "lat": 43.5189051,
  "lon": 5.4415035,
  "tags": {
    "bus": "yes",
    "highway": "bus_stop",
    "name": "Roumanille",
    "public_transport": "stop_position"
  }
},
{
  "type": "node",
  "id": 8846916234,
  "lat": 43.5171106,
  "lon": 5.4354161,
  "tags": {
    "bus": "yes",
    "highway": "bus_stop",
    "name": "Clos Bernadette",
    "public_transport": "stop_position"
  }
},
{
  "type": "node",
  "id": 8846916235,
  "lat": 43.5155662,
  "lon": 5.4348099,
  "tags": {
    "bus": "yes",
    "highway": "bus_stop",
    "name": "Pont de la Figuiere",
    "public_transport": "stop_position"
  }
},
{
  "type": "node",
  "id": 8846916236,
  "lat": 43.5080528,
  "lon": 5.4238558,
  "tags": {
    "bus": "yes",
    "highway": "bus_stop",
    "name": "La Parade",
    "public_transport": "stop_position"
  }
},
{
  "type": "node",
  "id": 8846916237,
  "lat": 43.5086889,
  "lon": 5.3895329,
  "tags": {
    "bus": "yes",
    "highway": "bus_stop",
    "name": "Saint-Joseph",
    "public_transport": "stop_position"
  }
},
{
  "type": "node",
  "id": 8846916238,
  "lat": 43.5047009,
  "lon": 5.3870706,
  "tags": {
    "bus": "yes",
    "highway": "bus_stop",
    "name": "Gazel",
    "public_transport": "stop_position"
  }
},
{
  "type": "node",
  "id": 8846916239,
  "lat": 43.5032878,
  "lon": 5.3836171,
  "tags": {
    "bus": "yes",
    "highway": "bus_stop",
    "name": "Gare des Milles",
    "public_transport": "stop_position"
  }
},
{
  "type": "node",
  "id": 8846916240,
  "lat": 43.5014003,
  "lon": 5.3812140,
  "tags": {
    "bus": "yes",
    "highway": "bus_stop",
    "name": "Requier",
    "public_transport": "stop_position"
  }
},
{
  "type": "node",
  "id": 8846916255,
  "lat": 43.5180510,
  "lon": 5.4589713,
  "tags": {
    "bus": "yes",
    "highway": "bus_stop",
    "name": "Les Cigales",
    "public_transport": "stop_position"
  }
},
{
  "type": "node",
  "id": 8846916257,
  "lat": 43.5177100,
  "lon": 5.4390245,
  "tags": {
    "bus": "yes",
    "highway": "bus_stop",
    "name": "Le Pigonnet",
    "public_transport": "stop_position"
  }
},
{
  "type": "node",
  "id": 8849027617,
  "lat": 43.5182650,
  "lon": 5.4586950,
  "tags": {
    "bus": "yes",
    "highway": "bus_stop",
    "name": "Les Cigales",
    "public_transport": "stop_position"
  }
},
{
  "type": "node",
  "id": 8849027620,
  "lat": 43.5158230,
  "lon": 5.4663916,
  "tags": {
    "bus": "yes",
    "highway": "bus_stop",
    "name": "Mauriat",
    "public_transport": "stop_position"
  }
},
{
  "type": "node",
  "id": 8849027719,
  "lat": 43.5033001,
  "lon": 5.3857027,
  "tags": {
    "bus": "yes",
    "highway": "bus_stop",
    "name": "Mairie Annexe des Milles",
    "public_transport": "stop_position"
  }
},
{
  "type": "node",
  "id": 8849027720,
  "lat": 43.5068632,
  "lon": 5.4154471,
  "tags": {
    "bus": "yes",
    "highway": "bus_stop",
    "name": "Champ de Foire",
    "public_transport": "stop_position"
  }
},
{
  "type": "node",
  "id": 8849027821,
  "lat": 43.5177486,
  "lon": 5.4596767,
  "tags": {
    "bus": "yes",
    "highway": "bus_stop",
    "name": "Saint-Jérome",
    "public_transport": "stop_position"
  }
},
{
  "type": "node",
  "id": 8849027919,
  "lat": 43.5225536,
  "lon": 5.4476000,
  "tags": {
    "bus": "yes",
    "highway": "bus_stop",
    "name": "Rectorat",
    "public_transport": "stop_position"
  }
},
{
  "type": "node",
  "id": 8849027920,
  "lat": 43.5228798,
  "lon": 5.4457973,
  "tags": {
    "bus": "yes",
    "highway": "bus_stop",
    "name": "Gare SNCF",
    "public_transport": "stop_position"
  }
},
{
  "type": "node",
  "id": 8849028317,
  "lat": 43.5215880,
  "lon": 5.4539287,
  "tags": {
    "bus": "yes",
    "highway": "bus_stop",
    "name": "Oraison",
    "public_transport": "stop_position"
  }
},
{
  "type": "node",
  "id": 8849028417,
  "lat": 43.5153493,
  "lon": 5.4688632,
  "tags": {
    "bus": "yes",
    "highway": "bus_stop",
    "name": "Malacrida",
    "public_transport": "stop_position"
  }
},
{
  "type": "node",
  "id": 8849028418,
  "lat": 43.5142387,
  "lon": 5.4628940,
  "tags": {
    "bus": "yes",
    "highway": "bus_stop",
    "name": "Beausoleil",
    "public_transport": "stop_position"
  }
},
{
  "type": "node",
  "id": 8849028419,
  "lat": 43.5162665,
  "lon": 5.4609776,
  "tags": {
    "bus": "yes",
    "highway": "bus_stop",
    "name": "Cible",
    "public_transport": "stop_position"
  }
},
{
  "type": "node",
  "id": 8849360388,
  "lat": 43.5901013,
  "lon": 5.4319641,
  "tags": {
    "bus": "yes",
    "highway": "bus_stop",
    "name": "Village du Soleil",
    "public_transport": "stop_position"
  }
},
{
  "type": "node",
  "id": 8849360389,
  "lat": 43.5874572,
  "lon": 5.4312533,
  "tags": {
    "bus": "yes",
    "highway": "bus_stop",
    "name": "Quille",
    "public_transport": "stop_position"
  }
},
{
  "type": "node",
  "id": 8849360390,
  "lat": 43.5874368,
  "lon": 5.4314880,
  "tags": {
    "bus": "yes",
    "highway": "bus_stop",
    "name": "Quille",
    "public_transport": "stop_position"
  }
},
{
  "type": "node",
  "id": 8849360391,
  "lat": 43.5867411,
  "lon": 5.4214874,
  "tags": {
    "bus": "yes",
    "highway": "bus_stop",
    "name": "Les Camus",
    "public_transport": "stop_position"
  }
},
{
  "type": "node",
  "id": 8849360392,
  "lat": 43.5834627,
  "lon": 5.4220520,
  "tags": {
    "bus": "yes",
    "highway": "bus_stop",
    "name": "Maurel",
    "public_transport": "stop_position"
  }
},
{
  "type": "node",
  "id": 8849360394,
  "lat": 43.5801198,
  "lon": 5.4168418,
  "tags": {
    "bus": "yes",
    "highway": "bus_stop",
    "name": "Erables",
    "public_transport": "stop_position"
  }
},
{
  "type": "node",
  "id": 8849360395,
  "lat": 43.5801159,
  "lon": 5.4171650,
  "tags": {
    "bus": "yes",
    "highway": "bus_stop",
    "name": "Erables",
    "public_transport": "stop_position"
  }
},
{
  "type": "node",
  "id": 8849360396,
  "lat": 43.5801655,
  "lon": 5.4136835,
  "tags": {
    "bus": "yes",
    "highway": "bus_stop",
    "name": "Palatines",
    "public_transport": "stop_position"
  }
},
{
  "type": "node",
  "id": 8849360397,
  "lat": 43.5811195,
  "lon": 5.4114358,
  "tags": {
    "bus": "yes",
    "highway": "bus_stop",
    "name": "Abbé Roustan",
    "public_transport": "stop_position"
  }
},
{
  "type": "node",
  "id": 8849360398,
  "lat": 43.5819666,
  "lon": 5.4112762,
  "tags": {
    "bus": "yes",
    "highway": "bus_stop",
    "name": "Grand Domaine",
    "public_transport": "stop_position"
  }
},
{
  "type": "node",
  "id": 8849360399,
  "lat": 43.5814469,
  "lon": 5.4098171,
  "tags": {
    "bus": "yes",
    "highway": "bus_stop",
    "name": "Tourterelles",
    "public_transport": "stop_position"
  }
},
{
  "type": "node",
  "id": 8849360400,
  "lat": 43.5776900,
  "lon": 5.4100826,
  "tags": {
    "bus": "yes",
    "highway": "bus_stop",
    "name": "Guienne",
    "public_transport": "stop_position"
  }
},
{
  "type": "node",
  "id": 8849360401,
  "lat": 43.5747860,
  "lon": 5.4220507,
  "tags": {
    "bus": "yes",
    "highway": "bus_stop",
    "name": "Glacière",
    "public_transport": "stop_position"
  }
},
{
  "type": "node",
  "id": 8849360403,
  "lat": 43.5732372,
  "lon": 5.4232013,
  "tags": {
    "bus": "yes",
    "highway": "bus_stop",
    "name": "Etoile",
    "public_transport": "stop_position"
  }
},
{
  "type": "node",
  "id": 8849360404,
  "lat": 43.5709879,
  "lon": 5.4243198,
  "tags": {
    "bus": "yes",
    "highway": "bus_stop",
    "name": "Belveyre",
    "public_transport": "stop_position"
  }
},
{
  "type": "node",
  "id": 8849360405,
  "lat": 43.5661061,
  "lon": 5.4274915,
  "tags": {
    "bus": "yes",
    "highway": "bus_stop",
    "name": "Rosaki",
    "public_transport": "stop_position"
  }
},
{
  "type": "node",
  "id": 8849360407,
  "lat": 43.5574725,
  "lon": 5.4342480,
  "tags": {
    "bus": "yes",
    "highway": "bus_stop",
    "name": "Eperon",
    "public_transport": "stop_position"
  }
},
{
  "type": "node",
  "id": 8849360408,
  "lat": 43.5551701,
  "lon": 5.4340522,
  "tags": {
    "bus": "yes",
    "highway": "bus_stop",
    "name": "Puy du Roy",
    "public_transport": "stop_position"
  }
},
{
  "type": "node",
  "id": 8849360409,
  "lat": 43.5525556,
  "lon": 5.4358748,
  "tags": {
    "bus": "yes",
    "highway": "bus_stop",
    "name": "Entremont",
    "public_transport": "stop_position"
  }
},
{
  "type": "node",
  "id": 8849360410,
  "lat": 43.5504756,
  "lon": 5.4385744,
  "tags": {
    "bus": "yes",
    "fixme": "Please add name.",
    "highway": "bus_stop",
    "public_transport": "stop_position"
  }
},
{
  "type": "node",
  "id": 8849360411,
  "lat": 43.5426953,
  "lon": 5.4409964,
  "tags": {
    "bus": "yes",
    "highway": "bus_stop",
    "name": "Murier Blanc",
    "public_transport": "stop_position"
  }
},
{
  "type": "node",
  "id": 8849360412,
  "lat": 43.5412497,
  "lon": 5.4418252,
  "tags": {
    "bus": "yes",
    "highway": "bus_stop",
    "name": "Bellevue",
    "public_transport": "stop_position"
  }
},
{
  "type": "node",
  "id": 8849360413,
  "lat": 43.5349207,
  "lon": 5.4453851,
  "tags": {
    "bus": "yes",
    "highway": "bus_stop",
    "name": "Solari",
    "public_transport": "stop_position"
  }
},
{
  "type": "node",
  "id": 8849360414,
  "lat": 43.5337818,
  "lon": 5.4454472,
  "tags": {
    "bus": "yes",
    "highway": "bus_stop",
    "name": "Nations",
    "public_transport": "stop_position"
  }
},
{
  "type": "node",
  "id": 8849360415,
  "lat": 43.5288712,
  "lon": 5.4396500,
  "tags": {
    "bus": "yes",
    "highway": "bus_stop",
    "name": "République",
    "public_transport": "stop_position"
  }
},
{
  "type": "node",
  "id": 8849360416,
  "lat": 43.5275320,
  "lon": 5.4426245,
  "tags": {
    "bus": "yes",
    "highway": "bus_stop",
    "name": "Niolon",
    "public_transport": "stop_position"
  }
},
{
  "type": "node",
  "id": 8849381817,
  "lat": 43.5234687,
  "lon": 5.4383612,
  "tags": {
    "bus": "yes",
    "highway": "bus_stop",
    "name": "Aix-en-Provence - Gare Routière",
    "public_transport": "stop_position"
  }
},
{
  "type": "node",
  "id": 8849381818,
  "lat": 43.4868008,
  "lon": 5.4221765,
  "tags": {
    "bus": "yes",
    "highway": "bus_stop",
    "name": "Chapuis",
    "public_transport": "stop_position"
  }
},
{
  "type": "node",
  "id": 8849381819,
  "lat": 43.4869145,
  "lon": 5.4221787,
  "tags": {
    "bus": "yes",
    "highway": "bus_stop",
    "name": "Chapuis",
    "public_transport": "stop_position"
  }
},
{
  "type": "node",
  "id": 8849381822,
  "lat": 43.4879282,
  "lon": 5.4208063,
  "tags": {
    "bus": "yes",
    "highway": "bus_stop",
    "name": "De Green",
    "public_transport": "stop_position"
  }
},
{
  "type": "node",
  "id": 8849381823,
  "lat": 43.4882284,
  "lon": 5.4183720,
  "tags": {
    "bus": "yes",
    "highway": "bus_stop",
    "name": "Commanderie",
    "public_transport": "stop_position"
  }
},
{
  "type": "node",
  "id": 8849381825,
  "lat": 43.4894281,
  "lon": 5.4160532,
  "tags": {
    "bus": "yes",
    "highway": "bus_stop",
    "name": "Mavel",
    "public_transport": "stop_position"
  }
},
{
  "type": "node",
  "id": 8849381826,
  "lat": 43.4878519,
  "lon": 5.4124323,
  "tags": {
    "bus": "yes",
    "highway": "bus_stop",
    "name": "Roseaux",
    "public_transport": "stop_position"
  }
},
{
  "type": "node",
  "id": 8849381827,
  "lat": 43.4864857,
  "lon": 5.4131806,
  "tags": {
    "bus": "yes",
    "highway": "bus_stop",
    "name": "Chamson",
    "public_transport": "stop_position"
  }
},
{
  "type": "node",
  "id": 8858802530,
  "lat": 43.5279669,
  "lon": 5.4416509,
  "tags": {
    "bus": "yes",
    "highway": "bus_stop",
    "name": "Niolon",
    "public_transport": "stop_position"
  }
},
{
  "type": "node",
  "id": 8858802531,
  "lat": 43.5286806,
  "lon": 5.4400791,
  "tags": {
    "bus": "yes",
    "highway": "bus_stop",
    "name": "République",
    "public_transport": "stop_position"
  }
},
{
  "type": "node",
  "id": 8858802532,
  "lat": 43.5342733,
  "lon": 5.4456219,
  "tags": {
    "bus": "yes",
    "highway": "bus_stop",
    "name": "Solari",
    "public_transport": "stop_position"
  }
},
{
  "type": "node",
  "id": 8858802533,
  "lat": 43.5360846,
  "lon": 5.4448615,
  "tags": {
    "bus": "yes",
    "highway": "bus_stop",
    "name": "Paquerettes",
    "public_transport": "stop_position"
  }
},
{
  "type": "node",
  "id": 8858802534,
  "lat": 43.5414704,
  "lon": 5.4417166,
  "tags": {
    "bus": "yes",
    "highway": "bus_stop",
    "name": "Bellevue",
    "public_transport": "stop_position"
  }
},
{
  "type": "node",
  "id": 8858802535,
  "lat": 43.5454949,
  "lon": 5.4408221,
  "tags": {
    "bus": "yes",
    "fixme": "Please add name.",
    "highway": "bus_stop",
    "public_transport": "stop_position"
  }
},
{
  "type": "node",
  "id": 8858802536,
  "lat": 43.5503308,
  "lon": 5.4386884,
  "tags": {
    "bus": "yes",
    "fixme": "Please add name.",
    "highway": "bus_stop",
    "public_transport": "stop_position"
  }
},
{
  "type": "node",
  "id": 8858802537,
  "lat": 43.5546278,
  "lon": 5.4340093,
  "tags": {
    "bus": "yes",
    "highway": "bus_stop",
    "name": "Puy du Roy",
    "public_transport": "stop_position"
  }
},
{
  "type": "node",
  "id": 8858802538,
  "lat": 43.5659632,
  "lon": 5.4275948,
  "tags": {
    "bus": "yes",
    "highway": "bus_stop",
    "name": "Rosaki",
    "public_transport": "stop_position"
  }
},
{
  "type": "node",
  "id": 8858802540,
  "lat": 43.5741457,
  "lon": 5.4225214,
  "tags": {
    "bus": "yes",
    "highway": "bus_stop",
    "name": "Etoile",
    "public_transport": "stop_position"
  }
},
{
  "type": "node",
  "id": 8858802541,
  "lat": 43.5780786,
  "lon": 5.4099029,
  "tags": {
    "bus": "yes",
    "highway": "bus_stop",
    "name": "Guienne",
    "public_transport": "stop_position"
  }
},
{
  "type": "node",
  "id": 8858802542,
  "lat": 43.5807163,
  "lon": 5.4215839,
  "tags": {
    "bus": "yes",
    "highway": "bus_stop",
    "name": "Puyricard - Salle des Fêtes",
    "public_transport": "stop_position"
  }
},
{
  "type": "node",
  "id": 8858802543,
  "lat": 43.5821153,
  "lon": 5.4220614,
  "tags": {
    "bus": "yes",
    "highway": "bus_stop",
    "name": "Mairie Puyricard",
    "public_transport": "stop_position"
  }
},
{
  "type": "node",
  "id": 8858802544,
  "lat": 43.5864397,
  "lon": 5.4215079,
  "tags": {
    "bus": "yes",
    "highway": "bus_stop",
    "name": "Les Camus",
    "public_transport": "stop_position"
  }
},
{
  "type": "node",
  "id": 8861563886,
  "lat": 43.4772696,
  "lon": 5.4142155,
  "tags": {
    "bus": "yes",
    "highway": "bus_stop",
    "name": "Rampellin",
    "public_transport": "stop_position"
  }
},
{
  "type": "node",
  "id": 8861563887,
  "lat": 43.4731745,
  "lon": 5.4102102,
  "tags": {
    "bus": "yes",
    "highway": "bus_stop",
    "name": "Trois Pigeons",
    "public_transport": "stop_position"
  }
},
{
  "type": "node",
  "id": 8861563893,
  "lat": 43.5029695,
  "lon": 5.3734068,
  "tags": {
    "bus": "yes",
    "highway": "bus_stop",
    "name": "Aérodrome",
    "public_transport": "stop_position"
  }
},
{
  "type": "node",
  "id": 8928611838,
  "lat": 43.5145387,
  "lon": 5.4426324,
  "tags": {
    "bus": "yes",
    "highway": "bus_stop",
    "name": "La Beauvalle",
    "public_transport": "stop_position"
  }
},
{
  "type": "node",
  "id": 8928611857,
  "lat": 43.5592853,
  "lon": 5.4613700,
  "tags": {
    "bus": "yes",
    "highway": "bus_stop",
    "name": "La Petite Mignarde",
    "public_transport": "stop_position"
  }
},
{
  "type": "node",
  "id": 8928611862,
  "lat": 43.5595958,
  "lon": 5.4615251,
  "tags": {
    "bus": "yes",
    "highway": "bus_stop",
    "name": "La Petite Mignarde",
    "public_transport": "stop_position"
  }
},
{
  "type": "node",
  "id": 8928611881,
  "lat": 43.5669834,
  "lon": 5.4653300,
  "tags": {
    "bus": "yes",
    "highway": "bus_stop",
    "name": "La Petite Mignarde",
    "public_transport": "stop_position"
  }
},
{
  "type": "node",
  "id": 8928611884,
  "lat": 43.5698993,
  "lon": 5.4673597,
  "tags": {
    "bus": "yes",
    "highway": "bus_stop",
    "name": "Mas d'Aubère",
    "public_transport": "stop_position"
  }
},
{
  "type": "node",
  "id": 8928611899,
  "lat": 43.5712437,
  "lon": 5.4687317,
  "tags": {
    "bus": "yes",
    "highway": "bus_stop",
    "name": "Mas d'Aubère",
    "public_transport": "stop_position"
  }
},
{
  "type": "node",
  "id": 9032327757,
  "lat": 43.5147583,
  "lon": 5.3815292,
  "tags": {
    "bench": "yes",
    "bus": "yes",
    "highway": "bus_stop",
    "name": "Tuilière",
    "public_transport": "platform",
    "shelter": "yes",
    "wheelchair": "yes"
  }
},
{
  "type": "node",
  "id": 9032327758,
  "lat": 43.5147978,
  "lon": 5.3816702,
  "tags": {
    "bench": "yes",
    "bus": "yes",
    "highway": "bus_stop",
    "name": "Tuilière",
    "public_transport": "platform",
    "shelter": "yes",
    "wheelchair": "yes"
  }
},
{
  "type": "node",
  "id": 9032327760,
  "lat": 43.5227840,
  "lon": 5.3762638,
  "tags": {
    "bench": "yes",
    "bus": "yes",
    "highway": "bus_stop",
    "name": "Loqui",
    "public_transport": "platform",
    "shelter": "yes",
    "wheelchair": "yes"
  }
},
{
  "type": "node",
  "id": 9032327761,
  "lat": 43.5223868,
  "lon": 5.3761930,
  "tags": {
    "bench": "yes",
    "bus": "yes",
    "highway": "bus_stop",
    "name": "Loqui",
    "public_transport": "platform",
    "shelter": "yes",
    "wheelchair": "yes"
  }
},
{
  "type": "node",
  "id": 9088554937,
  "lat": 43.5132871,
  "lon": 5.4530955,
  "tags": {
    "bus": "yes",
    "highway": "bus_stop",
    "name": "Coton Rouge",
    "public_transport": "stop_position"
  }
},
{
  "type": "node",
  "id": 9088554938,
  "lat": 43.5137487,
  "lon": 5.4588099,
  "tags": {
    "bus": "yes",
    "highway": "bus_stop",
    "name": "Bel Ormeau",
    "public_transport": "stop_position"
  }
},
{
  "type": "node",
  "id": 9088554939,
  "lat": 43.5136863,
  "lon": 5.4579806,
  "tags": {
    "bus": "yes",
    "highway": "bus_stop",
    "name": "Bel Ormeau",
    "public_transport": "stop_position"
  }
},
{
  "type": "node",
  "id": 9091724918,
  "lat": 43.5858350,
  "lon": 5.3700643,
  "tags": {
    "bus": "yes",
    "highway": "bus_stop",
    "name": "C4",
    "public_transport": "stop_position"
  }
},
{
  "type": "node",
  "id": 9091724919,
  "lat": 43.5857469,
  "lon": 5.3692117,
  "tags": {
    "bus": "yes",
    "highway": "bus_stop",
    "name": "Lignane",
    "public_transport": "stop_position"
  }
},
{
  "type": "node",
  "id": 9091724922,
  "lat": 43.5813842,
  "lon": 5.3773839,
  "tags": {
    "bus": "yes",
    "highway": "bus_stop",
    "name": "Calisson",
    "public_transport": "stop_position"
  }
},
{
  "type": "node",
  "id": 9091724923,
  "lat": 43.5797893,
  "lon": 5.3800262,
  "tags": {
    "bus": "yes",
    "highway": "bus_stop",
    "name": "Calisson",
    "public_transport": "stop_position"
  }
},
{
  "type": "node",
  "id": 9091724924,
  "lat": 43.5783836,
  "lon": 5.3823798,
  "tags": {
    "bus": "yes",
    "highway": "bus_stop",
    "name": "C2",
    "public_transport": "stop_position"
  }
},
{
  "type": "node",
  "id": 9091724925,
  "lat": 43.5783135,
  "lon": 5.3824451,
  "tags": {
    "bus": "yes",
    "highway": "bus_stop",
    "name": "C2",
    "public_transport": "stop_position"
  }
},
{
  "type": "node",
  "id": 9091724928,
  "lat": 43.5723357,
  "lon": 5.3910854,
  "tags": {
    "bench": "no",
    "bus": "yes",
    "departures_board": "timetable",
    "highway": "bus_stop",
    "name": "Château Calade",
    "public_transport": "platform",
    "shelter": "no"
  }
},
{
  "type": "node",
  "id": 9091724929,
  "lat": 43.5723337,
  "lon": 5.3914336,
  "tags": {
    "bench": "no",
    "bus": "yes",
    "departures_board": "timetable",
    "highway": "bus_stop",
    "name": "Château Calade",
    "public_transport": "platform",
    "shelter": "no"
  }
},
{
  "type": "node",
  "id": 9091724930,
  "lat": 43.5646639,
  "lon": 5.4050242,
  "tags": {
    "bus": "yes",
    "highway": "bus_stop",
    "name": "B20",
    "public_transport": "stop_position"
  }
},
{
  "type": "node",
  "id": 9091724931,
  "lat": 43.5648299,
  "lon": 5.4047461,
  "tags": {
    "bus": "yes",
    "highway": "bus_stop",
    "name": "B20",
    "public_transport": "stop_position"
  }
},
{
  "type": "node",
  "id": 9091724932,
  "lat": 43.5581372,
  "lon": 5.4158051,
  "tags": {
    "bus": "yes",
    "highway": "bus_stop",
    "name": "B21",
    "public_transport": "stop_position"
  }
},
{
  "type": "node",
  "id": 9091724933,
  "lat": 43.5564929,
  "lon": 5.4184513,
  "tags": {
    "bus": "yes",
    "highway": "bus_stop",
    "name": "Célony",
    "public_transport": "stop_position"
  }
},
{
  "type": "node",
  "id": 9091724934,
  "lat": 43.5565222,
  "lon": 5.4185000,
  "tags": {
    "bus": "yes",
    "highway": "bus_stop",
    "name": "Célony",
    "public_transport": "stop_position"
  }
},
{
  "type": "node",
  "id": 9091724935,
  "lat": 43.5528020,
  "lon": 5.4235407,
  "tags": {
    "bus": "yes",
    "highway": "bus_stop",
    "name": "Rapine",
    "public_transport": "stop_position"
  }
},
{
  "type": "node",
  "id": 9091724936,
  "lat": 43.5492521,
  "lon": 5.4272690,
  "tags": {
    "bus": "yes",
    "highway": "bus_stop",
    "name": "Huilerie",
    "public_transport": "stop_position"
  }
},
{
  "type": "node",
  "id": 9091724937,
  "lat": 43.5298812,
  "lon": 5.4205535,
  "tags": {
    "bus": "yes",
    "highway": "bus_stop",
    "name": "Horloge",
    "public_transport": "stop_position"
  }
},