{
  "version": 0.6,
  "generator": "Overpass API 0.7.57.1 74a55df1",
  "osm3s": {
    "timestamp_osm_base": "2022-02-13T13:18:30Z",
    "timestamp_areas_base": "2022-02-13T02:36:10Z",
    "copyright": "The data included in this document is from www.openstreetmap.org. The data is made available under ODbL."
  },
  "elements": [

{
  "type": "node",
  "id": 275347714,
  "lat": 48.8641968,
  "lon": 2.1801815,
  "tags": {
    "STIF:zone": "3",
    "bench": "yes",
    "bin": "yes",
    "bus": "yes",
    "highway": "bus_stop",
    "lit": "yes",
    "name": "Lycée de Rueil",
    "public_transport": "platform",
    "ref:FR:STIF": "8531",
    "ref:FR:STIF:stop_id": "StopPoint:59:4024071",
    "route_ref": "141",
    "shelter": "yes",
    "source:wheelchair": "STIF 2019-01",
    "tactile_paving": "no",
    "wheelchair": "yes"
  }
},
{
  "type": "node",
  "id": 275348082,
  "lat": 48.8618037,
  "lon": 2.1843941,
  "tags": {
    "STIF:zone": "3",
    "bus": "yes",
    "highway": "bus_stop",
    "name": "Otis Mygatt",
    "public_transport": "platform",
    "ref:FR:STIF": "36753",
    "ref:FR:STIF:stop_id": "StopPoint:59:4024012",
    "route_ref": "141",
    "shelter": "no",
    "source:wheelchair": "STIF 2019-01",
    "wheelchair": "yes"
  }
},
{
  "type": "node",
  "id": 275348409,
  "lat": 48.8603649,
  "lon": 2.1779029,
  "tags": {
    "STIF:zone": "3",
    "bench": "yes",
    "bin": "yes",
    "bus": "yes",
    "highway": "bus_stop",
    "lit": "yes",
    "name": "Piscine - Buzenval",
    "public_transport": "platform",
    "ref:FR:STIF": "8379",
    "ref:FR:STIF:stop_id": "StopPoint:59:4025018",
    "route_ref": "467",
    "shelter": "yes",
    "source": "Bing",
    "source:wheelchair": "STIF 2019-01",
    "tactile_paving": "no",
    "wheelchair": "yes"
  }
},
{
  "type": "node",
  "id": 275348570,
  "lat": 48.8622582,
  "lon": 2.1713840,
  "tags": {
    "STIF:zone": "3",
    "bench": "yes",
    "bin": "yes",
    "bus": "yes",
    "highway": "bus_stop",
    "lit": "yes",
    "name": "Saint-Cucufa",
    "public_transport": "platform",
    "ref:FR:STIF": "36756",
    "ref:FR:STIF:stop_id": "StopPoint:59:4025072",
    "route_ref": "141;467",
    "shelter": "yes",
    "source:wheelchair": "STIF 2019-01",
    "tactile_paving": "no",
    "wheelchair": "yes"
  }
},
{
  "type": "node",
  "id": 275348608,
  "lat": 48.8631123,
  "lon": 2.1714722,
  "tags": {
    "STIF:zone": "3",
    "bench": "yes",
    "bin": "yes",
    "bus": "yes",
    "highway": "bus_stop",
    "lit": "yes",
    "name": "Saint-Cucufa",
    "public_transport": "platform",
    "ref:FR:STIF": "36767",
    "ref:FR:STIF:stop_id": "StopPoint:59:4025020",
    "route_ref": "467",
    "shelter": "yes",
    "source:wheelchair": "STIF 2019-01",
    "tactile_paving": "no",
    "wheelchair": "yes"
  }
},
{
  "type": "node",
  "id": 275348785,
  "lat": 48.8602622,
  "lon": 2.1779771,
  "tags": {
    "STIF:zone": "3",
    "bench": "yes",
    "bin": "yes",
    "bus": "yes",
    "highway": "bus_stop",
    "lit": "yes",
    "name": "Piscine - Buzenval",
    "public_transport": "platform",
    "ref:FR:STIF": "25231",
    "ref:FR:STIF:stop_id": "StopPoint:59:4025073",
    "route_ref": "467",
    "shelter": "yes",
    "source": "Bing",
    "source:wheelchair": "STIF 2019-01",
    "tactile_paving": "no",
    "wheelchair": "yes"
  }
},
{
  "type": "node",
  "id": 275348848,
  "lat": 48.8645525,
  "lon": 2.1799498,
  "tags": {
    "STIF:zone": "3",
    "bench": "no",
    "bin": "yes",
    "bus": "yes",
    "highway": "bus_stop",
    "name": "Lycée de Rueil",
    "public_transport": "platform",
    "ref:FR:STIF": "15205",
    "ref:FR:STIF:stop_id": "StopPoint:59:4024013",
    "route_ref": "141",
    "shelter": "no",
    "source:wheelchair": "STIF 2019-01",
    "tactile_paving": "no",
    "wheelchair": "yes"
  }
},
{
  "type": "node",
  "id": 423017390,
  "lat": 48.8691894,
  "lon": 2.1863456,
  "tags": {
    "STIF:zone": "3",
    "bench": "yes",
    "bin": "yes",
    "bus": "yes",
    "highway": "bus_stop",
    "lit": "yes",
    "name": "Place Besche",
    "public_transport": "platform",
    "ref:FR:STIF": "36773",
    "ref:FR:STIF:stop_id": "StopPoint:59:6217371",
    "route_ref": "565;N53;144;467",
    "shelter": "yes",
    "source:wheelchair": "STIF 2019-01",
    "tactile_paving": "no",
    "wheelchair": "yes"
  }
},
{
  "type": "node",
  "id": 423022559,
  "lat": 48.8587234,
  "lon": 2.1907730,
  "tags": {
    "STIF:zone": "3",
    "bench": "yes",
    "bin": "yes",
    "bus": "yes",
    "highway": "bus_stop",
    "lit": "yes",
    "name": "Henri Regnault",
    "public_transport": "platform",
    "ref:FR:STIF": "36766;35999",
    "ref:FR:STIF:stop_id": "StopPoint:59:4532998;StopPoint:59:4025014",
    "route_ref": "459;565;467",
    "shelter": "yes",
    "source:wheelchair": "STIF 2019-01",
    "tactile_paving": "no",
    "wheelchair": "yes"
  }
},
{
  "type": "node",
  "id": 423024029,
  "lat": 48.8572259,
  "lon": 2.1897742,
  "tags": {
    "STIF:zone": "3",
    "bench": "yes",
    "bus": "yes",
    "highway": "bus_stop",
    "name": "Henri Regnault",
    "public_transport": "platform",
    "ref:FR:STIF": "36884",
    "ref:FR:STIF:stop_id": "StopPoint:59:4025076",
    "route_ref": "467",
    "shelter": "yes",
    "source": "Bing",
    "source:wheelchair": "STIF 2019-01",
    "wheelchair": "yes"
  }
},
{
  "type": "node",
  "id": 423026847,
  "lat": 48.8618142,
  "lon": 2.1846983,
  "tags": {
    "STIF:zone": "3",
    "bus": "yes",
    "highway": "bus_stop",
    "name": "Otis Mygatt",
    "public_transport": "platform",
    "ref:FR:STIF": "28775",
    "ref:FR:STIF:stop_id": "StopPoint:59:4024068",
    "route_ref": "141",
    "source:wheelchair": "STIF 2019-01",
    "wheelchair": "yes"
  }
},
{
  "type": "node",
  "id": 441597479,
  "lat": 48.8649591,
  "lon": 2.2058018,
  "tags": {
    "STIF:zone": "3",
    "bench": "yes",
    "bus": "yes",
    "highway": "bus_stop",
    "name": "Place de la Paix",
    "public_transport": "platform",
    "ref:FR:STIF": "28531",
    "ref:FR:STIF:stop_id": "StopPoint:59:4024224",
    "route_ref": "AS;144;241;N53;244",
    "shelter": "yes",
    "source:wheelchair": "STIF 2019-01",
    "tactile_paving": "no",
    "wheelchair": "yes"
  }
},
{
  "type": "node",
  "id": 631350781,
  "lat": 48.8930758,
  "lon": 2.1718362,
  "tags": {
    "STIF:zone": "3",
    "bench": "yes",
    "bus": "yes",
    "highway": "bus_stop",
    "name": "Sainte-Claire Deville",
    "public_transport": "platform",
    "ref:FR:STIF": "23881",
    "ref:FR:STIF:stop_id": "StopPoint:59:4024947",
    "route_ref": "367",
    "shelter": "yes",
    "source:wheelchair": "STIF 2018-07",
    "wheelchair": "yes"
  }
},
{
  "type": "node",
  "id": 631350782,
  "lat": 48.8931193,
  "lon": 2.1714755,
  "tags": {
    "STIF:zone": "3",
    "bench": "yes",
    "bus": "yes",
    "highway": "bus_stop",
    "name": "Sainte-Claire Deville",
    "public_transport": "platform",
    "ref:FR:STIF": "23882",
    "ref:FR:STIF:stop_id": "StopPoint:59:4024948",
    "route_ref": "367",
    "shelter": "yes",
    "source:wheelchair": "STIF 2018-07",
    "wheelchair": "yes"
  }
},
{
  "type": "node",
  "id": 663127109,
  "lat": 48.8876310,
  "lon": 2.1692454,
  "tags": {
    "STIF:zone": "3",
    "bench": "yes",
    "bus": "yes",
    "highway": "bus_stop",
    "name": "Édouard Belin",
    "public_transport": "platform",
    "ref:FR:STIF": "413324",
    "ref:FR:STIF:stop_id": "StopPoint:59:4024951",
    "route_ref": "367",
    "shelter": "yes",
    "source:wheelchair": "STIF 2018-07",
    "wheelchair": "yes",
    "wikidata": "Q56869142"
  }
},
{
  "type": "node",
  "id": 663127111,
  "lat": 48.8908967,
  "lon": 2.1681361,
  "tags": {
    "STIF:zone": "3",
    "bench": "yes",
    "bus": "yes",
    "highway": "bus_stop",
    "name": "Claude Monet",
    "public_transport": "platform",
    "ref:FR:STIF": "36881",
    "ref:FR:STIF:stop_id": "StopPoint:59:4024971",
    "route_ref": "367",
    "shelter": "yes",
    "source:wheelchair": "STIF 2018-07",
    "wheelchair": "yes"
  }
},
{
  "type": "node",
  "id": 663127113,
  "lat": 48.8906221,
  "lon": 2.1676786,
  "tags": {
    "STIF:zone": "3",
    "bench": "yes",
    "bus": "yes",
    "highway": "bus_stop",
    "name": "Claude Monet",
    "public_transport": "platform",
    "ref:FR:STIF": "10433",
    "ref:FR:STIF:stop_id": "StopPoint:59:4024949",
    "route_ref": "367",
    "shelter": "yes",
    "source:wheelchair": "STIF 2018-07",
    "wheelchair": "yes"
  }
},
{
  "type": "node",
  "id": 778010132,
  "lat": 48.8660044,
  "lon": 2.1778333,
  "tags": {
    "STIF:zone": "3",
    "bench": "yes",
    "bus": "yes",
    "highway": "bus_stop",
    "name": "Collège Jules Verne",
    "public_transport": "platform",
    "ref:FR:STIF": "36885",
    "ref:FR:STIF:stop_id": "StopPoint:59:4025069",
    "route_ref": "467",
    "shelter": "yes",
    "source": "Bing",
    "source:wheelchair": "STIF 2019-01",
    "wheelchair": "yes"
  }
},
{
  "type": "node",
  "id": 778010253,
  "lat": 48.8650234,
  "lon": 2.1789134,
  "tags": {
    "STIF:zone": "3",
    "bench": "yes",
    "bin": "yes",
    "bus": "yes",
    "highway": "bus_stop",
    "lit": "yes",
    "name": "Collège Jules Verne",
    "public_transport": "platform",
    "ref:FR:STIF": "24953",
    "ref:FR:STIF:stop_id": "StopPoint:59:4025026",
    "route_ref": "467",
    "shelter": "yes",
    "source": "Bing",
    "source:wheelchair": "STIF 2019-01",
    "tactile_paving": "no",
    "wheelchair": "yes"
  }
},
{
  "type": "node",
  "id": 1088662606,
  "lat": 48.8874786,
  "lon": 2.1704909,
  "tags": {
    "STIF:zone": "3",
    "bench": "yes",
    "bus": "yes",
    "covered": "yes",
    "highway": "bus_stop",
    "name": "Rueil-Malmaison RER",
    "public_transport": "platform",
    "ref:FR:STIF": "24387",
    "ref:FR:STIF:stop_id": "StopPoint:59:4024953",
    "route_ref": "367 Pont de Bezons;367",
    "shelter": "yes",
    "source:wheelchair": "STIF 2018-07",
    "survey:date": "2017-09-25",
    "wheelchair": "yes"
  }
},
{
  "type": "node",
  "id": 1191783297,
  "lat": 48.8727761,
  "lon": 2.1632497,
  "tags": {
    "STIF:zone": "3",
    "bench": "yes",
    "bus": "yes",
    "highway": "bus_stop",
    "name": "École La Malmaison",
    "public_transport": "platform",
    "ref:FR:STIF": "20524",
    "ref:FR:STIF:stop_id": "StopPoint:17:1277",
    "route_ref": "258;27",
    "shelter": "yes",
    "tactile_paving": "yes"
  }
},
{
  "type": "node",
  "id": 1191784265,
  "lat": 48.8782118,
  "lon": 2.1756384,
  "tags": {
    "STIF:zone": "3",
    "bench": "yes",
    "bus": "yes",
    "highway": "bus_stop",
    "name": "Danielle Casanova",
    "public_transport": "platform",
    "ref:FR:STIF": "23807",
    "ref:FR:STIF:stop_id": "StopPoint:17:1274",
    "route_ref": "27;259",
    "shelter": "yes"
  }
},
{
  "type": "node",
  "id": 1191784315,
  "lat": 48.8717041,
  "lon": 2.1611414,
  "tags": {
    "STIF:zone": "3",
    "bench": "yes",
    "bus": "yes",
    "highway": "bus_stop",
    "name": "Le Parc",
    "public_transport": "platform",
    "ref:FR:STIF": "20525",
    "ref:FR:STIF:stop_id": "StopPoint:17:1278",
    "route_ref": "258;27",
    "shelter": "yes",
    "tactile_paving": "yes"
  }
},
{
  "type": "node",
  "id": 1191784386,
  "lat": 48.8804667,
  "lon": 2.1825505,
  "tags": {
    "STIF:zone": "3",
    "bench": "yes",
    "bin": "yes",
    "bus": "yes",
    "highway": "bus_stop",
    "name": "Rueil Ville",
    "network": "RATP",
    "network:wikidata": "Q474674",
    "network:wikipedia": "fr:Réseau de bus RATP",
    "operator:wikidata": "Q643290",
    "operator:wikipedia": "fr:Régie autonome des transports parisiens",
    "public_transport": "platform",
    "ref:FR:STIF": "25987",
    "ref:FR:STIF:stop_id": "StopPoint:59:6195741",
    "route_ref": "258;259;244",
    "shelter": "yes",
    "source:wheelchair": "STIF 2018-07",
    "tactile_paving": "yes",
    "wheelchair": "yes"
  }
},
{
  "type": "node",
  "id": 1191784501,
  "lat": 48.8839401,
  "lon": 2.1915481,
  "tags": {
    "STIF:zone": "3",
    "bench": "yes",
    "bus": "yes",
    "highway": "bus_stop",
    "name": "Boulevard National",
    "public_transport": "platform",
    "ref:FR:STIF": "20474",
    "ref:FR:STIF:stop_id": "StopPoint:59:6195748",
    "route_ref": "258;259;N53",
    "shelter": "yes",
    "source": "survey",
    "source:wheelchair": "STIF 2018-07",
    "tactile_paving": "yes",
    "wheelchair": "yes"
  }
},
{
  "type": "node",
  "id": 1191784646,
  "lat": 48.8694740,
  "lon": 2.1561720,
  "tags": {
    "STIF:zone": "4",
    "bench": "yes",
    "bus": "yes",
    "highway": "bus_stop",
    "name": "La Jonchère",
    "public_transport": "platform",
    "ref:FR:STIF": "23805",
    "ref:FR:STIF:stop_id": "StopPoint:59:6187547",
    "route_ref": "259",
    "shelter": "yes",
    "source:wheelchair": "STIF 2018-07",
    "tactile_paving": "yes",
    "wheelchair": "no"
  }
},
{
  "type": "node",
  "id": 1191784755,
  "lat": 48.8733478,
  "lon": 2.1649736,
  "tags": {
    "STIF:zone": "3",
    "bus": "yes",
    "highway": "bus_stop",
    "name": "École la Malmaison",
    "public_transport": "platform",
    "ref:FR:STIF": "28814",
    "ref:FR:STIF:stop_id": "StopPoint:59:6195730",
    "route_ref": "258;27;259",
    "shelter": "yes",
    "source:wheelchair": "STIF 2018-07",
    "wheelchair": "yes"
  }
},
{
  "type": "node",
  "id": 1191785020,
  "lat": 48.8746871,
  "lon": 2.1677939,
  "tags": {
    "STIF:zone": "3",
    "bus": "yes",
    "highway": "bus_stop",
    "name": "Le Château",
    "public_transport": "platform",
    "ref:FR:STIF": "28813",
    "ref:FR:STIF:stop_id": "StopPoint:59:6187542",
    "route_ref": "27;259",
    "shelter": "yes",
    "source:wheelchair": "STIF 2018-07",
    "wheelchair": "yes"
  }
},
{
  "type": "node",
  "id": 1191785059,
  "lat": 48.8826125,
  "lon": 2.1878947,
  "tags": {
    "STIF:zone": "3",
    "bench": "yes",
    "bus": "yes",
    "highway": "bus_stop",
    "name": "Gabriel Péri",
    "public_transport": "platform",
    "ref:FR:STIF": "2267",
    "ref:FR:STIF:stop_id": "StopPoint:59:6195733",
    "route_ref": "258;259;N53",
    "shelter": "yes",
    "source": "survey",
    "source:wheelchair": "STIF 2018-07",
    "tactile_paving": "yes",
    "wheelchair": "yes"
  }
},
{
  "type": "node",
  "id": 1191785782,
  "lat": 48.8771422,
  "lon": 2.1726948,
  "tags": {
    "STIF:zone": "3",
    "bench": "yes",
    "bus": "yes",
    "highway": "bus_stop",
    "name": "Bois Préau",
    "public_transport": "platform",
    "ref:FR:STIF": "23804",
    "ref:FR:STIF:stop_id": "StopPoint:17:1275",
    "route_ref": "258;27",
    "shelter": "yes"
  }
},
{
  "type": "node",
  "id": 1191785903,
  "lat": 48.8784868,
  "lon": 2.1770666,
  "tags": {
    "STIF:zone": "3",
    "bench": "yes",
    "bus": "yes",
    "highway": "bus_stop",
    "name": "Danielle Casanova",
    "public_transport": "platform",
    "ref:FR:STIF": "34274",
    "ref:FR:STIF:stop_id": "StopPoint:17:1330",
    "route_ref": "27;259",
    "shelter": "yes",
    "survey:date": "2018-04-09",
    "tactile_paving": "yes",
    "wheelchair": "yes"
  }
},
{
  "type": "node",
  "id": 1191785962,
  "lat": 48.8719395,
  "lon": 2.1621185,
  "tags": {
    "STIF:zone": "3",
    "bus": "yes",
    "highway": "bus_stop",
    "name": "Le Parc",
    "public_transport": "platform",
    "ref:FR:STIF": "39379",
    "ref:FR:STIF:stop_id": "StopPoint:59:6187546",
    "route_ref": "258;27;259",
    "shelter": "yes",
    "source:wheelchair": "STIF 2018-07",
    "wheelchair": "yes"
  }
},
{
  "type": "node",
  "id": 1191786598,
  "lat": 48.8772461,
  "lon": 2.1736064,
  "tags": {
    "STIF:zone": "3",
    "bus": "yes",
    "highway": "bus_stop",
    "name": "Bois Préau",
    "public_transport": "platform",
    "ref:FR:STIF": "23808",
    "ref:FR:STIF:stop_id": "StopPoint:59:6195745",
    "route_ref": "258;27;259",
    "source:wheelchair": "STIF 2018-07",
    "wheelchair": "yes"
  }
},
{
  "type": "node",
  "id": 1191787504,
  "lat": 48.8804630,
  "lon": 2.1818575,
  "tags": {
    "STIF:zone": "3",
    "bench": "yes",
    "bin": "yes",
    "bus": "yes",
    "highway": "bus_stop",
    "name": "Rueil-Ville",
    "network": "RATP",
    "network:wikidata": "Q474674",
    "network:wikipedia": "fr:Réseau de bus RATP",
    "operator:wikidata": "Q643290",
    "operator:wikipedia": "fr:Régie autonome des transports parisiens",
    "public_transport": "platform",
    "ref:FR:STIF": "423161",
    "ref:FR:STIF:stop_id": "StopPoint:59:6187535",
    "route_ref": "258;259",
    "shelter": "yes",
    "tactile_paving": "yes"
  }
},
{
  "type": "node",
  "id": 1191787883,
  "lat": 48.8827692,
  "lon": 2.1888784,
  "tags": {
    "STIF:zone": "3",
    "bus": "yes",
    "highway": "bus_stop",
    "name": "Gabriel Péri",
    "public_transport": "platform",
    "ref:FR:STIF": "423689",
    "ref:FR:STIF:stop_id": "StopPoint:59:6195734",
    "route_ref": "258;259;N53",
    "shelter": "yes",
    "source:wheelchair": "STIF 2019-01",
    "tactile_paving": "no",
    "wheelchair": "yes"
  }
},
{
  "type": "node",
  "id": 1191787993,
  "lat": 48.8684587,
  "lon": 2.1494414,
  "tags": {
    "STIF:zone": "4",
    "bench": "yes",
    "bus": "yes",
    "highway": "bus_stop",
    "name": "Maison Rouge",
    "public_transport": "platform",
    "ref:FR:STIF": "423178",
    "ref:FR:STIF:stop_id": "StopPoint:59:6187550",
    "route_ref": "259",
    "shelter": "yes",
    "source:wheelchair": "STIF 2018-07",
    "tactile_paving": "yes",
    "wheelchair": "no",
    "wikidata": "Q56868495"
  }
},
{
  "type": "node",
  "id": 1191788726,
  "lat": 48.8746590,
  "lon": 2.1671371,
  "tags": {
    "STIF:zone": "3",
    "bench": "yes",
    "bus": "yes",
    "highway": "bus_stop",
    "name": "Le Château",
    "public_transport": "platform",
    "ref:FR:STIF": "23806",
    "ref:FR:STIF:stop_id": "StopPoint:17:1276",
    "route_ref": "27;259",
    "shelter": "yes",
    "tactile_paving": "yes"
  }
},
{
  "type": "node",
  "id": 1253162743,
  "lat": 48.8712222,
  "lon": 2.2042079,
  "tags": {
    "STIF:zone": "3",
    "bus": "yes",
    "highway": "bus_stop",
    "name": "Place du 8 Mai 1945",
    "public_transport": "platform",
    "ref:FR:STIF": "24744",
    "ref:FR:STIF:stop_id": "StopPoint:59:4109852",
    "route_ref": "563",
    "shelter": "no",
    "source:wheelchair": "STIF 2018-07",
    "wheelchair": "yes"
  }
},
{
  "type": "node",
  "id": 1253162746,
  "lat": 48.8699114,
  "lon": 2.2097185,
  "tags": {
    "STIF:zone": "3",
    "bench": "no",
    "bin": "no",
    "bus": "yes",
    "highway": "bus_stop",
    "lit": "no",
    "name": "Buffon",
    "public_transport": "platform",
    "ref:FR:STIF": "24742",
    "ref:FR:STIF:stop_id": "StopPoint:59:4109854",
    "route_ref": "563",
    "shelter": "no",
    "source:wheelchair": "STIF 2018-07",
    "tactile_paving": "no",
    "wheelchair": "yes"
  }
},
{
  "type": "node",
  "id": 1253162749,
  "lat": 48.8699642,
  "lon": 2.2088200,
  "tags": {
    "STIF:zone": "3",
    "bench": "no",
    "bin": "no",
    "bus": "yes",
    "highway": "bus_stop",
    "lit": "no",
    "name": "Buffon",
    "public_transport": "platform",
    "ref:FR:STIF": "24741",
    "ref:FR:STIF:stop_id": "StopPoint:59:4109855",
    "route_ref": "563",
    "shelter": "no",
    "source:wheelchair": "STIF 2018-07",
    "tactile_paving": "no",
    "wheelchair": "yes"
  }
},
{
  "type": "node",
  "id": 1361276924,
  "lat": 48.8691531,
  "lon": 2.1979834,
  "tags": {
    "STIF:zone": "3",
    "bench": "yes",
    "bin": "yes",
    "bus": "yes",
    "highway": "bus_stop",
    "lit": "yes",
    "name": "Racine",
    "public_transport": "platform",
    "ref:FR:STIF": "7906",
    "ref:FR:STIF:stop_id": "StopPoint:59:4109848",
    "route_ref": "141;563",
    "shelter": "yes",
    "source:wheelchair": "STIF 2018-07",
    "tactile_paving": "no",
    "wheelchair": "yes"
  }
},
{
  "type": "node",
  "id": 1361276938,
  "lat": 48.8736907,
  "lon": 2.1897250,
  "tags": {
    "STIF:zone": "3",
    "bench": "yes",
    "bus": "yes",
    "highway": "bus_stop",
    "name": "Edmond Rostand",
    "public_transport": "platform",
    "ref:FR:STIF": "28771",
    "ref:FR:STIF:stop_id": "StopPoint:59:4023990",
    "route_ref": "141;244",
    "shelter": "yes",
    "source:wheelchair": "STIF 2019-01",
    "wheelchair": "yes"
  }
},
{
  "type": "node",
  "id": 1361276943,
  "lat": 48.8705959,
  "lon": 2.1960677,
  "tags": {
    "STIF:zone": "3",
    "bench": "yes",
    "bin": "yes",
    "bus": "yes",
    "highway": "bus_stop",
    "name": "La Paix",
    "public_transport": "platform",
    "ref:FR:STIF": "39355",
    "ref:FR:STIF:stop_id": "StopPoint:59:4109847",
    "route_ref": "141;563",
    "shelter": "yes",
    "source:wheelchair": "STIF 2018-07",
    "tactile_paving": "no",
    "wheelchair": "yes"
  }
},
{
  "type": "node",
  "id": 1361276948,
  "lat": 48.8707458,
  "lon": 2.2032640,
  "tags": {
    "STIF:zone": "3",
    "bench": "yes",
    "bin": "yes",
    "bus": "yes",
    "highway": "bus_stop",
    "name": "8 Mai 1945",
    "network": "RATP",
    "network:wikidata": "Q474674",
    "network:wikipedia": "fr:Réseau de bus RATP",
    "operator": "RATP",
    "operator:wikidata": "Q643290",
    "operator:wikipedia": "fr:Régie autonome des transports parisiens",
    "public_transport": "platform",
    "ref:FR:STIF": "28480",
    "ref:FR:STIF:stop_id": "StopPoint:59:7714256",
    "route_ref": "141;241;244;163",
    "shelter": "yes",
    "source:wheelchair": "STIF 2019-01",
    "tactile_paving": "no",
    "wheelchair": "yes"
  }
},
{
  "type": "node",
  "id": 1361276952,
  "lat": 48.8735271,
  "lon": 2.1904323,
  "tags": {
    "STIF:zone": "3",
    "bench": "yes",
    "bin": "yes",
    "bus": "yes",
    "highway": "bus_stop",
    "name": "Edmond Rostand",
    "public_transport": "platform",
    "ref:FR:STIF": "24504",
    "ref:FR:STIF:stop_id": "StopPoint:59:5761363",
    "route_ref": "244;244",
    "shelter": "yes",
    "tactile_paving": "no",
    "wheelchair": "yes"
  }
},
{
  "type": "node",
  "id": 1361276954,
  "lat": 48.8765181,
  "lon": 2.1862240,
  "tags": {
    "STIF:zone": "3",
    "bench": "yes",
    "bin": "yes",
    "bus": "yes",
    "highway": "bus_stop",
    "name": "Hôpital Stell",
    "public_transport": "platform",
    "ref:FR:STIF": "36770",
    "ref:FR:STIF:stop_id": "StopPoint:59:5761364",
    "route_ref": "244;N53",
    "shelter": "yes",
    "source:wheelchair": "STIF 2019-01",
    "tactile_paving": "no",
    "wheelchair": "yes"
  }
},
{
  "type": "node",
  "id": 1361276966,
  "lat": 48.8801025,
  "lon": 2.1854099,
  "tags": {
    "STIF:zone": "3",
    "bench": "yes",
    "bin": "yes",
    "bus": "yes",
    "highway": "bus_stop",
    "lit": "yes",
    "name": "Le Gué",
    "public_transport": "platform",
    "ref:FR:STIF": "27296",
    "ref:FR:STIF:stop_id": "StopPoint:59:5251789",
    "route_ref": "N53;241;244",
    "shelter": "yes",
    "source:wheelchair": "STIF 2019-01",
    "tactile_paving": "no",
    "wheelchair": "yes"
  }
},
{
  "type": "node",
  "id": 1361276969,
  "lat": 48.8704812,
  "lon": 2.1961401,
  "tags": {
    "STIF:zone": "3",
    "bench": "yes",
    "bin": "yes",
    "bus": "yes",
    "highway": "bus_stop",
    "name": "La Paix",
    "public_transport": "platform",
    "ref:FR:STIF": "28774",
    "ref:FR:STIF:stop_id": "StopPoint:59:4109846",
    "route_ref": "141;563",
    "shelter": "yes",
    "source:wheelchair": "STIF 2018-07",
    "tactile_paving": "no",
    "wheelchair": "yes"
  }
},
{
  "type": "node",
  "id": 1361276971,
  "lat": 48.8692025,
  "lon": 2.1980491,
  "tags": {
    "STIF:zone": "3",
    "bench": "yes",
    "bin": "no",
    "bus": "yes",
    "highway": "bus_stop",
    "lit": "yes",
    "name": "Racine",
    "public_transport": "platform",
    "ref:FR:STIF": "36754",
    "ref:FR:STIF:stop_id": "StopPoint:59:4109849",
    "route_ref": "141;563",
    "shelter": "yes",
    "tactile_paving": "no",
    "wheelchair": "yes"
  }
},
{
  "type": "node",
  "id": 1361276973,
  "lat": 48.8673728,
  "lon": 2.2036777,
  "tags": {
    "STIF:zone": "3",
    "bench": "yes",
    "bin": "yes",
    "bus": "yes",
    "highway": "bus_stop",
    "name": "Les Houtraits",
    "public_transport": "platform",
    "ref:FR:STIF": "26089",
    "ref:FR:STIF:stop_id": "StopPoint:59:5761355",
    "route_ref": "244",
    "shelter": "yes",
    "source:wheelchair": "STIF 2019-01",
    "tactile_paving": "no",
    "wheelchair": "yes"
  }
},
{
  "type": "node",
  "id": 1361276979,
  "lat": 48.8679782,
  "lon": 2.2037753,
  "tags": {
    "STIF:zone": "3",
    "bench": "yes",
    "bin": "yes",
    "bus": "yes",
    "highway": "bus_stop",
    "name": "Les Houtraits",
    "public_transport": "platform",
    "ref:FR:STIF": "39367",
    "ref:FR:STIF:stop_id": "StopPoint:59:5761354",
    "route_ref": "244",
    "shelter": "yes",
    "source:wheelchair": "STIF 2019-01",
    "tactile_paving": "no",
    "wheelchair": "yes"
  }
},
{
  "type": "node",
  "id": 1361276984,
  "lat": 48.8795434,
  "lon": 2.1857023,
  "tags": {
    "STIF:zone": "3",
    "bench": "yes",
    "bin": "yes",
    "bus": "yes",
    "highway": "bus_stop",
    "lit": "yes",
    "name": "Le Gué",
    "public_transport": "platform",
    "ref:FR:STIF": "40866",
    "ref:FR:STIF:stop_id": "StopPoint:59:4024585",
    "route_ref": "N53;241;244",
    "shelter": "yes",
    "source:wheelchair": "STIF 2019-01",
    "tactile_paving": "no",
    "wheelchair": "yes"
  }
},
{
  "type": "node",
  "id": 1361276989,
  "lat": 48.8676411,
  "lon": 2.1996449,
  "tags": {
    "STIF:zone": "3",
    "bench": "yes",
    "bus": "yes",
    "highway": "bus_stop",
    "name": "Avenue du Mont Valérien",
    "public_transport": "platform",
    "ref:FR:STIF": "19866",
    "ref:FR:STIF:stop_id": "StopPoint:59:4023998",
    "route_ref": "141",
    "shelter": "yes",
    "source:wheelchair": "STIF 2019-01",
    "survey:date": "2018-09-21",
    "tactile_paving": "no",
    "wheelchair": "yes"
  }
},
{
  "type": "node",
  "id": 1361276992,
  "lat": 48.8705761,
  "lon": 2.2034012,
  "tags": {
    "STIF:zone": "3",
    "bench": "yes",
    "bin": "yes",
    "bus": "yes",
    "highway": "bus_stop",
    "name": "8 Mai 1945",
    "network": "RATP",
    "network:wikidata": "Q474674",
    "network:wikipedia": "fr:Réseau de bus RATP",
    "operator": "RATP",
    "operator:wikidata": "Q643290",
    "operator:wikipedia": "fr:Régie autonome des transports parisiens",
    "public_transport": "platform",
    "ref:FR:STIF": "36760",
    "ref:FR:STIF:stop_id": "StopPoint:59:7714257",
    "route_ref": "241;244;163",
    "shelter": "yes",
    "source:wheelchair": "STIF 2019-01",
    "tactile_paving": "no",
    "wheelchair": "yes"
  }
},
{
  "type": "node",
  "id": 1361276994,
  "lat": 48.8759589,
  "lon": 2.1862038,
  "tags": {
    "STIF:zone": "3",
    "bench": "yes",
    "bin": "yes",
    "bus": "yes",
    "highway": "bus_stop",
    "name": "Hôpital Stell",
    "public_transport": "platform",
    "ref:FR:STIF": "24439",
    "ref:FR:STIF:stop_id": "StopPoint:59:5761365",
    "route_ref": "244",
    "shelter": "yes",
    "source:wheelchair": "STIF 2019-01",
    "tactile_paving": "no",
    "wheelchair": "yes"
  }
},
{
  "type": "node",
  "id": 1361277005,
  "lat": 48.8678824,
  "lon": 2.1992179,
  "tags": {
    "STIF:zone": "3",
    "bench": "yes",
    "bin": "yes",
    "bus": "yes",
    "highway": "bus_stop",
    "name": "Avenue du Mont Valérien",
    "public_transport": "platform",
    "ref:FR:STIF": "36755",
    "ref:FR:STIF:stop_id": "StopPoint:59:4023997",
    "route_ref": "141",
    "shelter": "yes",
    "source:wheelchair": "STIF 2019-01",
    "tactile_paving": "no",
    "wheelchair": "yes"
  }
},
{
  "type": "node",
  "id": 1395173996,
  "lat": 48.8783023,
  "lon": 2.1803851,
  "tags": {
    "STIF:zone": "3",
    "bench": "yes",
    "bin": "yes",
    "bus": "yes",
    "highway": "bus_stop",
    "lit": "yes",
    "name": "Mairie de Rueil",
    "public_transport": "platform",
    "ref:FR:STIF": "36777",
    "ref:FR:STIF:stop_id": "StopPoint:59:4025063",
    "route_ref": "565;144;467",
    "shelter": "yes",
    "source:wheelchair": "STIF 2019-01",
    "tactile_paving": "no",
    "wheelchair": "yes"
  }
},
{
  "type": "node",
  "id": 1395173997,
  "lat": 48.8718368,
  "lon": 2.1833821,
  "tags": {
    "STIF:zone": "3",
    "bench": "yes",
    "bin": "yes",
    "bus": "yes",
    "highway": "bus_stop",
    "name": "Zurich",
    "public_transport": "platform",
    "ref:FR:STIF": "36772",
    "ref:FR:STIF:stop_id": "StopPoint:59:6217369",
    "route_ref": "565;N53;144;467",
    "shelter": "yes",
    "source:wheelchair": "STIF 2019-01",
    "tactile_paving": "no",
    "wheelchair": "yes"
  }
},
{
  "type": "node",
  "id": 1395173999,
  "lat": 48.8710637,
  "lon": 2.1837754,
  "tags": {
    "STIF:zone": "3",
    "bench": "yes",
    "bin": "yes",
    "bus": "yes",
    "highway": "bus_stop",
    "name": "Zurich",
    "public_transport": "platform",
    "ref:FR:STIF": "28533",
    "ref:FR:STIF:stop_id": "StopPoint:59:6217368",
    "route_ref": "565;N53;144;467",
    "shelter": "yes",
    "source:wheelchair": "STIF 2019-01",
    "tactile_paving": "no",
    "wheelchair": "yes"
  }
},
{
  "type": "node",
  "id": 1395174001,
  "lat": 48.8762749,
  "lon": 2.1803873,
  "tags": {
    "STIF:zone": "3",
    "bus": "yes",
    "highway": "bus_stop",
    "name": "Église de Rueil",
    "public_transport": "platform",
    "ref:FR:STIF": "28532",
    "ref:FR:STIF:stop_id": "StopPoint:59:4025064",
    "route_ref": "565;144;467",
    "shelter": "yes",
    "source:wheelchair": "STIF 2019-01",
    "tactile_paving": "yes",
    "wheelchair": "yes"
  }
},
{
  "type": "node",
  "id": 1395174003,
  "lat": 48.8666367,
  "lon": 2.1803747,
  "tags": {
    "STIF:zone": "3",
    "bench": "yes",
    "bin": "yes",
    "bus": "yes",
    "highway": "bus_stop",
    "lit": "yes",
    "name": "Lycée de Rueil",
    "public_transport": "platform",
    "ref:FR:STIF": "8375",
    "ref:FR:STIF:stop_id": "StopPoint:59:4025068",
    "route_ref": "467",
    "shelter": "yes",
    "source": "Bing",
    "source:wheelchair": "STIF 2019-01",
    "tactile_paving": "no",
    "wheelchair": "yes"
  }
},
{
  "type": "node",
  "id": 1396564716,
  "lat": 48.8779805,
  "lon": 2.1822743,
  "tags": {
    "STIF:zone": "3",
    "bench": "yes",
    "bus": "yes",
    "highway": "bus_stop",
    "name": "Mairie de Rueil",
    "public_transport": "platform",
    "ref:FR:STIF": "36775",
    "ref:FR:STIF:stop_id": "StopPoint:59:4025037",
    "route_ref": "565;144;467",
    "shelter": "yes",
    "source:wheelchair": "STIF 2019-01",
    "wheelchair": "yes"
  }
},
{
  "type": "node",
  "id": 1397563049,
  "lat": 48.8737978,
  "lon": 2.1830035,
  "tags": {
    "STIF:zone": "3",
    "bench": "yes",
    "bin": "yes",
    "bus": "yes",
    "highway": "bus_stop",
    "name": "Place Richelieu",
    "public_transport": "platform",
    "ref:FR:STIF": "36771",
    "ref:FR:STIF:stop_id": "StopPoint:59:6217367",
    "route_ref": "565;N53;144;467",
    "shelter": "yes",
    "source:wheelchair": "STIF 2019-01",
    "tactile_paving": "no",
    "wheelchair": "yes"
  }
},
{
  "type": "node",
  "id": 1397563050,
  "lat": 48.8732035,
  "lon": 2.1821514,
  "tags": {
    "STIF:zone": "3",
    "bench": "yes",
    "bin": "yes",
    "bus": "yes",
    "highway": "bus_stop",
    "name": "Place Richelieu",
    "public_transport": "platform",
    "ref:FR:STIF": "7925",
    "ref:FR:STIF:stop_id": "StopPoint:59:4025065",
    "route_ref": "565;144;467",
    "shelter": "yes",
    "source:wheelchair": "STIF 2019-01",
    "tactile_paving": "no",
    "wheelchair": "yes"
  }
},
{
  "type": "node",
  "id": 1450670163,
  "lat": 48.8670265,
  "lon": 2.1765735,
  "tags": {
    "STIF:zone": "3",
    "bench": "yes",
    "bus": "yes",
    "highway": "bus_stop",
    "name": "Général de Miribel",
    "public_transport": "platform",
    "ref:FR:STIF": "24954",
    "ref:FR:STIF:stop_id": "StopPoint:59:4025070",
    "route_ref": "467",
    "shelter": "yes",
    "source": "Bing",
    "source:wheelchair": "STIF 2019-01",
    "wheelchair": "yes"
  }
},
{
  "type": "node",
  "id": 1450670245,
  "lat": 48.8873309,
  "lon": 2.1726435,
  "tags": {
    "STIF:zone": "3",
    "bus": "yes",
    "highway": "bus_stop",
    "name": "Rueil-Malmaison RER",
    "network": "RATP",
    "network:wikidata": "Q474674",
    "network:wikipedia": "fr:Réseau de bus RATP",
    "operator:wikidata": "Q643290",
    "operator:wikipedia": "fr:Régie autonome des transports parisiens",
    "public_transport": "platform",
    "ref:FR:STIF": "413155",
    "ref:FR:STIF:stop_id": "StopPoint:59:4024593",
    "route_ref": "241",
    "shelter": "yes",
    "source:wheelchair": "STIF 2019-01",
    "survey:date": "2017-07-27",
    "wheelchair": "yes"
  }
},
{
  "type": "node",
  "id": 1450670247,
  "lat": 48.8872772,
  "lon": 2.1724584,
  "tags": {
    "STIF:zone": "3",
    "bus": "yes",
    "highway": "bus_stop",
    "name": "Rueil-Malmaison RER",
    "network": "RATP",
    "network:wikidata": "Q474674",
    "network:wikipedia": "fr:Réseau de bus RATP",
    "operator:wikidata": "Q643290",
    "operator:wikipedia": "fr:Régie autonome des transports parisiens",
    "public_transport": "platform",
    "ref:FR:STIF": "413380",
    "ref:FR:STIF:stop_id": "StopPoint:59:4025059",
    "route_ref": "467",
    "shelter": "yes",
    "source": "Bing",
    "source:wheelchair": "STIF 2019-01",
    "wheelchair": "yes"
  }
},
{
  "type": "node",
  "id": 1521847201,
  "lat": 48.8803775,
  "lon": 2.1808829,
  "tags": {
    "STIF:zone": "3",
    "bench": "yes",
    "bus": "yes",
    "highway": "bus_stop",
    "name": "Rueil - Ville",
    "public_transport": "platform",
    "ref:FR:STIF": "34400",
    "ref:FR:STIF:stop_id": "StopPoint:17:1273",
    "route_ref": "27",
    "shelter": "yes",
    "tactile_paving": "no"
  }
},
{
  "type": "node",
  "id": 1591386813,
  "lat": 48.8896915,
  "lon": 2.1792029,
  "tags": {
    "STIF:zone": "3",
    "bench": "yes",
    "bin": "yes",
    "bus": "yes",
    "highway": "bus_stop",
    "lit": "yes",
    "name": "Pereire",
    "public_transport": "platform",
    "ref:FR:STIF": "23739",
    "ref:FR:STIF:stop_id": "StopPoint:59:3877803",
    "route_ref": "158",
    "shelter": "yes",
    "source:wheelchair": "STIF 2019-01",
    "tactile_paving": "no",
    "wheelchair": "no"
  }
},
{
  "type": "node",
  "id": 1630566358,
  "lat": 48.8731415,
  "lon": 2.1904433,
  "tags": {
    "STIF:zone": "3",
    "bench": "yes",
    "bus": "yes",
    "check_date:shelter": "2021-10-31",
    "highway": "bus_stop",
    "name": "Edmond Rostand",
    "public_transport": "platform",
    "ref:FR:STIF": "28772",
    "ref:FR:STIF:stop_id": "StopPoint:59:4023989",
    "route_ref": "141",
    "shelter": "yes",
    "source:wheelchair": "STIF 2019-01",
    "wheelchair": "yes"
  }
},
{
  "type": "node",
  "id": 1730998330,
  "lat": 48.8872098,
  "lon": 2.1718194,
  "tags": {
    "STIF:zone": "3",
    "bus": "yes",
    "highway": "bus_stop",
    "name": "Rueil-Malmaison RER",
    "network": "RATP",
    "network:wikidata": "Q474674",
    "network:wikipedia": "fr:Réseau de bus RATP",
    "operator:wikidata": "Q643290",
    "operator:wikipedia": "fr:Régie autonome des transports parisiens",
    "public_transport": "platform",
    "ref:FR:STIF": "413090",
    "ref:FR:STIF:stop_id": "StopPoint:59:4024243",
    "route_ref": "144",
    "shelter": "no"
  }
},
{
  "type": "node",
  "id": 1799347205,
  "lat": 48.8731209,
  "lon": 2.2018752,
  "tags": {
    "STIF:zone": "3",
    "bench": "yes",
    "bin": "yes",
    "bus": "yes",
    "highway": "bus_stop",
    "name": "Les Géraniums",
    "public_transport": "platform",
    "ref:FR:STIF": "36844",
    "ref:FR:STIF:stop_id": "StopPoint:59:4024609",
    "route_ref": "241",
    "shelter": "yes",
    "source:wheelchair": "STIF 2019-01",
    "tactile_paving": "no",
    "wheelchair": "yes"
  }
},
{
  "type": "node",
  "id": 1799347206,
  "lat": 48.8734102,
  "lon": 2.2017920,
  "tags": {
    "STIF:zone": "3",
    "bench": "yes",
    "bin": "yes",
    "bus": "yes",
    "highway": "bus_stop",
    "name": "Les Géraniums",
    "public_transport": "platform",
    "ref:FR:STIF": "36842",
    "ref:FR:STIF:stop_id": "StopPoint:59:4024572",
    "route_ref": "241",
    "shelter": "yes",
    "source:wheelchair": "STIF 2019-01",
    "tactile_paving": "no",
    "wheelchair": "yes"
  }
},
{
  "type": "node",
  "id": 1800398546,
  "lat": 48.8721261,
  "lon": 2.1986616,
  "tags": {
    "STIF:zone": "3",
    "bench": "yes",
    "bus": "yes",
    "departures_board": "realtime",
    "highway": "bus_stop",
    "name": "Rue de la Paix",
    "network": "RATP",
    "network:wikidata": "Q474674",
    "network:wikipedia": "fr:Réseau de bus RATP",
    "operator:wikidata": "Q643290",
    "operator:wikipedia": "fr:Régie autonome des transports parisiens",
    "public_transport": "platform",
    "ref:FR:STIF": "8257",
    "ref:FR:STIF:stop_id": "StopPoint:59:5761358",
    "route_ref": "244",
    "shelter": "yes",
    "wheelchair": "yes"
  }
},
{
  "type": "node",
  "id": 1800398566,
  "lat": 48.8718861,
  "lon": 2.1993146,
  "tags": {
    "STIF:zone": "3",
    "bench": "yes",
    "bin": "yes",
    "bus": "yes",
    "departures_board": "timetable",
    "highway": "bus_stop",
    "lit": "yes",
    "name": "Rue de la Paix",
    "network": "RATP",
    "network:wikidata": "Q474674",
    "network:wikipedia": "fr:Réseau de bus RATP",
    "operator": "RATP",
    "operator:wikidata": "Q643290",
    "operator:wikipedia": "fr:Régie autonome des transports parisiens",
    "public_transport": "platform",
    "ref:FR:STIF": "24506",
    "ref:FR:STIF:stop_id": "StopPoint:59:5251782",
    "route_ref": "244",
    "shelter": "no",
    "source:wheelchair": "STIF 2019-01",
    "tactile_paving": "no",
    "wheelchair": "yes"
  }
},
{
  "type": "node",
  "id": 1801027348,
  "lat": 48.8681430,
  "lon": 2.1923652,
  "tags": {
    "STIF:zone": "3",
    "bench": "yes",
    "bin": "yes",
    "bus": "yes",
    "highway": "bus_stop",
    "name": "Dunant",
    "public_transport": "platform",
    "ref:FR:STIF": "36774",
    "ref:FR:STIF:stop_id": "StopPoint:59:4024227",
    "route_ref": "N53;144",
    "shelter": "yes",
    "source:wheelchair": "STIF 2019-01",
    "tactile_paving": "no",
    "wheelchair": "yes"
  }
},
{
  "type": "node",
  "id": 1801027349,
  "lat": 48.8675140,
  "lon": 2.1977511,
  "tags": {
    "STIF:zone": "3",
    "bench": "yes",
    "bin": "yes",
    "bus": "yes",
    "highway": "bus_stop",
    "name": "Lieutenant-Colonel de Montbrison",
    "public_transport": "platform",
    "ref:FR:STIF": "26448",
    "ref:FR:STIF:stop_id": "StopPoint:59:4024225",
    "route_ref": "N53;144",
    "shelter": "yes",
    "source:wheelchair": "STIF 2019-01",
    "tactile_paving": "no",
    "wheelchair": "yes"
  }
},
{
  "type": "node",
  "id": 1801027350,
  "lat": 48.8679022,
  "lon": 2.1937157,
  "tags": {
    "STIF:zone": "3",
    "bench": "yes",
    "bus": "yes",
    "highway": "bus_stop",
    "name": "Dunant",
    "public_transport": "platform",
    "ref:FR:STIF": "28530",
    "ref:FR:STIF:stop_id": "StopPoint:59:4024228",
    "route_ref": "N53;144",
    "shelter": "yes",
    "source:wheelchair": "STIF 2019-01",
    "wheelchair": "yes"
  }
},
{
  "type": "node",
  "id": 1801027351,
  "lat": 48.8671911,
  "lon": 2.1985893,
  "tags": {
    "STIF:zone": "3",
    "bench": "yes",
    "bin": "yes",
    "bus": "yes",
    "highway": "bus_stop",
    "name": "Lieutenant-Colonel de Montbrison",
    "public_transport": "platform",
    "ref:FR:STIF": "26449",
    "ref:FR:STIF:stop_id": "StopPoint:59:4024226",
    "route_ref": "N53;144",
    "shelter": "yes",
    "source:wheelchair": "STIF 2019-01",
    "tactile_paving": "no",
    "wheelchair": "yes"
  }
},
{
  "type": "node",
  "id": 1831937667,
  "lat": 48.8673087,
  "lon": 2.1815548,
  "tags": {
    "STIF:zone": "3",
    "bench": "yes",
    "bin": "yes",
    "bus": "yes",
    "highway": "bus_stop",
    "lit": "yes",
    "name": "Lycée de Rueil",
    "public_transport": "platform",
    "ref:FR:STIF": "24955",
    "ref:FR:STIF:stop_id": "StopPoint:59:4025028",
    "route_ref": "467",
    "shelter": "yes",
    "tactile_paving": "no",
    "wheelchair": "yes"
  }
},
{
  "type": "node",
  "id": 1932413809,
  "lat": 48.8788740,
  "lon": 2.1877660,
  "tags": {
    "STIF:zone": "3",
    "bench": "yes",
    "bin": "yes",
    "bus": "yes",
    "highway": "bus_stop",
    "name": "Liénard",
    "public_transport": "platform",
    "ref:FR:STIF": "23684",
    "ref:FR:STIF:stop_id": "StopPoint:59:4024583",
    "route_ref": "241",
    "shelter": "yes",
    "source": "bing 2005",
    "source:wheelchair": "STIF 2019-01",
    "tactile_paving": "no",
    "wheelchair": "yes"
  }
},
{
  "type": "node",
  "id": 1932413811,
  "lat": 48.8789437,
  "lon": 2.1878633,
  "tags": {
    "STIF:zone": "3",
    "bench": "yes",
    "bin": "yes",
    "bus": "yes",
    "highway": "bus_stop",
    "name": "Liénard",
    "public_transport": "platform",
    "ref:FR:STIF": "36841",
    "ref:FR:STIF:stop_id": "StopPoint:59:4024582",
    "route_ref": "241",
    "shelter": "yes",
    "source": "bing 2005",
    "source:wheelchair": "STIF 2019-01",
    "tactile_paving": "no",
    "wheelchair": "yes"
  }
},
{
  "type": "node",
  "id": 1963480491,
  "lat": 48.8759857,
  "lon": 2.2010436,
  "tags": {
    "STIF:zone": "3",
    "bench": "yes",
    "bin": "yes",
    "bus": "yes",
    "highway": "bus_stop",
    "name": "Eugène Sue",
    "public_transport": "platform",
    "ref:FR:STIF": "36762",
    "ref:FR:STIF:stop_id": "StopPoint:59:4024574",
    "route_ref": "241",
    "shelter": "yes",
    "source:wheelchair": "STIF 2019-01",
    "tactile_paving": "no",
    "wheelchair": "yes"
  }
},
{
  "type": "node",
  "id": 1963480492,
  "lat": 48.8769008,
  "lon": 2.2016102,
  "tags": {
    "STIF:zone": "3",
    "bench": "yes",
    "bin": "yes",
    "bus": "yes",
    "highway": "bus_stop",
    "name": "Eugène Sue",
    "public_transport": "platform",
    "ref:FR:STIF": "7901",
    "ref:FR:STIF:stop_id": "StopPoint:59:4023982",
    "route_ref": "141;163",
    "shelter": "yes",
    "source:wheelchair": "STIF 2019-01",
    "tactile_paving": "no",
    "wheelchair": "yes"
  }
},
{
  "type": "node",
  "id": 1963480493,
  "lat": 48.8768708,
  "lon": 2.2017363,
  "tags": {
    "STIF:zone": "3",
    "bench": "yes",
    "bin": "yes",
    "bus": "yes",
    "highway": "bus_stop",
    "name": "Eugène Sue",
    "public_transport": "platform",
    "ref:FR:STIF": "7907",
    "ref:FR:STIF:stop_id": "StopPoint:59:4023983",
    "route_ref": "141;163",
    "shelter": "yes",
    "source:wheelchair": "STIF 2019-01",
    "tactile_paving": "no",
    "wheelchair": "yes"
  }
},
{
  "type": "node",
  "id": 1963480494,
  "lat": 48.8783852,
  "lon": 2.1932766,
  "tags": {
    "STIF:zone": "3",
    "bench": "yes",
    "bus": "yes",
    "highway": "bus_stop",
    "name": "Danton - Gambetta",
    "public_transport": "platform",
    "ref:FR:STIF": "23683",
    "ref:FR:STIF:stop_id": "StopPoint:59:4024581",
    "route_ref": "241",
    "shelter": "no",
    "wheelchair": "limited"
  }
},
{
  "type": "node",
  "id": 1963480495,
  "lat": 48.8785466,
  "lon": 2.1920347,
  "tags": {
    "STIF:zone": "3",
    "bench": "yes",
    "bus": "yes",
    "highway": "bus_stop",
    "name": "Danton - Gambetta",
    "public_transport": "platform",
    "ref:FR:STIF": "36845",
    "ref:FR:STIF:stop_id": "StopPoint:59:4024580",
    "route_ref": "241",
    "shelter": "yes",
    "wheelchair": "limited"
  }
},
{
  "type": "node",
  "id": 1963480496,
  "lat": 48.8757269,
  "lon": 2.2008813,
  "tags": {
    "STIF:zone": "3",
    "bench": "yes",
    "bin": "yes",
    "bus": "yes",
    "highway": "bus_stop",
    "name": "Eugène Sue",
    "public_transport": "platform",
    "ref:FR:STIF": "424840",
    "ref:FR:STIF:stop_id": "StopPoint:59:4024608",
    "route_ref": "241",
    "shelter": "yes",
    "source:wheelchair": "STIF 2019-01",
    "tactile_paving": "no",
    "wheelchair": "yes"
  }
},
{
  "type": "node",
  "id": 1963480497,
  "lat": 48.8778896,
  "lon": 2.1963920,
  "tags": {
    "STIF:zone": "3",
    "bench": "yes",
    "bin": "yes",
    "bus": "yes",
    "highway": "bus_stop",
    "name": "Fabre d'Églantine",
    "public_transport": "platform",
    "ref:FR:STIF": "7902",
    "ref:FR:STIF:stop_id": "StopPoint:59:4024578",
    "route_ref": "563;241",
    "shelter": "yes",
    "source:wheelchair": "STIF 2019-01",
    "tactile_paving": "no",
    "wheelchair": "yes"
  }
},
{
  "type": "node",
  "id": 1963480498,
  "lat": 48.8770481,
  "lon": 2.1992244,
  "tags": {
    "STIF:zone": "3",
    "bench": "yes",
    "bin": "yes",
    "bus": "yes",
    "highway": "bus_stop",
    "name": "Voltaire",
    "public_transport": "platform",
    "ref:FR:STIF": "28770",
    "ref:FR:STIF:stop_id": "StopPoint:59:4024607",
    "route_ref": "141;241",
    "shelter": "yes",
    "source:wheelchair": "STIF 2019-01",
    "tactile_paving": "no",
    "wheelchair": "yes"
  }
},
{
  "type": "node",
  "id": 1963480499,
  "lat": 48.8778534,
  "lon": 2.1960420,
  "tags": {
    "STIF:zone": "3",
    "bench": "yes",
    "bin": "yes",
    "bus": "yes",
    "highway": "bus_stop",
    "name": "Fabre d'Églantine",
    "public_transport": "platform",
    "ref:FR:STIF": "7911",
    "ref:FR:STIF:stop_id": "StopPoint:59:4024579",
    "route_ref": "563;241",
    "shelter": "yes",
    "source:wheelchair": "STIF 2019-01",
    "tactile_paving": "no",
    "wheelchair": "yes"
  }
},
{
  "type": "node",
  "id": 1963481844,
  "lat": 48.8629078,
  "lon": 2.1965607,
  "tags": {
    "STIF:zone": "3",
    "bench": "yes",
    "bin": "yes",
    "bus": "yes",
    "highway": "bus_stop",
    "name": "Les Mazurières",
    "network": "RATP",
    "network:wikidata": "Q474674",
    "network:wikipedia": "fr:Réseau de bus RATP",
    "operator": "RATP",
    "operator:wikidata": "Q643290",
    "operator:wikipedia": "fr:Régie autonome des transports parisiens",
    "public_transport": "platform",
    "ref:FR:STIF": "36763",
    "ref:FR:STIF:stop_id": "StopPoint:59:4024565",
    "route_ref": "141;241",
    "shelter": "yes",
    "source:wheelchair": "STIF 2019-01",
    "wheelchair": "yes"
  }
},
{
  "type": "node",
  "id": 1963481845,
  "lat": 48.8651171,
  "lon": 2.1974400,
  "tags": {
    "STIF:zone": "3",
    "bench": "yes",
    "bus": "yes",
    "check_date:shelter": "2021-10-31",
    "highway": "bus_stop",
    "name": "Victorien Sardou",
    "network": "RATP",
    "network:wikidata": "Q474674",
    "network:wikipedia": "fr:Réseau de bus RATP",
    "operator": "RATP",
    "operator:wikidata": "Q643290",
    "operator:wikipedia": "fr:Régie autonome des transports parisiens",
    "public_transport": "platform",
    "ref:FR:STIF": "39358",
    "ref:FR:STIF:stop_id": "StopPoint:59:4024566",
    "route_ref": "141;241",
    "shelter": "yes",
    "source:wheelchair": "STIF 2019-01",
    "tactile_paving": "no",
    "wheelchair": "yes"
  }
},
{
  "type": "node",
  "id": 1963481848,
  "lat": 48.8624230,
  "lon": 2.1964885,
  "tags": {
    "STIF:zone": "3",
    "bench": "yes",
    "bin": "yes",
    "bus": "yes",
    "highway": "bus_stop",
    "name": "Les Mazurières",
    "network": "RATP",
    "network:wikidata": "Q474674",
    "network:wikipedia": "fr:Réseau de bus RATP",
    "operator": "RATP",
    "operator:wikidata": "Q643290",
    "operator:wikipedia": "fr:Régie autonome des transports parisiens",
    "public_transport": "platform",
    "ref:FR:STIF": "7908",
    "ref:FR:STIF:stop_id": "StopPoint:59:4024564",
    "route_ref": "141;241",
    "shelter": "yes",
    "source:wheelchair": "STIF 2019-01",
    "wheelchair": "yes"
  }
},
{
  "type": "node",
  "id": 1963481850,
  "lat": 48.8655630,
  "lon": 2.1974139,
  "tags": {
    "STIF:zone": "3",
    "bench": "yes",
    "bin": "yes",
    "bus": "yes",
    "highway": "bus_stop",
    "name": "Victorien Sardou",
    "network": "RATP",
    "network:wikidata": "Q474674",
    "network:wikipedia": "fr:Réseau de bus RATP",
    "operator": "RATP",
    "operator:wikidata": "Q643290",
    "operator:wikipedia": "fr:Régie autonome des transports parisiens",
    "public_transport": "platform",
    "ref:FR:STIF": "7904",
    "ref:FR:STIF:stop_id": "StopPoint:59:4024567",
    "route_ref": "141;241",
    "shelter": "yes",
    "source:wheelchair": "STIF 2019-01",
    "tactile_paving": "no",
    "wheelchair": "yes"
  }
},
{
  "type": "node",
  "id": 2108784253,
  "lat": 48.8702241,
  "lon": 2.1997376,
  "tags": {
    "STIF:zone": "3",
    "bench": "no",
    "bin": "no",
    "bus": "yes",
    "highway": "bus_stop",
    "lit": "no",
    "name": "La Chapelle",
    "public_transport": "platform",
    "ref:FR:STIF": "27461",
    "ref:FR:STIF:stop_id": "StopPoint:59:4109850",
    "route_ref": "563",
    "shelter": "no",
    "source:wheelchair": "STIF 2018-07",
    "tactile_paving": "no",
    "wheelchair": "yes"
  }
},
{
  "type": "node",
  "id": 2108784254,
  "lat": 48.8703829,
  "lon": 2.1997269,
  "tags": {
    "STIF:zone": "3",
    "bench": "no",
    "bin": "no",
    "bus": "yes",
    "highway": "bus_stop",
    "lit": "no",
    "name": "La Chapelle",
    "public_transport": "platform",
    "ref:FR:STIF": "27462",
    "ref:FR:STIF:stop_id": "StopPoint:59:4109851",
    "route_ref": "563",
    "shelter": "no",
    "source:wheelchair": "STIF 2018-07",
    "tactile_paving": "no",
    "wheelchair": "yes"
  }
},
{
  "type": "node",
  "id": 2108784255,
  "lat": 48.8725095,
  "lon": 2.1957743,
  "tags": {
    "STIF:zone": "3",
    "bench": "no",
    "bin": "no",
    "bus": "yes",
    "highway": "bus_stop",
    "lit": "no",
    "name": "Les Godardes",
    "public_transport": "platform",
    "ref:FR:STIF": "24505",
    "ref:FR:STIF:stop_id": "StopPoint:59:5761361",
    "route_ref": "563;244",
    "shelter": "no",
    "source:wheelchair": "STIF 2019-01",
    "tactile_paving": "no",
    "wheelchair": "yes"
  }
},
{
  "type": "node",
  "id": 2108784256,
  "lat": 48.8713039,
  "lon": 2.2039165,
  "tags": {
    "STIF:zone": "3",
    "bus": "yes",
    "highway": "bus_stop",
    "name": "Place du 8 Mai 1945",
    "network": "RATP",
    "network:wikidata": "Q474674",
    "network:wikipedia": "fr:Réseau de bus RATP",
    "operator": "RATP",
    "operator:wikidata": "Q643290",
    "operator:wikipedia": "fr:Régie autonome des transports parisiens",
    "public_transport": "platform",
    "ref:FR:STIF": "24743",
    "ref:FR:STIF:stop_id": "StopPoint:59:4109853",
    "route_ref": "563",
    "shelter": "no",
    "source:wheelchair": "STIF 2018-07",
    "wheelchair": "yes"
  }
},
{
  "type": "node",
  "id": 2108784257,
  "lat": 48.8732825,
  "lon": 2.1953040,
  "tags": {
    "STIF:zone": "3",
    "bench": "yes",
    "bus": "yes",
    "highway": "bus_stop",
    "name": "Les Godardes",
    "public_transport": "platform",
    "ref:FR:STIF": "26090",
    "ref:FR:STIF:stop_id": "StopPoint:59:4109845",
    "route_ref": "563",
    "shelter": "yes",
    "source:wheelchair": "STIF 2018-07",
    "wheelchair": "yes"
  }
},
{
  "type": "node",
  "id": 2108784258,
  "lat": 48.8728547,
  "lon": 2.1944645,
  "tags": {
    "STIF:zone": "3",
    "bench": "yes",
    "bin": "yes",
    "bus": "yes",
    "highway": "bus_stop",
    "name": "Les Godardes",
    "public_transport": "platform",
    "ref:FR:STIF": "24503",
    "ref:FR:STIF:stop_id": "StopPoint:59:5251783",
    "route_ref": "244",
    "shelter": "yes",
    "source:wheelchair": "STIF 2019-01",
    "tactile_paving": "no",
    "wheelchair": "yes"
  }
},
{
  "type": "node",
  "id": 2239917514,
  "lat": 48.8624672,
  "lon": 2.1954770,
  "tags": {
    "STIF:zone": "3",
    "bench": "yes",
    "bin": "yes",
    "bus": "yes",
    "highway": "bus_stop",
    "name": "Fouilleuse",
    "network": "RATP",
    "network:wikidata": "Q474674",
    "network:wikipedia": "fr:Réseau de bus RATP",
    "operator": "RATP",
    "operator:wikidata": "Q643290",
    "operator:wikipedia": "fr:Régie autonome des transports parisiens",
    "public_transport": "platform",
    "ref:FR:STIF": "39357",
    "ref:FR:STIF:stop_id": "StopPoint:59:4024003",
    "route_ref": "565",
    "shelter": "yes",
    "source": "Bing",
    "source:wheelchair": "STIF 2018-07",
    "tactile_paving": "no",
    "wheelchair": "yes"
  }
},
{
  "type": "node",
  "id": 2239917515,
  "lat": 48.8624531,
  "lon": 2.1944149,
  "tags": {
    "STIF:zone": "3",
    "bench": "yes",
    "bin": "yes",
    "bus": "yes",
    "highway": "bus_stop",
    "name": "Fouilleuse",
    "network": "RATP",
    "network:wikidata": "Q474674",
    "network:wikipedia": "fr:Réseau de bus RATP",
    "operator": "RATP",
    "operator:wikidata": "Q643290",
    "operator:wikipedia": "fr:Régie autonome des transports parisiens",
    "public_transport": "platform",
    "ref:FR:STIF": "39356",
    "ref:FR:STIF:stop_id": "StopPoint:59:4024004",
    "route_ref": "565",
    "shelter": "yes",
    "source": "Bing",
    "source:wheelchair": "STIF 2018-07",
    "tactile_paving": "no",
    "wheelchair": "yes"
  }
},
{
  "type": "node",
  "id": 2316954737,
  "lat": 48.8678340,
  "lon": 2.2013972,
  "tags": {
    "STIF:zone": "3",
    "bench": "no",
    "bus": "yes",
    "highway": "bus_stop",
    "name": "Avenue du Mont Valérien",
    "public_transport": "platform",
    "ref:FR:STIF": "36765",
    "ref:FR:STIF:stop_id": "StopPoint:59:4024568",
    "route_ref": "241;241",
    "shelter": "no",
    "source:wheelchair": "STIF 2019-01",
    "wheelchair": "yes"
  }
},
{
  "type": "node",
  "id": 2316954740,
  "lat": 48.8676444,
  "lon": 2.2008286,
  "tags": {
    "STIF:zone": "3",
    "bench": "no",
    "bus": "yes",
    "highway": "bus_stop",
    "name": "Avenue du Mont Valérien",
    "public_transport": "platform",
    "ref:FR:STIF": "39360",
    "ref:FR:STIF:stop_id": "StopPoint:59:4024569",
    "route_ref": "241;241",
    "shelter": "no",
    "source:wheelchair": "STIF 2019-01",
    "wheelchair": "yes"
  }
},
{
  "type": "node",
  "id": 2412360528,
  "lat": 48.8839550,
  "lon": 2.1787346,
  "tags": {
    "STIF:zone": "3",
    "bench": "yes",
    "bin": "yes",
    "bus": "yes",
    "highway": "bus_stop",
    "name": "Baudin",
    "network": "RATP",
    "network:wikidata": "Q474674",
    "network:wikipedia": "fr:Réseau de bus RATP",
    "operator:wikidata": "Q643290",
    "operator:wikipedia": "fr:Régie autonome des transports parisiens",
    "public_transport": "platform",
    "ref:FR:STIF": "36776",
    "ref:FR:STIF:stop_id": "StopPoint:59:4025061",
    "route_ref": "241;144;467",
    "shelter": "yes",
    "source:wheelchair": "STIF 2019-01",
    "wheelchair": "yes"
  }
},
{
  "type": "node",
  "id": 2412360537,
  "lat": 48.8841790,
  "lon": 2.1786745,
  "tags": {
    "STIF:zone": "3",
    "bench": "yes",
    "bus": "yes",
    "highway": "bus_stop",
    "name": "Baudin",
    "network": "RATP",
    "network:wikidata": "Q474674",
    "network:wikipedia": "fr:Réseau de bus RATP",
    "operator:wikidata": "Q643290",
    "operator:wikipedia": "fr:Régie autonome des transports parisiens",
    "public_transport": "platform",
    "ref:FR:STIF": "36768",
    "ref:FR:STIF:stop_id": "StopPoint:59:4024588",
    "route_ref": "241",
    "shelter": "yes",
    "source:wheelchair": "STIF 2019-01",
    "wheelchair": "yes"
  }
},
{
  "type": "node",
  "id": 2502606414,
  "lat": 48.8689442,
  "lon": 2.1854689,
  "tags": {
    "STIF:zone": "3",
    "bench": "yes",
    "bin": "yes",
    "bus": "yes",
    "covered": "yes",
    "highway": "bus_stop",
    "lit": "yes",
    "name": "Place Besche",
    "public_transport": "platform",
    "ref:FR:STIF": "28835",
    "ref:FR:STIF:stop_id": "StopPoint:59:4025067",
    "route_ref": "467",
    "shelter": "yes",
    "source:wheelchair": "STIF 2019-01",
    "tactile_paving": "no",
    "wheelchair": "yes"
  }
},
{
  "type": "node",
  "id": 2625917213,
  "lat": 48.8807266,
  "lon": 2.1796201,
  "tags": {
    "STIF:zone": "3",
    "bench": "yes",
    "bin": "yes",
    "bus": "yes",
    "highway": "bus_stop",
    "lit": "yes",
    "name": "Albert 1er - Rueil Ville",
    "public_transport": "platform",
    "ref:FR:STIF": "34404",
    "ref:FR:STIF:stop_id": "StopPoint:17:1331",
    "route_ref": "27",
    "shelter": "yes",
    "tactile_paving": "no",
    "wheelchair": "yes"
  }
},
{
  "type": "node",
  "id": 2625917214,
  "lat": 48.8839432,
  "lon": 2.1746088,
  "tags": {
    "STIF:zone": "3",
    "bench": "yes",
    "bus": "yes",
    "highway": "bus_stop",
    "name": "Baudin",
    "public_transport": "platform",
    "ref:FR:STIF": "7928",
    "ref:FR:STIF:stop_id": "StopPoint:59:4025040",
    "route_ref": "144;467",
    "shelter": "yes",
    "source:wheelchair": "STIF 2019-01",
    "wheelchair": "yes"
  }
},
{
  "type": "node",
  "id": 2625917215,
  "lat": 48.8861851,
  "lon": 2.1752291,
  "tags": {
    "STIF:zone": "3",
    "bench": "yes",
    "bin": "yes",
    "bus": "yes",
    "highway": "bus_stop",
    "lit": "yes",
    "name": "Colmar",
    "network": "RATP",
    "network:wikidata": "Q474674",
    "network:wikipedia": "fr:Réseau de bus RATP",
    "operator:wikidata": "Q643290",
    "operator:wikipedia": "fr:Régie autonome des transports parisiens",
    "public_transport": "platform",
    "ref:FR:STIF": "36769",
    "ref:FR:STIF:stop_id": "StopPoint:59:4025060",
    "route_ref": "241;144;467",
    "shelter": "yes",
    "source:wheelchair": "STIF 2019-01",
    "tactile_paving": "no",
    "wheelchair": "yes"
  }
},
{
  "type": "node",
  "id": 2625917216,
  "lat": 48.8864474,
  "lon": 2.1751071,
  "tags": {
    "STIF:zone": "3",
    "bench": "no",
    "bin": "no",
    "bus": "yes",
    "highway": "bus_stop",
    "lit": "yes",
    "name": "Colmar",
    "network": "RATP",
    "network:wikidata": "Q474674",
    "network:wikipedia": "fr:Réseau de bus RATP",
    "operator:wikidata": "Q643290",
    "operator:wikipedia": "fr:Régie autonome des transports parisiens",
    "public_transport": "platform",
    "ref:FR:STIF": "27295",
    "ref:FR:STIF:stop_id": "StopPoint:59:5761372",
    "route_ref": "241;244;144;467",
    "shelter": "no",
    "source:wheelchair": "STIF 2019-01",
    "tactile_paving": "no",
    "wheelchair": "yes"
  }
},
{
  "type": "node",
  "id": 2701587296,
  "lat": 48.8816743,
  "lon": 2.1838479,
  "tags": {
    "STIF:zone": "3",
    "bench": "yes",
    "bus": "yes",
    "highway": "bus_stop",
    "name": "Brossolette",
    "network": "RATP",
    "network:wikidata": "Q474674",
    "network:wikipedia": "fr:Réseau de bus RATP",
    "operator:wikidata": "Q643290",
    "operator:wikipedia": "fr:Régie autonome des transports parisiens",
    "public_transport": "platform",
    "ref:FR:STIF": "28805",
    "ref:FR:STIF:stop_id": "StopPoint:59:4024587",
    "route_ref": "241",
    "shelter": "yes",
    "source:wheelchair": "STIF 2019-01",
    "wheelchair": "yes"
  }
},
{
  "type": "node",
  "id": 2701587302,
  "lat": 48.8815323,
  "lon": 2.1843307,
  "tags": {
    "STIF:zone": "3",
    "bench": "yes",
    "bin": "no",
    "bus": "yes",
    "highway": "bus_stop",
    "lit": "yes",
    "name": "Brossolette",
    "network": "RATP",
    "network:wikidata": "Q474674",
    "network:wikipedia": "fr:Réseau de bus RATP",
    "operator:wikidata": "Q643290",
    "operator:wikipedia": "fr:Régie autonome des transports parisiens",
    "public_transport": "platform",
    "ref:FR:STIF": "36843",
    "ref:FR:STIF:stop_id": "StopPoint:59:4024586",
    "route_ref": "241",
    "shelter": "yes",
    "source:wheelchair": "STIF 2019-01",
    "tactile_paving": "no",
    "wheelchair": "yes"
  }
},
{
  "type": "node",
  "id": 2703447217,
  "lat": 48.8874658,
  "lon": 2.1707026,
  "tags": {
    "STIF:zone": "3",
    "bus": "yes",
    "highway": "bus_stop",
    "name": "Rueil-Malmaison RER",
    "public_transport": "platform",
    "ref:FR:STIF": "40093",
    "ref:FR:STIF:stop_id": "StopPoint:59:4024952",
    "route_ref": "367 Terminus;367",
    "shelter": "no",
    "source:wheelchair": "STIF 2018-07",
    "survey:date": "2017-09-25",
    "wheelchair": "yes"
  }
},
{
  "type": "node",
  "id": 2930080432,
  "lat": 48.8723468,
  "lon": 2.1924944,
  "tags": {
    "STIF:zone": "3",
    "bench": "yes",
    "bin": "yes",
    "bus": "yes",
    "highway": "bus_stop",
    "name": "Saint-Exupéry",
    "public_transport": "platform",
    "ref:FR:STIF": "28773",
    "ref:FR:STIF:stop_id": "StopPoint:59:4023992",
    "route_ref": "141",
    "shelter": "yes",
    "tactile_paving": "no"
  }
},
{
  "type": "node",
  "id": 2930080434,
  "lat": 48.8721140,
  "lon": 2.1927331,
  "tags": {
    "STIF:zone": "3",
    "bench": "yes",
    "bin": "no",
    "bus": "yes",
    "highway": "bus_stop",
    "name": "Saint-Exupéry",
    "public_transport": "platform",
    "ref:FR:STIF": "36757",
    "ref:FR:STIF:stop_id": "StopPoint:59:4023991",
    "route_ref": "141",
    "shelter": "yes",
    "tactile_paving": "no"
  }
},
{
  "type": "node",
  "id": 3096312171,
  "lat": 48.8912570,
  "lon": 2.1777894,
  "tags": {
    "STIF:zone": "3",
    "bus": "yes",
    "highway": "bus_stop",
    "name": "Route de Chatou",
    "public_transport": "platform",
    "ref:FR:STIF": "8007",
    "ref:FR:STIF:stop_id": "StopPoint:59:4024385",
    "route_ref": "159",
    "source:wheelchair": "STIF 2019-01",
    "tactile_paving": "yes",
    "wheelchair": "yes"
  }
},
{
  "type": "node",
  "id": 3304879057,
  "lat": 48.8870927,
  "lon": 2.1714339,
  "tags": {
    "STIF:zone": "3",
    "bus": "yes",
    "highway": "bus_stop",
    "name": "Rueil-Malmaison RER",
    "network": "RATP",
    "network:wikidata": "Q474674",
    "network:wikipedia": "fr:Réseau de bus RATP",
    "operator:wikidata": "Q643290",
    "operator:wikipedia": "fr:Régie autonome des transports parisiens",
    "public_transport": "platform",
    "ref:FR:STIF": "413091",
    "ref:FR:STIF:stop_id": "StopPoint:59:4024244",
    "route_ref": "144;N153",
    "shelter": "yes",
    "wheelchair": "yes"
  }
},
{
  "type": "node",
  "id": 3387663409,
  "lat": 48.8774194,
  "lon": 2.1987178,
  "tags": {
    "STIF:zone": "3",
    "bench": "yes",
    "bin": "yes",
    "bus": "yes",
    "highway": "bus_stop",
    "name": "Voltaire",
    "public_transport": "platform",
    "ref:FR:STIF": "27460",
    "ref:FR:STIF:stop_id": "StopPoint:59:4024576",
    "route_ref": "563;241",
    "shelter": "yes",
    "source:wheelchair": "STIF 2019-01",
    "tactile_paving": "no",
    "wheelchair": "yes"
  }
},
{
  "type": "node",
  "id": 3387663410,
  "lat": 48.8770613,
  "lon": 2.1987232,
  "tags": {
    "STIF:zone": "3",
    "bench": "no",
    "bin": "no",
    "bus": "yes",
    "highway": "bus_stop",
    "name": "Voltaire",
    "public_transport": "platform",
    "ref:FR:STIF": "24991",
    "ref:FR:STIF:stop_id": "StopPoint:59:4109840",
    "route_ref": "563",
    "shelter": "no",
    "source:wheelchair": "STIF 2018-07",
    "tactile_paving": "no",
    "wheelchair": "yes"
  }
},
{
  "type": "node",
  "id": 3659419537,
  "lat": 48.8751324,
  "lon": 2.1910248,
  "tags": {
    "STIF:zone": "3",
    "bench": "yes",
    "bin": "yes",
    "bus": "yes",
    "highway": "bus_stop",
    "name": "Rue des Folies",
    "public_transport": "platform",
    "ref:FR:STIF": "36761",
    "ref:FR:STIF:stop_id": "StopPoint:59:4023988",
    "route_ref": "141",
    "shelter": "yes",
    "source:wheelchair": "STIF 2019-01",
    "tactile_paving": "no",
    "wheelchair": "yes"
  }
},
{
  "type": "node",
  "id": 3659419538,
  "lat": 48.8750407,
  "lon": 2.1907674,
  "tags": {
    "STIF:zone": "3",
    "bench": "yes",
    "bin": "yes",
    "bus": "yes",
    "highway": "bus_stop",
    "name": "Rue des Folies",
    "public_transport": "platform",
    "ref:FR:STIF": "7905",
    "ref:FR:STIF:stop_id": "StopPoint:59:4023987",
    "route_ref": "141",
    "shelter": "yes",
    "source:wheelchair": "STIF 2019-01",
    "tactile_paving": "no",
    "wheelchair": "yes"
  }
},
{
  "type": "node",
  "id": 3660735390,
  "lat": 48.8776475,
  "lon": 2.1951761,
  "tags": {
    "STIF:zone": "3",
    "bench": "yes",
    "bin": "no",
    "bus": "yes",
    "highway": "bus_stop",
    "name": "Fabre d'Églantine",
    "public_transport": "platform",
    "ref:FR:STIF": "24625",
    "ref:FR:STIF:stop_id": "StopPoint:59:5150151",
    "route_ref": "141",
    "shelter": "yes",
    "source:wheelchair": "STIF 2019-01",
    "wheelchair": "yes"
  }
},
{
  "type": "node",
  "id": 3781856683,
  "lat": 48.8798042,
  "lon": 2.1758287,
  "tags": {
    "STIF:zone": "3",
    "bench": "yes",
    "bin": "yes",
    "bus": "yes",
    "highway": "bus_stop",
    "name": "Geneviève Couturier",
    "public_transport": "platform",
    "ref:FR:STIF": "28809",
    "ref:FR:STIF:stop_id": "StopPoint:59:5761376",
    "route_ref": "244",
    "shelter": "yes",
    "source:wheelchair": "STIF 2019-01",
    "tactile_paving": "no",
    "wheelchair": "yes",
    "wikidata": "Q56870590"
  }
},
{
  "type": "node",
  "id": 3781856708,
  "lat": 48.8835489,
  "lon": 2.1707996,
  "tags": {
    "STIF:zone": "3",
    "bench": "yes",
    "bin": "yes",
    "bus": "yes",
    "highway": "bus_stop",
    "name": "Les Martinets",
    "public_transport": "platform",
    "ref:FR:STIF": "24502",
    "ref:FR:STIF:stop_id": "StopPoint:59:5761375",
    "route_ref": "244",
    "shelter": "yes",
    "source:wheelchair": "STIF 2019-01",
    "tactile_paving": "no",
    "wheelchair": "yes",
    "wikidata": "Q56870480"
  }
},
{
  "type": "node",
  "id": 3785193396,
  "lat": 48.8635846,
  "lon": 2.1904283,
  "tags": {
    "STIF:zone": "3",
    "bench": "yes",
    "bus": "yes",
    "highway": "bus_stop",
    "name": "19 Janvier",
    "public_transport": "platform",
    "ref:FR:STIF": "26244",
    "ref:FR:STIF:stop_id": "StopPoint:59:4025341",
    "route_ref": "565",
    "shelter": "no",
    "source:wheelchair": "STIF 2018-07",
    "wheelchair": "yes"
  }
},
{
  "type": "node",
  "id": 3785193397,
  "lat": 48.8637523,
  "lon": 2.1903826,
  "tags": {
    "STIF:zone": "3",
    "bench": "yes",
    "bus": "yes",
    "highway": "bus_stop",
    "name": "19 Janvier",
    "public_transport": "platform",
    "ref:FR:STIF": "27463",
    "ref:FR:STIF:stop_id": "StopPoint:59:4025342",
    "route_ref": "565",
    "shelter": "no",
    "source:wheelchair": "STIF 2018-07",
    "wheelchair": "yes"
  }
},
{
  "type": "node",
  "id": 4210452248,
  "lat": 48.8760549,
  "lon": 2.1853042,
  "tags": {
    "STIF:zone": "3",
    "bench": "no",
    "bin": "no",
    "bus": "yes",
    "highway": "bus_stop",
    "name": "Hôpital Stell",
    "public_transport": "platform",
    "ref:FR:STIF": "413435",
    "ref:FR:STIF:stop_id": "StopPoint:59:6217364",
    "route_ref": "N53",
    "shelter": "no",
    "source:wheelchair": "STIF 2019-01",
    "wheelchair": "yes"
  }
},
{
  "type": "node",
  "id": 4324335706,
  "lat": 48.8750458,
  "lon": 2.1967864,
  "tags": {
    "STIF:zone": "3",
    "bus": "yes",
    "highway": "bus_stop",
    "name": "Le Brix",
    "public_transport": "platform",
    "ref:FR:STIF": "26238",
    "ref:FR:STIF:stop_id": "StopPoint:59:4109843",
    "route_ref": "563",
    "source:wheelchair": "STIF 2018-07",
    "wheelchair": "yes"
  }
},
{
  "type": "node",
  "id": 4325530089,
  "lat": 48.8875574,
  "lon": 2.1793291,
  "tags": {
    "STIF:zone": "3",
    "bench": "yes",
    "bus": "yes",
    "highway": "bus_stop",
    "name": "D'Estienne d'Orves",
    "public_transport": "platform",
    "ref:FR:STIF": "417831",
    "ref:FR:STIF:stop_id": "StopPoint:59:5423774",
    "route_ref": "158",
    "shelter": "yes",
    "source:wheelchair": "STIF 2019-01",
    "wheelchair": "no"
  }
},
{
  "type": "node",
  "id": 4330633924,
  "lat": 48.8611145,
  "lon": 2.1906094,
  "tags": {
    "STIF:zone": "3",
    "bench": "yes",
    "bin": "yes",
    "bus": "yes",
    "highway": "bus_stop",
    "name": "Dumouriez",
    "public_transport": "platform",
    "ref:FR:STIF": "7909",
    "ref:FR:STIF:stop_id": "StopPoint:59:4024155",
    "route_ref": "141",
    "shelter": "yes",
    "source:wheelchair": "STIF 2019-01",
    "wheelchair": "yes"
  }
},
{
  "type": "node",
  "id": 4405060846,
  "lat": 48.8585625,
  "lon": 2.1940414,
  "tags": {
    "bus": "yes",
    "highway": "bus_stop",
    "name": "Église de Buzenval",
    "public_transport": "platform"
  }
},
{
  "type": "node",
  "id": 4474950230,
  "lat": 48.8726225,
  "lon": 2.1825561,
  "tags": {
    "STIF:zone": "3",
    "bench": "no",
    "bin": "no",
    "bus": "yes",
    "highway": "bus_stop",
    "name": "Place Richelieu",
    "public_transport": "platform",
    "ref:FR:STIF": "413437",
    "ref:FR:STIF:stop_id": "StopPoint:59:6217366",
    "route_ref": "N53",
    "shelter": "no",
    "source:wheelchair": "STIF 2019-01",
    "tactile_paving": "no",
    "wheelchair": "yes"
  }
},
{
  "type": "node",
  "id": 4888200722,
  "lat": 48.8870561,
  "lon": 2.1730594,
  "tags": {
    "bench": "yes",
    "bus": "yes",
    "highway": "bus_stop",
    "name": "Rueil-Malmaison RER",
    "public_transport": "platform",
    "shelter": "yes",
    "source": "http://cerea.enpc.fr/com-src/images/chatou_fr.pdf"
  }
},
{
  "type": "node",
  "id": 4955625415,
  "lat": 48.8874121,
  "lon": 2.1839165,
  "tags": {
    "STIF:zone": "3",
    "bench": "yes",
    "bus": "yes",
    "highway": "bus_stop",
    "name": "Rue du Mans",
    "public_transport": "platform",
    "ref:FR:STIF": "23738",
    "ref:FR:STIF:stop_id": "StopPoint:59:3877807",
    "route_ref": "158",
    "shelter": "yes",
    "source:wheelchair": "STIF 2019-01",
    "wheelchair": "no"
  }
},
{
  "type": "node",
  "id": 4955625417,
  "lat": 48.8871515,
  "lon": 2.1807509,
  "tags": {
    "STIF:zone": "3",
    "bench": "yes",
    "bus": "yes",
    "highway": "bus_stop",
    "name": "D'Estienne d'Orves",
    "public_transport": "platform",
    "ref:FR:STIF": "23740",
    "ref:FR:STIF:stop_id": "StopPoint:59:3877806",
    "route_ref": "158",
    "shelter": "yes",
    "source:wheelchair": "STIF 2019-01",
    "wheelchair": "no"
  }
},
{
  "type": "node",
  "id": 5592618324,
  "lat": 48.8735005,
  "lon": 2.1689659,
  "tags": {
    "STIF:zone": "3",
    "bus": "yes",
    "highway": "bus_stop",
    "name": "Collège La Malmaison",
    "public_transport": "platform",
    "ref:FR:STIF": "10438",
    "ref:FR:STIF:stop_id": "StopPoint:59:4025328",
    "route_ref": "564",
    "shelter": "no"
  }
},
{
  "type": "node",
  "id": 5592618325,
  "lat": 48.8690560,
  "lon": 2.1726060,
  "tags": {
    "STIF:zone": "3",
    "bus": "yes",
    "highway": "bus_stop",
    "name": "Tuck Stell",
    "public_transport": "platform",
    "ref:FR:STIF": "24760",
    "ref:FR:STIF:stop_id": "StopPoint:59:4025327",
    "route_ref": "564"
  }
},
{
  "type": "node",
  "id": 5592618326,
  "lat": 48.8642998,
  "lon": 2.1662099,
  "tags": {
    "STIF:zone": "3",
    "bench": "no",
    "bus": "yes",
    "highway": "bus_stop",
    "name": "Bois Saint-Père",
    "public_transport": "platform",
    "ref:FR:STIF": "24768",
    "ref:FR:STIF:stop_id": "StopPoint:59:4025325",
    "route_ref": "564",
    "shelter": "no"
  }
},
{
  "type": "node",
  "id": 5592618327,
  "lat": 48.8630703,
  "lon": 2.1630389,
  "tags": {
    "STIF:zone": "3",
    "bus": "yes",
    "highway": "bus_stop",
    "name": "Bergerie",
    "public_transport": "platform",
    "ref:FR:STIF": "24765",
    "ref:FR:STIF:stop_id": "StopPoint:59:4025324",
    "route_ref": "564"
  }
},
{
  "type": "node",
  "id": 5592618328,
  "lat": 48.8618586,
  "lon": 2.1588835,
  "tags": {
    "STIF:zone": "4",
    "bench": "no",
    "bin": "no",
    "bus": "yes",
    "highway": "bus_stop",
    "lit": "no",
    "name": "Les Pince-Vins",
    "public_transport": "platform",
    "ref:FR:STIF": "24762",
    "ref:FR:STIF:stop_id": "StopPoint:59:4025323",
    "route_ref": "564",
    "shelter": "no",
    "tactile_paving": "no",
    "wikidata": "Q56868949"
  }
},
{
  "type": "node",
  "id": 5592618329,
  "lat": 48.8637989,
  "lon": 2.1627046,
  "tags": {
    "STIF:zone": "3",
    "bus": "yes",
    "highway": "bus_stop",
    "name": "Bergerie",
    "public_transport": "platform",
    "ref:FR:STIF": "24764",
    "ref:FR:STIF:stop_id": "StopPoint:59:4025322",
    "route_ref": "564"
  }
},
{
  "type": "node",
  "id": 5592618330,
  "lat": 48.8642001,
  "lon": 2.1660024,
  "tags": {
    "STIF:zone": "3",
    "bus": "yes",
    "highway": "bus_stop",
    "name": "Bois Saint-Père",
    "public_transport": "platform",
    "ref:FR:STIF": "24761",
    "ref:FR:STIF:stop_id": "StopPoint:59:4025321",
    "route_ref": "564",
    "shelter": "no"
  }
},
{
  "type": "node",
  "id": 5592618331,
  "lat": 48.8668840,
  "lon": 2.1683760,
  "tags": {
    "STIF:zone": "3",
    "bus": "yes",
    "highway": "bus_stop",
    "name": "Bretagne",
    "public_transport": "platform",
    "ref:FR:STIF": "10439",
    "ref:FR:STIF:stop_id": "StopPoint:59:4025320",
    "route_ref": "564"
  }
},
{
  "type": "node",
  "id": 5592618332,
  "lat": 48.8690740,
  "lon": 2.1723610,
  "tags": {
    "STIF:zone": "3",
    "bus": "yes",
    "highway": "bus_stop",
    "name": "Tuck Stell",
    "public_transport": "platform",
    "ref:FR:STIF": "36894",
    "ref:FR:STIF:stop_id": "StopPoint:59:4025319",
    "route_ref": "564"
  }
},
{
  "type": "node",
  "id": 5592618333,
  "lat": 48.8718202,
  "lon": 2.1763091,
  "tags": {
    "STIF:zone": "3",
    "bench": "no",
    "bus": "yes",
    "highway": "bus_stop",
    "name": "George Sand",
    "public_transport": "platform",
    "ref:FR:STIF": "24767",
    "ref:FR:STIF:stop_id": "StopPoint:59:4025318",
    "route_ref": "564",
    "shelter": "no",
    "wikidata": "Q56868619"
  }
},
{
  "type": "node",
  "id": 5592618334,
  "lat": 48.8735130,
  "lon": 2.1810544,
  "tags": {
    "STIF:zone": "3",
    "bus": "yes",
    "highway": "bus_stop",
    "name": "Place Richelieu",
    "public_transport": "platform",
    "ref:FR:STIF": "36778",
    "ref:FR:STIF:stop_id": "StopPoint:59:4025317",
    "route_ref": "564"
  }
},
{
  "type": "node",
  "id": 5592618335,
  "lat": 48.8758722,
  "lon": 2.1799616,
  "tags": {
    "STIF:zone": "3",
    "bus": "yes",
    "highway": "bus_stop",
    "name": "Église de Rueil",
    "public_transport": "platform",
    "ref:FR:STIF": "24727",
    "ref:FR:STIF:stop_id": "StopPoint:59:4025316",
    "route_ref": "564"
  }
},
{
  "type": "node",
  "id": 5592618336,
  "lat": 48.8748343,
  "lon": 2.1752004,
  "tags": {
    "STIF:zone": "3",
    "bench": "no",
    "bus": "yes",
    "highway": "bus_stop",
    "name": "Bois Preau",
    "public_transport": "platform",
    "ref:FR:STIF": "24766",
    "ref:FR:STIF:stop_id": "StopPoint:59:4025315",
    "route_ref": "564",
    "shelter": "no"
  }
},
{
  "type": "node",
  "id": 5592618337,
  "lat": 48.8746700,
  "lon": 2.1690868,
  "tags": {
    "STIF:zone": "3",
    "bus": "yes",
    "highway": "bus_stop",
    "name": "Place Osiris",
    "public_transport": "platform",
    "ref:FR:STIF": "24763",
    "ref:FR:STIF:stop_id": "StopPoint:59:4025314",
    "route_ref": "564",
    "wikidata": "Q56868618"
  }
},
{
  "type": "node",
  "id": 5592618338,
  "lat": 48.8735600,
  "lon": 2.1689522,
  "tags": {
    "STIF:zone": "3",
    "bus": "yes",
    "highway": "bus_stop",
    "name": "Collège La Malmaison",
    "public_transport": "platform",
    "ref:FR:STIF": "10438",
    "ref:FR:STIF:stop_id": "StopPoint:59:4025313",
    "route_ref": "564"
  }
},
{
  "type": "node",
  "id": 5592637529,
  "lat": 48.8666246,
  "lon": 2.1682484,
  "tags": {
    "STIF:zone": "3",
    "bus": "yes",
    "highway": "bus_stop",
    "name": "Bretagne",
    "public_transport": "platform",
    "ref:FR:STIF": "24759",
    "ref:FR:STIF:stop_id": "StopPoint:59:4025326",
    "route_ref": "564"
  }
},
{
  "type": "node",
  "id": 5716730555,
  "lat": 48.8870485,
  "lon": 2.1732388,
  "tags": {
    "STIF:zone": "3",
    "bus": "yes",
    "highway": "bus_stop",
    "name": "Rueil-Malmaison RER",
    "public_transport": "platform",
    "ref:FR:STIF": "34281",
    "ref:FR:STIF:stop_id": "StopPoint:17:1332;StopPoint:17:1272",
    "route_ref": "27",
    "shelter": "yes"
  }
},
{
  "type": "node",
  "id": 5716730562,
  "lat": 48.8701371,
  "lon": 2.1585686,
  "tags": {
    "STIF:zone": "4",
    "bus": "yes",
    "highway": "bus_stop",
    "name": "La Jonchère",
    "public_transport": "platform",
    "ref:FR:STIF": "34414",
    "route_ref": "27;258;259",
    "shelter": "yes",
    "source:wheelchair": "STIF 2018-07",
    "tactile_paving": "yes",
    "wheelchair": "yes"
  }
},
{
  "type": "node",
  "id": 5716928466,
  "lat": 48.8699684,
  "lon": 2.1582810,
  "tags": {
    "STIF:zone": "4",
    "bus": "yes",
    "highway": "bus_stop",
    "name": "La Jonchère",
    "public_transport": "platform",
    "ref:FR:STIF": "34245",
    "ref:FR:STIF:stop_id": "StopPoint:59:6195751",
    "route_ref": "258"
  }
},
{
  "type": "node",
  "id": 5931796946,
  "lat": 48.8595562,
  "lon": 2.1816302,
  "tags": {
    "STIF:zone": "3",
    "addr:city": "Rueil-Malmaison",
    "bench": "yes",
    "bus": "yes",
    "covered": "yes",
    "highway": "bus_stop",
    "name": "Collège Passy - Buzenval",
    "public_transport": "platform",
    "ref:FR:STIF": "28481",
    "route_ref": "111;141;163",
    "shelter": "yes",
    "source": "Bing",
    "source:wheelchair": "STIF 2019-01",
    "wheelchair": "yes",
    "wheelchair:description": "Il n'y a pas de bande podotactile au niveau des passages piétons alentours."
  }
},
{
  "type": "node",
  "id": 5931796972,
  "lat": 48.8594780,
  "lon": 2.1824743,
  "tags": {
    "STIF:zone": "3",
    "bench": "yes",
    "bin": "yes",
    "bus": "yes",
    "highway": "bus_stop",
    "lit": "yes",
    "name": "Collège Passy - Buzenval",
    "public_transport": "platform",
    "ref:FR:STIF": "36764",
    "ref:FR:STIF:stop_id": "StopPoint:59:7714258",
    "route_ref": "111;141;163;467",
    "shelter": "yes",
    "source:wheelchair": "STIF 2019-01",
    "tactile_paving": "no",
    "wheelchair": "yes"
  }
},
{
  "type": "node",
  "id": 6166228102,
  "lat": 48.8868867,
  "lon": 2.1700432,
  "tags": {
    "STIF:zone": "3",
    "bus": "yes",
    "highway": "bus_stop",
    "name": "Rueil-Malmaison RER",
    "public_transport": "platform",
    "ref:FR:STIF": "39992",
    "ref:FR:STIF:stop_id": "StopPoint:59:4035029",
    "route_ref": "B;N153"
  }
},
{
  "type": "node",
  "id": 6253913043,
  "lat": 48.8561405,
  "lon": 2.1941662,
  "tags": {
    "STIF:zone": "3",
    "bus": "yes",
    "highway": "bus_stop",
    "name": "Église de Buzenval",
    "public_transport": "platform",
    "ref:FR:STIF": "36000",
    "ref:FR:STIF:stop_id": "StopPoint:59:4532997",
    "route_ref": "459;467",
    "source:wheelchair": "STIF 2019-01",
    "wheelchair": "yes"
  }
},
{
  "type": "node",
  "id": 6253913045,
  "lat": 48.8570679,
  "lon": 2.1932859,
  "tags": {
    "STIF:zone": "3",
    "bus": "yes",
    "highway": "bus_stop",
    "name": "Église de Buzenval",
    "public_transport": "platform",
    "ref:FR:STIF": "35998;25989",
    "ref:FR:STIF:stop_id": "StopPoint:59:4532996;StopPoint:59:4025349",
    "route_ref": "459;565;467",
    "source:wheelchair": "STIF 2019-01",
    "wheelchair": "yes"
  }
},
{
  "type": "node",
  "id": 6253913046,
  "lat": 48.8552576,
  "lon": 2.1963878,
  "tags": {
    "STIF:zone": "3",
    "bench": "yes",
    "bin": "yes",
    "bus": "yes",
    "highway": "bus_stop",
    "lit": "yes",
    "name": "Les Suisses",
    "public_transport": "platform",
    "ref:FR:STIF": "25981",
    "ref:FR:STIF:stop_id": "StopPoint:59:4532995",
    "route_ref": "459;467",
    "shelter": "yes",
    "source:wheelchair": "STIF 2019-01",
    "tactile_paving": "no",
    "wheelchair": "yes"
  }
},
{
  "type": "node",
  "id": 6255606837,
  "lat": 48.8803406,
  "lon": 2.1960104,
  "tags": {
    "STIF:zone": "3",
    "bus": "yes",
    "highway": "bus_stop",
    "name": "Les Gibets",
    "public_transport": "platform",
    "ref:FR:STIF": "26241",
    "ref:FR:STIF:stop_id": "StopPoint:59:4109835",
    "route_ref": "563",
    "source:wheelchair": "STIF 2018-07",
    "wheelchair": "yes"
  }
},
{
  "type": "node",
  "id": 6255606838,
  "lat": 48.8787777,
  "lon": 2.1940792,
  "tags": {
    "STIF:zone": "3",
    "bus": "yes",
    "highway": "bus_stop",
    "name": "Danton - Gambetta",
    "public_transport": "platform",
    "ref:FR:STIF": "26239",
    "ref:FR:STIF:stop_id": "StopPoint:59:4109837",
    "route_ref": "563",
    "source:wheelchair": "STIF 2018-07",
    "wheelchair": "yes"
  }
},
{
  "type": "node",
  "id": 6255606862,
  "lat": 48.8749556,
  "lon": 2.1965791,
  "tags": {
    "STIF:zone": "3",
    "bus": "yes",
    "highway": "bus_stop",
    "name": "Le Brix",
    "public_transport": "platform",
    "ref:FR:STIF": "26240",
    "ref:FR:STIF:stop_id": "StopPoint:59:4109842",
    "route_ref": "563",
    "source:wheelchair": "STIF 2018-07",
    "wheelchair": "yes"
  }
},
{
  "type": "node",
  "id": 6255606865,
  "lat": 48.8786114,
  "lon": 2.1937025,
  "tags": {
    "STIF:zone": "3",
    "bus": "yes",
    "highway": "bus_stop",
    "name": "Danton - Gambetta",
    "public_transport": "platform",
    "ref:FR:STIF": "24989",
    "ref:FR:STIF:stop_id": "StopPoint:59:4109836",
    "route_ref": "563",
    "source:wheelchair": "STIF 2018-07",
    "wheelchair": "yes"
  }
},
{
  "type": "node",
  "id": 6255606866,
  "lat": 48.8805190,
  "lon": 2.1961130,
  "tags": {
    "STIF:zone": "3",
    "bus": "yes",
    "highway": "bus_stop",
    "name": "Les Gibets",
    "public_transport": "platform",
    "ref:FR:STIF": "24990",
    "ref:FR:STIF:stop_id": "StopPoint:59:4109834",
    "route_ref": "563",
    "source:wheelchair": "STIF 2018-07",
    "wheelchair": "yes"
  }
},
{
  "type": "node",
  "id": 6255803017,
  "lat": 48.8768740,
  "lon": 2.1848990,
  "tags": {
    "STIF:zone": "3",
    "bench": "yes",
    "bus": "yes",
    "highway": "bus_stop",
    "name": "Hôpital Stell",
    "public_transport": "platform",
    "ref:FR:STIF": "7927",
    "ref:FR:STIF:stop_id": "StopPoint:59:4025036",
    "route_ref": "565;144;467",
    "shelter": "yes",
    "source:wheelchair": "STIF 2019-01",
    "wheelchair": "yes"
  }
},
{
  "type": "node",
  "id": 6255803021,
  "lat": 48.8653384,
  "lon": 2.1874829,
  "tags": {
    "STIF:zone": "3",
    "bench": "yes",
    "bus": "yes",
    "highway": "bus_stop",
    "name": "Primevères",
    "public_transport": "platform",
    "ref:FR:STIF": "41714",
    "ref:FR:STIF:stop_id": "StopPoint:59:4025340",
    "route_ref": "565",
    "shelter": "no",
    "source:wheelchair": "STIF 2018-07",
    "wheelchair": "yes"
  }
},
{
  "type": "node",
  "id": 6255803024,
  "lat": 48.8594363,
  "lon": 2.1947031,
  "tags": {
    "STIF:zone": "3",
    "bus": "yes",
    "highway": "bus_stop",
    "name": "Dumouriez",
    "public_transport": "platform",
    "ref:FR:STIF": "28911",
    "ref:FR:STIF:stop_id": "StopPoint:59:4025346",
    "route_ref": "565",
    "source:wheelchair": "STIF 2018-07",
    "wheelchair": "yes"
  }
},
{
  "type": "node",
  "id": 6255803026,
  "lat": 48.8575297,
  "lon": 2.1901059,
  "tags": {
    "STIF:zone": "3",
    "bus": "yes",
    "highway": "bus_stop",
    "name": "Place de Buzenval",
    "public_transport": "platform",
    "ref:FR:STIF": "19744",
    "ref:FR:STIF:stop_id": "StopPoint:59:4025348",
    "route_ref": "565",
    "source:wheelchair": "STIF 2018-07",
    "wheelchair": "yes",
    "wikidata": "Q56869001"
  }
},
{
  "type": "node",
  "id": 6255803028,
  "lat": 48.8594575,
  "lon": 2.1945928,
  "tags": {
    "STIF:zone": "3",
    "bus": "yes",
    "highway": "bus_stop",
    "name": "Dumouriez",
    "public_transport": "platform",
    "ref:FR:STIF": "26245",
    "ref:FR:STIF:stop_id": "StopPoint:59:4025345",
    "route_ref": "565",
    "source:wheelchair": "STIF 2018-07",
    "wheelchair": "yes"
  }
},
{
  "type": "node",
  "id": 6255803031,
  "lat": 48.8648411,
  "lon": 2.1876953,
  "tags": {
    "STIF:zone": "3",
    "bench": "no",
    "bus": "yes",
    "highway": "bus_stop",
    "name": "Primevères",
    "public_transport": "platform",
    "ref:FR:STIF": "39390",
    "ref:FR:STIF:stop_id": "StopPoint:59:4025339",
    "route_ref": "565",
    "shelter": "no",
    "source:wheelchair": "STIF 2018-07",
    "wheelchair": "yes"
  }
},
{
  "type": "node",
  "id": 6255803032,
  "lat": 48.8661420,
  "lon": 2.1845620,
  "tags": {
    "STIF:zone": "3",
    "bench": "no",
    "bus": "yes",
    "highway": "bus_stop",
    "name": "Fond Louvet",
    "public_transport": "platform",
    "ref:FR:STIF": "22071",
    "ref:FR:STIF:stop_id": "StopPoint:59:4025338",
    "route_ref": "565",
    "shelter": "no",
    "source:wheelchair": "STIF 2018-07",
    "tactile_paving": "no",
    "wheelchair": "yes",
    "wikidata": "Q56869190"
  }
},
{
  "type": "node",
  "id": 6255803033,
  "lat": 48.8687906,
  "lon": 2.1874244,
  "tags": {
    "STIF:zone": "3",
    "bench": "yes",
    "bin": "yes",
    "bus": "yes",
    "highway": "bus_stop",
    "name": "Place Besche",
    "public_transport": "platform",
    "ref:FR:STIF": "7926",
    "ref:FR:STIF:stop_id": "StopPoint:59:4024230",
    "route_ref": "144;N53",
    "shelter": "yes",
    "source:wheelchair": "STIF 2019-01",
    "tactile_paving": "no",
    "wheelchair": "yes"
  }
},
{
  "type": "node",
  "id": 6262927717,
  "lat": 48.8626914,
  "lon": 2.1908636,
  "tags": {
    "STIF:zone": "3",
    "bus": "yes",
    "highway": "bus_stop",
    "name": "Carrey de Bellemare",
    "public_transport": "platform",
    "ref:FR:STIF": "36752",
    "ref:FR:STIF:stop_id": "StopPoint:59:4024063",
    "route_ref": "141",
    "shelter": "no",
    "source:wheelchair": "STIF 2019-01",
    "wheelchair": "yes"
  }
},
{
  "type": "node",
  "id": 6262927719,
  "lat": 48.8595201,
  "lon": 2.1902357,
  "tags": {
    "STIF:zone": "3",
    "bus": "yes",
    "highway": "bus_stop",
    "name": "Henri Regnault",
    "public_transport": "platform",
    "ref:FR:STIF": "7910",
    "ref:FR:STIF:stop_id": "StopPoint:59:4024067",
    "route_ref": "141",
    "source:wheelchair": "STIF 2019-01",
    "wheelchair": "yes"
  }
},
{
  "type": "node",
  "id": 6262927736,
  "lat": 48.8592845,
  "lon": 2.1898873,
  "tags": {
    "STIF:zone": "3",
    "bus": "yes",
    "highway": "bus_stop",
    "name": "Henri Regnault",
    "public_transport": "platform",
    "ref:FR:STIF": "7903",
    "ref:FR:STIF:stop_id": "StopPoint:59:4024066",
    "route_ref": "141",
    "shelter": "yes",
    "source:wheelchair": "STIF 2019-01",
    "wheelchair": "yes"
  }
},
{
  "type": "node",
  "id": 6262927737,
  "lat": 48.8607040,
  "lon": 2.1904388,
  "tags": {
    "STIF:zone": "3",
    "bench": "yes",
    "bin": "yes",
    "bus": "yes",
    "highway": "bus_stop",
    "name": "Dumouriez",
    "public_transport": "platform",
    "ref:FR:STIF": "39359",
    "ref:FR:STIF:stop_id": "StopPoint:59:4024064",
    "route_ref": "141",
    "shelter": "yes",
    "source:wheelchair": "STIF 2019-01",
    "wheelchair": "yes"
  }
},
{
  "type": "node",
  "id": 6262927738,
  "lat": 48.8626948,
  "lon": 2.1907426,
  "tags": {
    "STIF:zone": "3",
    "bench": "yes",
    "bin": "yes",
    "bus": "yes",
    "highway": "bus_stop",
    "name": "Carrey de Bellemare",
    "public_transport": "platform",
    "ref:FR:STIF": "39354",
    "ref:FR:STIF:stop_id": "StopPoint:59:4024152",
    "route_ref": "141",
    "shelter": "yes",
    "source:wheelchair": "STIF 2019-01",
    "wheelchair": "yes"
  }
},
{
  "type": "node",
  "id": 6262927753,
  "lat": 48.8613904,
  "lon": 2.1710646,
  "tags": {
    "STIF:zone": "3",
    "bus": "yes",
    "highway": "bus_stop",
    "name": "Centre Madeleine Danielou",
    "public_transport": "platform",
    "ref:FR:STIF": "36758",
    "ref:FR:STIF:stop_id": "StopPoint:59:7714260",
    "route_ref": "141;163",
    "source:wheelchair": "STIF 2019-01",
    "wheelchair": "yes",
    "wikidata": "Q56857755"
  }
},
{
  "type": "node",
  "id": 6299880032,
  "lat": 48.8871821,
  "lon": 2.1728589,
  "tags": {
    "STIF:zone": "3",
    "bus": "yes",
    "highway": "bus_stop",
    "name": "Rueil-Malmaison RER",
    "network": "RATP",
    "network:wikidata": "Q474674",
    "network:wikipedia": "fr:Réseau de bus RATP",
    "operator:wikidata": "Q643290",
    "operator:wikipedia": "fr:Régie autonome des transports parisiens",
    "public_transport": "platform",
    "ref:FR:STIF": "413156",
    "ref:FR:STIF:stop_id": "StopPoint:59:4024592",
    "route_ref": "241",
    "shelter": "yes",
    "source:wheelchair": "STIF 2019-01",
    "wheelchair": "yes"
  }
},
{
  "type": "node",
  "id": 6320749251,
  "lat": 48.8873962,
  "lon": 2.1727705,
  "tags": {
    "STIF:zone": "3",
    "bus": "yes",
    "highway": "bus_stop",
    "name": "Rueil-Malmaison RER",
    "network": "RATP",
    "network:wikidata": "Q474674",
    "network:wikipedia": "fr:Réseau de bus RATP",
    "operator:wikidata": "Q643290",
    "operator:wikipedia": "fr:Régie autonome des transports parisiens",
    "public_transport": "platform",
    "ref:FR:STIF": "421321",
    "ref:FR:STIF:stop_id": "StopPoint:59:5761374",
    "route_ref": "244",
    "shelter": "yes",
    "source:wheelchair": "STIF 2019-01",
    "wheelchair": "yes"
  }
},
{
  "type": "node",
  "id": 6320749252,
  "lat": 48.8807172,
  "lon": 2.1796355,
  "tags": {
    "STIF:zone": "3",
    "bench": "yes",
    "bin": "yes",
    "bus": "yes",
    "highway": "bus_stop",
    "lit": "yes",
    "name": "Albert 1er - Rueil Ville",
    "public_transport": "platform",
    "ref:FR:STIF": "25983",
    "ref:FR:STIF:stop_id": "StopPoint:59:5251793",
    "route_ref": "144;244;467",
    "shelter": "yes",
    "source:wheelchair": "STIF 2019-01",
    "tactile_paving": "no",
    "wheelchair": "yes"
  }
},
{
  "type": "node",
  "id": 6320749253,
  "lat": 48.8806270,
  "lon": 2.1823670,
  "tags": {
    "STIF:zone": "3",
    "bench": "yes",
    "bin": "yes",
    "bus": "yes",
    "highway": "bus_stop",
    "name": "Rueil Ville",
    "network": "RATP",
    "network:wikidata": "Q474674",
    "network:wikipedia": "fr:Réseau de bus RATP",
    "operator:wikidata": "Q643290",
    "operator:wikipedia": "fr:Régie autonome des transports parisiens",
    "public_transport": "platform",
    "ref:FR:STIF": "25986",
    "ref:FR:STIF:stop_id": "StopPoint:59:5251791",
    "route_ref": "244",
    "shelter": "yes",
    "source:wheelchair": "STIF 2019-01",
    "tactile_paving": "no",
    "wheelchair": "yes"
  }
},
{
  "type": "node",
  "id": 6384572186,
  "lat": 48.8645800,
  "lon": 2.1725660,
  "tags": {
    "STIF:zone": "3",
    "bus": "yes",
    "highway": "bus_stop",
    "name": "Bretagne",
    "public_transport": "platform",
    "ref:FR:STIF": "8377",
    "ref:FR:STIF:stop_id": "StopPoint:59:4025071",
    "route_ref": "467",
    "source:wheelchair": "STIF 2019-01",
    "wheelchair": "yes"
  }
},
{
  "type": "node",
  "id": 6384572188,
  "lat": 48.8803701,
  "lon": 2.1808948,
  "tags": {
    "STIF:zone": "3",
    "bench": "yes",
    "bus": "yes",
    "highway": "bus_stop",
    "name": "Rueil - Ville",
    "network": "RATP",
    "network:wikidata": "Q474674",
    "network:wikipedia": "fr:Réseau de bus RATP",
    "operator:wikidata": "Q643290",
    "operator:wikipedia": "fr:Régie autonome des transports parisiens",
    "public_transport": "platform",
    "ref:FR:STIF": "39368",
    "ref:FR:STIF:stop_id": "StopPoint:59:4024245",
    "route_ref": "467",
    "shelter": "yes",
    "source:wheelchair": "STIF 2019-01",
    "tactile_paving": "no",
    "wheelchair": "yes"
  }
},
{
  "type": "node",
  "id": 6384572194,
  "lat": 48.8580207,
  "lon": 2.1844647,
  "tags": {
    "STIF:zone": "3",
    "bench": "yes",
    "bus": "yes",
    "highway": "bus_stop",
    "name": "Le Champtier",
    "public_transport": "platform",
    "ref:FR:STIF": "25230",
    "ref:FR:STIF:stop_id": "StopPoint:59:4025075",
    "route_ref": "467",
    "shelter": "yes",
    "source:wheelchair": "STIF 2019-01",
    "wheelchair": "yes",
    "wikidata": "Q56859839"
  }
},
{
  "type": "node",
  "id": 6384572195,
  "lat": 48.8593430,
  "lon": 2.1828530,
  "tags": {
    "STIF:zone": "3",
    "bus": "yes",
    "highway": "bus_stop",
    "name": "Collège Passy - Buzenval",
    "public_transport": "platform",
    "ref:FR:STIF": "28776",
    "ref:FR:STIF:stop_id": "StopPoint:59:4025074",
    "route_ref": "467",
    "shelter": "yes",
    "source:wheelchair": "STIF 2019-01",
    "wheelchair": "yes"
  }
},
{
  "type": "node",
  "id": 6384572201,
  "lat": 48.8869714,
  "lon": 2.1729223,
  "tags": {
    "STIF:zone": "3",
    "bus": "yes",
    "highway": "bus_stop",
    "name": "Rueil-Malmaison RER",
    "public_transport": "platform",
    "ref:FR:STIF": "413381",
    "ref:FR:STIF:stop_id": "StopPoint:59:4025044",
    "route_ref": "467",
    "source:wheelchair": "STIF 2019-01",
    "wheelchair": "yes"
  }
},
{
  "type": "node",
  "id": 6384572202,
  "lat": 48.8674671,
  "lon": 2.1754627,
  "tags": {
    "STIF:zone": "3",
    "bench": "yes",
    "bus": "yes",
    "highway": "bus_stop",
    "name": "Général de Miribel",
    "public_transport": "platform",
    "ref:FR:STIF": "8376",
    "ref:FR:STIF:stop_id": "StopPoint:59:4025024",
    "route_ref": "467",
    "shelter": "yes",
    "source:wheelchair": "STIF 2019-01",
    "wheelchair": "yes"
  }
},
{
  "type": "node",
  "id": 6384572203,
  "lat": 48.8647145,
  "lon": 2.1728554,
  "tags": {
    "STIF:zone": "3",
    "bus": "yes",
    "highway": "bus_stop",
    "name": "Bretagne",
    "public_transport": "platform",
    "ref:FR:STIF": "8378",
    "ref:FR:STIF:stop_id": "StopPoint:59:4025022",
    "route_ref": "467",
    "source:wheelchair": "STIF 2019-01",
    "wheelchair": "yes"
  }
},
{
  "type": "node",
  "id": 6465967724,
  "lat": 48.8870361,
  "lon": 2.1712954,
  "tags": {
    "STIF:zone": "3",
    "bus": "yes",
    "highway": "bus_stop",
    "name": "Rueil-Malmaison RER",
    "network": "RATP",
    "network:wikidata": "Q474674",
    "network:wikipedia": "fr:Réseau de bus RATP",
    "operator:wikidata": "Q643290",
    "operator:wikipedia": "fr:Régie autonome des transports parisiens",
    "public_transport": "platform",
    "ref:FR:STIF": "413101",
    "ref:FR:STIF:stop_id": "StopPoint:59:3877805",
    "route_ref": "158",
    "source:wheelchair": "STIF 2019-01",
    "wheelchair": "no"
  }
},
{
  "type": "node",
  "id": 6465967725,
  "lat": 48.8871304,
  "lon": 2.1715780,
  "tags": {
    "STIF:zone": "3",
    "bus": "yes",
    "highway": "bus_stop",
    "name": "Rueil-Malmaison RER",
    "network": "RATP",
    "network:wikidata": "Q474674",
    "network:wikipedia": "fr:Réseau de bus RATP",
    "operator:wikidata": "Q643290",
    "operator:wikipedia": "fr:Régie autonome des transports parisiens",
    "public_transport": "platform",
    "ref:FR:STIF": "413102",
    "ref:FR:STIF:stop_id": "StopPoint:59:3877804",
    "route_ref": "158",
    "source:wheelchair": "STIF 2019-01",
    "wheelchair": "no"
  }
},
{
  "type": "node",
  "id": 7427968300,
  "lat": 48.8888637,
  "lon": 2.1790896,
  "tags": {
    "bench": "no",
    "bin": "no",
    "bus": "yes",
    "highway": "bus_stop",
    "lit": "yes",
    "name": "D'Estienne d'Orves",
    "public_transport": "platform",
    "shelter": "no",
    "tactile_paving": "no"
  }
}

  ]
}
