{
  "version": 0.6,
  "generator": "Overpass API 0.7.57 93a4d346",
  "osm3s": {
    "timestamp_osm_base": "2022-02-13T13:29:38Z",
    "timestamp_areas_base": "2022-02-13T06:31:57Z",
    "copyright": "The data included in this document is from www.openstreetmap.org. The data is made available under ODbL."
  },
  "elements": [

{
  "type": "node",
  "id": 485996155,
  "lat": 45.4225819,
  "lon": 4.4251965,
  "tags": {
    "bench": "yes",
    "bin": "yes",
    "highway": "bus_stop",
    "name": "Faculté des Sciences",
    "network": "STAS",
    "public_transport": "platform",
    "shelter": "yes",
    "tactile_paving": "no"
  }
},
{
  "type": "node",
  "id": 485996168,
  "lat": 45.4226615,
  "lon": 4.4252709,
  "tags": {
    "bench": "yes",
    "bin": "yes",
    "highway": "bus_stop",
    "name": "Faculté des Sciences",
    "network": "STAS",
    "public_transport": "platform",
    "shelter": "yes",
    "tactile_paving": "no"
  }
},
{
  "type": "node",
  "id": 485996174,
  "lat": 45.4187577,
  "lon": 4.4224841,
  "tags": {
    "bench": "yes",
    "bin": "yes",
    "highway": "bus_stop",
    "name": "La Métare",
    "public_transport": "platform",
    "shelter": "yes",
    "tactile_paving": "no"
  }
},
{
  "type": "node",
  "id": 486555372,
  "lat": 45.4200834,
  "lon": 4.4251719,
  "tags": {
    "bench": "no",
    "bin": "no",
    "highway": "bus_stop",
    "name": "Nicolas Mignard",
    "public_transport": "platform",
    "shelter": "yes",
    "tactile_paving": "no"
  }
},
{
  "type": "node",
  "id": 487901758,
  "lat": 45.4177491,
  "lon": 4.4113834,
  "tags": {
    "bench": "yes",
    "bin": "yes",
    "highway": "bus_stop",
    "name": "Jean Monnet",
    "public_transport": "platform",
    "shelter": "yes",
    "source": "cadastre-dgi-fr source : Direction Générale des Impôts - Cadastre ; mise à jour : 2009",
    "tactile_paving": "no"
  }
},
{
  "type": "node",
  "id": 487901773,
  "lat": 45.4169955,
  "lon": 4.4118373,
  "tags": {
    "bench": "yes",
    "bin": "yes",
    "bus": "yes",
    "highway": "bus_stop",
    "name": "Jean Monnet",
    "network": "STAS",
    "public_transport": "platform",
    "shelter": "yes",
    "source": "cadastre-dgi-fr source : Direction Générale des Impôts - Cadastre;mise à jour : 2009",
    "tactile_paving": "no"
  }
},
{
  "type": "node",
  "id": 504640239,
  "lat": 45.4254922,
  "lon": 4.4217398,
  "tags": {
    "bench": "yes",
    "bin": "yes",
    "highway": "bus_stop",
    "name": "L'Angélus",
    "public_transport": "platform",
    "shelter": "yes",
    "tactile_paving": "no"
  }
},
{
  "type": "node",
  "id": 504640242,
  "lat": 45.4253537,
  "lon": 4.4217204,
  "tags": {
    "bench": "no",
    "bin": "no",
    "highway": "bus_stop",
    "name": "L'Angélus",
    "network": "STAS",
    "public_transport": "platform",
    "shelter": "no",
    "tactile_paving": "no"
  }
},
{
  "type": "node",
  "id": 504640244,
  "lat": 45.4196932,
  "lon": 4.4244451,
  "tags": {
    "bench": "no",
    "bin": "yes",
    "highway": "bus_stop",
    "name": "Nicolas Mignard",
    "network": "STAS",
    "public_transport": "platform",
    "shelter": "no",
    "source": "cadastre-dgi-fr source : Direction Générale des Impôts - Cadastre. Mise à jour : 2010",
    "tactile_paving": "no"
  }
},
{
  "type": "node",
  "id": 504650072,
  "lat": 45.4275273,
  "lon": 4.4177476,
  "tags": {
    "bench": "yes",
    "highway": "bus_stop",
    "name": "Marandinière",
    "network": "STAS",
    "public_transport": "platform",
    "shelter": "yes",
    "source": "cadastre-dgi-fr source : Direction Générale des Impôts - Cadastre;mise à jour : 2009"
  }
},
{
  "type": "node",
  "id": 504650073,
  "lat": 45.4273712,
  "lon": 4.4177896,
  "tags": {
    "bench": "yes",
    "bin": "yes",
    "highway": "bus_stop",
    "name": "Marandinière",
    "network": "STAS",
    "public_transport": "platform",
    "shelter": "yes"
  }
},
{
  "type": "node",
  "id": 504650074,
  "lat": 45.4271017,
  "lon": 4.4184844,
  "tags": {
    "highway": "bus_stop",
    "name": "Marandinière",
    "shelter": "yes",
    "source": "cadastre-dgi-fr source : Direction Générale des Impôts - Cadastre ; mise à jour : 2009"
  }
},
{
  "type": "node",
  "id": 505561318,
  "lat": 45.4159832,
  "lon": 4.4113011,
  "tags": {
    "bench": "no",
    "bin": "no",
    "bus": "yes",
    "highway": "bus_stop",
    "name": "Portail Rouge",
    "public_transport": "stop_position",
    "route_ref": "34",
    "shelter": "no",
    "source": "cadastre-dgi-fr source : Direction Générale des Impôts - Cadastre ; mise à jour : 2009",
    "tactile_paving": "no"
  }
},
{
  "type": "node",
  "id": 505561320,
  "lat": 45.4161328,
  "lon": 4.4110650,
  "tags": {
    "bench": "no",
    "bin": "no",
    "bus": "yes",
    "highway": "bus_stop",
    "name": "Portail Rouge",
    "public_transport": "stop_position",
    "route_ref": "34",
    "shelter": "no",
    "source": "cadastre-dgi-fr source : Direction Générale des Impôts - Cadastre ; mise à jour : 2009",
    "tactile_paving": "no"
  }
},
{
  "type": "node",
  "id": 636058192,
  "lat": 45.4302939,
  "lon": 4.3854451,
  "tags": {
    "bench": "yes",
    "highway": "bus_stop",
    "name": "Bel Horizon",
    "public_transport": "platform",
    "shelter": "yes",
    "tactile_paving": "no"
  }
},
{
  "type": "node",
  "id": 638769990,
  "lat": 45.4367175,
  "lon": 4.3936891,
  "tags": {
    "bench": "yes",
    "bin": "yes",
    "highway": "bus_stop",
    "lit": "yes",
    "name": "Jean Moulin",
    "network": "STAS",
    "public_transport": "platform",
    "route_ref": "6",
    "shelter": "yes",
    "source": "cadastre-dgi-fr source : Direction Générale des Impôts - Cadastre. Mise à jour : 2010",
    "tactile_paving": "no"
  }
},
{
  "type": "node",
  "id": 638769991,
  "lat": 45.4369949,
  "lon": 4.3933115,
  "tags": {
    "bench": "yes",
    "bin": "yes",
    "highway": "bus_stop",
    "lit": "yes",
    "name": "Jean Moulin",
    "public_transport": "platform",
    "shelter": "yes",
    "tactile_paving": "no"
  }
},
{
  "type": "node",
  "id": 638769992,
  "lat": 45.4371558,
  "lon": 4.3946486,
  "tags": {
    "bench": "no",
    "highway": "bus_stop",
    "name": "Lycée Fauriel",
    "public_transport": "platform",
    "shelter": "yes"
  }
},
{
  "type": "node",
  "id": 638769993,
  "lat": 45.4372745,
  "lon": 4.3932582,
  "tags": {
    "bench": "yes",
    "bin": "yes",
    "check_date:bench": "2021-04-30",
    "highway": "bus_stop",
    "lit": "no",
    "name": "Jean Moulin",
    "public_transport": "platform",
    "shelter": "yes"
  }
},
{
  "type": "node",
  "id": 638769994,
  "lat": 45.4374867,
  "lon": 4.3932822,
  "tags": {
    "bench": "yes",
    "bin": "yes",
    "check_date:bench": "2021-04-30",
    "highway": "bus_stop",
    "lit": "yes",
    "name": "Jean Moulin",
    "public_transport": "platform",
    "shelter": "yes",
    "source": "cadastre-dgi-fr source : Direction Générale des Impôts - Cadastre. Mise à jour : 2010",
    "tactile_paving": "no"
  }
},
{
  "type": "node",
  "id": 638769995,
  "lat": 45.4544306,
  "lon": 4.3911358,
  "tags": {
    "highway": "bus_stop",
    "name": "Rue des Aciéries",
    "operator": "STAS",
    "public_transport": "platform"
  }
},
{
  "type": "node",
  "id": 638769996,
  "lat": 45.4538951,
  "lon": 4.3907405,
  "tags": {
    "highway": "bus_stop",
    "name": "Rue des Aciéries",
    "operator": "STAS",
    "public_transport": "platform",
    "source": "cadastre-dgi-fr source : Direction Générale des Impôts - Cadastre. Mise à jour : 2010"
  }
},
{
  "type": "node",
  "id": 638769997,
  "lat": 45.4573225,
  "lon": 4.3929638,
  "tags": {
    "bench": "yes",
    "highway": "bus_stop",
    "name": "Productique",
    "operator": "STAS",
    "public_transport": "platform",
    "shelter": "yes",
    "source": "cadastre-dgi-fr source : Direction Générale des Impôts - Cadastre. Mise à jour : 2010",
    "tactile_paving": "no"
  }
},
{
  "type": "node",
  "id": 638769998,
  "lat": 45.4575617,
  "lon": 4.3936169,
  "tags": {
    "highway": "bus_stop",
    "name": "Productique",
    "operator": "STAS",
    "public_transport": "platform",
    "shelter": "no",
    "tactile_paving": "no"
  }
},
{
  "type": "node",
  "id": 638770000,
  "lat": 45.4284616,
  "lon": 4.4057114,
  "tags": {
    "bench": "no",
    "highway": "bus_stop",
    "name": "Liogier",
    "public_transport": "platform",
    "shelter": "no"
  }
},
{
  "type": "node",
  "id": 638770003,
  "lat": 45.4281298,
  "lon": 4.4153381,
  "tags": {
    "highway": "bus_stop",
    "name": "Centre Commercial Montchovet",
    "public_transport": "platform",
    "route_ref": "M2",
    "source": "cadastre-dgi-fr source : Direction Générale des Impôts - Cadastre. Mise à jour : 2010"
  }
},
{
  "type": "node",
  "id": 638770004,
  "lat": 45.4311095,
  "lon": 4.3953383,
  "tags": {
    "bench": "no",
    "highway": "bus_stop",
    "name": "Conservatoire",
    "public_transport": "platform",
    "shelter": "no"
  }
},
{
  "type": "node",
  "id": 638770005,
  "lat": 45.4290959,
  "lon": 4.3997615,
  "tags": {
    "highway": "bus_stop",
    "name": "Résidence Guinard",
    "public_transport": "platform",
    "route_ref": "9",
    "source": "cadastre-dgi-fr source : Direction Générale des Impôts - Cadastre. Mise à jour : 2010"
  }
},
{
  "type": "node",
  "id": 638770007,
  "lat": 45.4335762,
  "lon": 4.3952532,
  "tags": {
    "highway": "bus_stop",
    "name": "Place Villebœuf",
    "public_transport": "platform",
    "route_ref": "6;7;9",
    "source": "cadastre-dgi-fr source : Direction Générale des Impôts - Cadastre. Mise à jour : 2010"
  }
},
{
  "type": "node",
  "id": 638770010,
  "lat": 45.4290105,
  "lon": 4.4007294,
  "tags": {
    "highway": "bus_stop",
    "name": "Résidence Guinard",
    "public_transport": "platform",
    "route_ref": "9",
    "source": "cadastre-dgi-fr source : Direction Générale des Impôts - Cadastre. Mise à jour : 2010"
  }
},
{
  "type": "node",
  "id": 638770011,
  "lat": 45.4286243,
  "lon": 4.4038100,
  "tags": {
    "highway": "bus_stop",
    "name": "Louis Blanc",
    "public_transport": "platform",
    "route_ref": "9",
    "source": "cadastre-dgi-fr source : Direction Générale des Impôts - Cadastre. Mise à jour : 2010"
  }
},
{
  "type": "node",
  "id": 638770012,
  "lat": 45.4286764,
  "lon": 4.4032304,
  "tags": {
    "highway": "bus_stop",
    "name": "Louis Blanc",
    "public_transport": "platform",
    "route_ref": "9",
    "source": "cadastre-dgi-fr source : Direction Générale des Impôts - Cadastre. Mise à jour : 2010"
  }
},
{
  "type": "node",
  "id": 638770013,
  "lat": 45.4394611,
  "lon": 4.3974115,
  "tags": {
    "bench": "yes",
    "bin": "yes",
    "check_date:shelter": "2021-09-14",
    "highway": "bus_stop",
    "name": "Fourneyron",
    "public_transport": "platform",
    "shelter": "yes",
    "tactile_paving": "no"
  }
},
{
  "type": "node",
  "id": 638770014,
  "lat": 45.4387721,
  "lon": 4.3967674,
  "tags": {
    "bench": "yes",
    "check_date:bench": "2021-04-30",
    "highway": "bus_stop",
    "name": "Chantegrillet",
    "public_transport": "platform",
    "shelter": "yes"
  }
},
{
  "type": "node",
  "id": 638770015,
  "lat": 45.4288830,
  "lon": 4.4081642,
  "tags": {
    "bench": "no",
    "highway": "bus_stop",
    "name": "Pierre Blachon",
    "public_transport": "platform",
    "shelter": "no"
  }
},
{
  "type": "node",
  "id": 638770016,
  "lat": 45.4288346,
  "lon": 4.4073252,
  "tags": {
    "bench": "no",
    "highway": "bus_stop",
    "name": "Pierre Blachon",
    "public_transport": "platform",
    "shelter": "no"
  }
},
{
  "type": "node",
  "id": 638770017,
  "lat": 45.4294109,
  "lon": 4.4107566,
  "tags": {
    "bench": "yes",
    "highway": "bus_stop",
    "name": "Beaulieu",
    "public_transport": "platform",
    "shelter": "yes"
  }
},
{
  "type": "node",
  "id": 638770018,
  "lat": 45.4286694,
  "lon": 4.4096345,
  "tags": {
    "bench": "no",
    "highway": "bus_stop",
    "name": "Beaulieu",
    "public_transport": "platform",
    "shelter": "no"
  }
},
{
  "type": "node",
  "id": 638770019,
  "lat": 45.4286921,
  "lon": 4.4145250,
  "tags": {
    "bench": "yes",
    "highway": "bus_stop",
    "name": "C.C. Montchovet",
    "network": "STAS",
    "public_transport": "platform",
    "shelter": "yes"
  }
},
{
  "type": "node",
  "id": 638770025,
  "lat": 45.4425430,
  "lon": 4.3988450,
  "tags": {
    "bench": "no",
    "bin": "yes",
    "highway": "bus_stop",
    "lit": "no",
    "name": "Châteaucreux",
    "public_transport": "platform",
    "shelter": "yes",
    "tactile_paving": "no"
  }
},
{
  "type": "node",
  "id": 638770031,
  "lat": 45.4460293,
  "lon": 4.3979215,
  "tags": {
    "highway": "bus_stop",
    "name": "Louis Soulié",
    "operator": "STAS",
    "public_transport": "platform",
    "route_ref": "9",
    "source": "cadastre-dgi-fr source : Direction Générale des Impôts - Cadastre. Mise à jour : 2010"
  }
},
{
  "type": "node",
  "id": 638770032,
  "lat": 45.4472404,
  "lon": 4.3982551,
  "tags": {
    "bus": "yes",
    "highway": "bus_stop",
    "name": "Tiblier Verne",
    "operator": "STAS",
    "public_transport": "platform",
    "route_ref": "9",
    "source": "cadastre-dgi-fr source : Direction Générale des Impôts - Cadastre. Mise à jour : 2010"
  }
},
{
  "type": "node",
  "id": 638770033,
  "lat": 45.4462807,
  "lon": 4.4005123,
  "tags": {
    "highway": "bus_stop",
    "name": "Collège J. Vallès",
    "operator": "STAS",
    "public_transport": "platform",
    "route_ref": "9",
    "source": "cadastre-dgi-fr source : Direction Générale des Impôts - Cadastre. Mise à jour : 2010"
  }
},
{
  "type": "node",
  "id": 638770034,
  "lat": 45.4484982,
  "lon": 4.4017823,
  "tags": {
    "highway": "bus_stop",
    "name": "Place Dumay",
    "public_transport": "platform"
  }
},
{
  "type": "node",
  "id": 638770035,
  "lat": 45.4488911,
  "lon": 4.4012422,
  "tags": {
    "highway": "bus_stop",
    "name": "Place Dumay",
    "public_transport": "platform"
  }
},
{
  "type": "node",
  "id": 656670115,
  "lat": 45.4258586,
  "lon": 4.3881654,
  "tags": {
    "bench": "no",
    "check_date:shelter": "2021-01-17",
    "highway": "bus_stop",
    "name": "Émile Reymond",
    "public_transport": "platform",
    "shelter": "no",
    "tactile_paving": "no"
  }
},
{
  "type": "node",
  "id": 660771619,
  "lat": 45.4152900,
  "lon": 4.3934135,
  "tags": {
    "bench": "yes",
    "highway": "bus_stop",
    "name": "Bellevue",
    "public_transport": "platform",
    "shelter": "yes"
  }
},
{
  "type": "node",
  "id": 660771628,
  "lat": 45.4258156,
  "lon": 4.3880370,
  "tags": {
    "bench": "no",
    "highway": "bus_stop",
    "name": "Émile Reymond",
    "public_transport": "platform",
    "shelter": "no",
    "tactile_paving": "no"
  }
},
{
  "type": "node",
  "id": 660771637,
  "lat": 45.4241491,
  "lon": 4.3892068,
  "tags": {
    "bench": "yes",
    "check_date:shelter": "2021-01-17",
    "highway": "bus_stop",
    "name": "Jules Simon",
    "public_transport": "platform",
    "shelter": "yes",
    "tactile_paving": "no"
  }
},
{
  "type": "node",
  "id": 660771638,
  "lat": 45.4241130,
  "lon": 4.3894403,
  "tags": {
    "bench": "yes",
    "highway": "bus_stop",
    "name": "Jules Simon",
    "public_transport": "platform",
    "shelter": "yes",
    "tactile_paving": "no"
  }
},
{
  "type": "node",
  "id": 662301964,
  "lat": 45.4154162,
  "lon": 4.3934766,
  "tags": {
    "bench": "yes",
    "highway": "bus_stop",
    "name": "Bellevue",
    "network": "STAS",
    "public_transport": "platform",
    "shelter": "yes",
    "source": "survey",
    "wheelchair": "yes"
  }
},
{
  "type": "node",
  "id": 664572783,
  "lat": 45.4424796,
  "lon": 4.4006973,
  "tags": {
    "bench": "yes",
    "bin": "yes",
    "highway": "bus_stop",
    "name": "Châteaucreux",
    "public_transport": "platform",
    "ref": "27;108",
    "shelter": "yes",
    "source": "survey",
    "tactile_paving": "no"
  }
},
{
  "type": "node",
  "id": 664572784,
  "lat": 45.4424395,
  "lon": 4.4009024,
  "tags": {
    "bench": "yes",
    "highway": "bus_stop",
    "name": "Châteaucreux",
    "public_transport": "platform",
    "ref": "109",
    "shelter": "yes",
    "tactile_paving": "no"
  }
},
{
  "type": "node",
  "id": 664572785,
  "lat": 45.4424729,
  "lon": 4.4014849,
  "tags": {
    "bench": "yes",
    "bin": "yes",
    "highway": "bus_stop",
    "lit": "yes",
    "name": "Châteaucreux Gare Routière",
    "public_transport": "platform",
    "route_ref": "111",
    "shelter": "yes",
    "tactile_paving": "no"
  }
},
{
  "type": "node",
  "id": 664572786,
  "lat": 45.4425280,
  "lon": 4.4011717,
  "tags": {
    "bench": "yes",
    "bin": "yes",
    "highway": "bus_stop",
    "lit": "yes",
    "name": "Châteaucreux",
    "public_transport": "platform",
    "ref": "11B",
    "shelter": "yes",
    "tactile_paving": "no"
  }
},
{
  "type": "node",
  "id": 664572787,
  "lat": 45.4425777,
  "lon": 4.4008629,
  "tags": {
    "bench": "yes",
    "bin": "yes",
    "highway": "bus_stop",
    "lit": "yes",
    "name": "Châteaucreux",
    "public_transport": "platform",
    "shelter": "yes",
    "tactile_paving": "no"
  }
},
{
  "type": "node",
  "id": 664598346,
  "lat": 45.4371592,
  "lon": 4.3930638,
  "tags": {
    "bench": "yes",
    "bin": "yes",
    "highway": "bus_stop",
    "lit": "yes",
    "name": "Jean Moulin",
    "public_transport": "platform",
    "shelter": "yes",
    "tactile_paving": "no"
  }
},
{
  "type": "node",
  "id": 665424504,
  "lat": 45.4241951,
  "lon": 4.3973720,
  "tags": {
    "bench": "no",
    "highway": "bus_stop",
    "name": "Valbenoite",
    "public_transport": "platform",
    "shelter": "no"
  }
},
{
  "type": "node",
  "id": 665424506,
  "lat": 45.4260379,
  "lon": 4.3960026,
  "tags": {
    "bench": "no",
    "highway": "bus_stop",
    "name": "Bouillet",
    "public_transport": "platform",
    "shelter": "no"
  }
},
{
  "type": "node",
  "id": 665440650,
  "lat": 45.4195607,
  "lon": 4.3991781,
  "tags": {
    "bench": "yes",
    "highway": "bus_stop",
    "name": "Les Mouliniers",
    "public_transport": "platform",
    "shelter": "yes"
  }
},
{
  "type": "node",
  "id": 665879651,
  "lat": 45.4327197,
  "lon": 4.3854265,
  "tags": {
    "bench": "no",
    "highway": "bus_stop",
    "name": "Rue Franklin",
    "public_transport": "platform",
    "shelter": "no",
    "tactile_paving": "no"
  }
},
{
  "type": "node",
  "id": 665879652,
  "lat": 45.4334963,
  "lon": 4.3853790,
  "tags": {
    "bench": "yes",
    "bus": "yes",
    "highway": "bus_stop",
    "name": "Place des Pères",
    "public_transport": "platform",
    "shelter": "yes",
    "tactile_paving": "no"
  }
},
{
  "type": "node",
  "id": 665879661,
  "lat": 45.4339436,
  "lon": 4.3853240,
  "tags": {
    "bench": "no",
    "bus": "yes",
    "highway": "bus_stop",
    "name": "Abbé de l'Epée",
    "public_transport": "platform",
    "shelter": "no",
    "tactile_paving": "no"
  }
},
{
  "type": "node",
  "id": 674054418,
  "lat": 45.4426322,
  "lon": 4.4005545,
  "tags": {
    "bench": "yes",
    "bin": "yes",
    "highway": "bus_stop",
    "lit": "yes",
    "name": "Châteaucreux",
    "public_transport": "platform",
    "shelter": "yes",
    "source": "cadastre-dgi-fr source : Direction Générale des Impôts - Cadastre. Mise à jour : 2010",
    "tactile_paving": "no"
  }
},
{
  "type": "node",
  "id": 674054419,
  "lat": 45.4392973,
  "lon": 4.3959141,
  "tags": {
    "bench": "yes",
    "bin": "yes",
    "highway": "bus_stop",
    "lit": "yes",
    "name": "Fourneyron",
    "network": "STAS",
    "public_transport": "platform",
    "shelter": "yes",
    "source": "cadastre-dgi-fr source : Direction Générale des Impôts - Cadastre. Mise à jour : 2010",
    "tactile_paving": "no"
  }
},
{
  "type": "node",
  "id": 675244816,
  "lat": 45.4411546,
  "lon": 4.3822095,
  "tags": {
    "bench": "no",
    "bin": "yes",
    "highway": "bus_stop",
    "name": "Élisée Reclus",
    "public_transport": "platform",
    "shelter": "yes",
    "source": "survey",
    "tactile_paving": "no"
  }
},
{
  "type": "node",
  "id": 675244836,
  "lat": 45.4461384,
  "lon": 4.3800210,
  "tags": {
    "bench": "no",
    "bus": "yes",
    "highway": "bus_stop",
    "name": "Les Tilleuls",
    "network": "STAS",
    "public_transport": "platform",
    "shelter": "no"
  }
},
{
  "type": "node",
  "id": 675244847,
  "lat": 45.4473979,
  "lon": 4.3849496,
  "tags": {
    "bench": "yes",
    "highway": "bus_stop",
    "name": "Place Carnot",
    "public_transport": "platform",
    "shelter": "yes",
    "tactile_paving": "no"
  }
},
{
  "type": "node",
  "id": 678868724,
  "lat": 45.4326303,
  "lon": 4.3854932,
  "tags": {
    "bench": "no",
    "highway": "bus_stop",
    "name": "Rue Franklin",
    "public_transport": "platform",
    "shelter": "no",
    "tactile_paving": "no"
  }
},
{
  "type": "node",
  "id": 678870838,
  "lat": 45.4308097,
  "lon": 4.3853672,
  "tags": {
    "bench": "no",
    "highway": "bus_stop",
    "name": "Bel Horizon",
    "public_transport": "platform",
    "shelter": "no",
    "tactile_paving": "no"
  }
},
{
  "type": "node",
  "id": 685755987,
  "lat": 45.4351059,
  "lon": 4.3837349,
  "tags": {
    "bench": "no",
    "highway": "bus_stop",
    "shelter": "no"
  }
},
{
  "type": "node",
  "id": 685756113,
  "lat": 45.4470242,
  "lon": 4.3864164,
  "tags": {
    "bench": "no",
    "bin": "yes",
    "highway": "bus_stop",
    "name": "Gare Carnot",
    "note": "ligne 10",
    "public_transport": "platform",
    "shelter": "yes",
    "tactile_paving": "no"
  }
},
{
  "type": "node",
  "id": 685756134,
  "lat": 45.4491968,
  "lon": 4.3858625,
  "tags": {
    "bench": "no",
    "bin": "yes",
    "bus": "yes",
    "highway": "bus_stop",
    "name": "Carnot - Le Nôtre",
    "note": "FIXME vérifier sens 11B direction Bel AIr 27 direction Le Chasseur 33 direction Jean Jaurès",
    "operator": "TIL",
    "public_transport": "platform",
    "ref": "105 107 111 120",
    "shelter": "yes",
    "tactile_paving": "no"
  }
},
{
  "type": "node",
  "id": 685756176,
  "lat": 45.4487557,
  "lon": 4.3900133,
  "tags": {
    "bench": "no",
    "highway": "bus_stop",
    "name": "Ampère",
    "public_transport": "platform",
    "shelter": "no",
    "tactile_paving": "no"
  }
},
{
  "type": "node",
  "id": 687016910,
  "lat": 45.4154317,
  "lon": 4.3944724,
  "tags": {
    "bench": "yes",
    "highway": "bus_stop",
    "name": "Bellevue",
    "public_transport": "platform",
    "shelter": "yes"
  }
},
{
  "type": "node",
  "id": 687016914,
  "lat": 45.4152919,
  "lon": 4.3945914,
  "tags": {
    "bench": "yes",
    "highway": "bus_stop",
    "name": "Bellevue",
    "public_transport": "platform",
    "shelter": "yes"
  }
},
{
  "type": "node",
  "id": 687045725,
  "lat": 45.4141229,
  "lon": 4.3962840,
  "tags": {
    "bench": "no",
    "highway": "bus_stop",
    "name": "Robespierre",
    "public_transport": "platform",
    "shelter": "no"
  }
},
{
  "type": "node",
  "id": 695125171,
  "lat": 45.4290476,
  "lon": 4.4136053,
  "tags": {
    "bench": "yes",
    "highway": "bus_stop",
    "name": "C.C. Montchovet",
    "network": "STAS",
    "public_transport": "platform",
    "shelter": "yes"
  }
},
{
  "type": "node",
  "id": 695125191,
  "lat": 45.4298087,
  "lon": 4.3987460,
  "tags": {
    "bench": "no",
    "highway": "bus_stop",
    "name": "Lassaigne",
    "public_transport": "platform",
    "shelter": "no"
  }
},
{
  "type": "node",
  "id": 695127723,
  "lat": 45.4292807,
  "lon": 4.4114331,
  "tags": {
    "highway": "bus_stop",
    "name": "Beaulieu",
    "public_transport": "platform",
    "route_ref": "9",
    "source": "cadastre-dgi-fr source : Direction Générale des Impôts - Cadastre. Mise à jour : 2010"
  }
},
{
  "type": "node",
  "id": 695132216,
  "lat": 45.4256686,
  "lon": 4.4112718,
  "tags": {
    "bench": "no",
    "highway": "bus_stop",
    "name": "40, Le Corbusier",
    "public_transport": "platform",
    "shelter": "no"
  }
},
{
  "type": "node",
  "id": 703830761,
  "lat": 45.4296865,
  "lon": 4.3937102,
  "tags": {
    "bench": "yes",
    "highway": "bus_stop",
    "name": "Saint-Roch",
    "public_transport": "platform",
    "shelter": "yes"
  }
},
{
  "type": "node",
  "id": 703942099,
  "lat": 45.4373452,
  "lon": 4.3790368,
  "tags": {
    "bench": "yes",
    "bus": "yes",
    "highway": "bus_stop",
    "name": "Le Clapier",
    "public_transport": "platform",
    "shelter": "yes",
    "tactile_paving": "no"
  }
},
{
  "type": "node",
  "id": 703942111,
  "lat": 45.4371921,
  "lon": 4.3787204,
  "tags": {
    "bench": "yes",
    "direction": "ligne A et 3 : direction Terrenoire",
    "highway": "bus_stop",
    "name": "Le Clapier",
    "ref": "A;3",
    "shelter": "yes",
    "tactile_paving": "no"
  }
},
{
  "type": "node",
  "id": 703942126,
  "lat": 45.4369829,
  "lon": 4.3820870,
  "tags": {
    "bench": "no",
    "highway": "bus_stop",
    "name": "Tarentaize",
    "public_transport": "platform",
    "shelter": "no"
  }
},
{
  "type": "node",
  "id": 703942131,
  "lat": 45.4375956,
  "lon": 4.3817308,
  "tags": {
    "bench": "no",
    "highway": "bus_stop",
    "name": "Tarentaize",
    "public_transport": "platform",
    "ref": "A;3",
    "shelter": "no"
  }
},
{
  "type": "node",
  "id": 704677211,
  "lat": 45.4139615,
  "lon": 4.3979900,
  "tags": {
    "bench": "no",
    "highway": "bus_stop",
    "name": "Square Amouroux",
    "public_transport": "platform",
    "shelter": "no"
  }
},
{
  "type": "node",
  "id": 704677219,
  "lat": 45.4141907,
  "lon": 4.3956585,
  "tags": {
    "bench": "no",
    "highway": "bus_stop",
    "name": "Robespierre",
    "network": "STAS",
    "public_transport": "platform",
    "shelter": "no"
  }
},
{
  "type": "node",
  "id": 705879841,
  "lat": 45.4287923,
  "lon": 4.4085936,
  "tags": {
    "bench": "no",
    "highway": "bus_stop",
    "name": "Pierre Blachon",
    "public_transport": "platform",
    "shelter": "no"
  }
},
{
  "type": "node",
  "id": 705879842,
  "lat": 45.4240503,
  "lon": 4.4076250,
  "tags": {
    "bench": "yes",
    "bin": "yes",
    "check_date:shelter": "2021-06-01",
    "highway": "bus_stop",
    "lit": "yes",
    "name": "École des Mines",
    "public_transport": "platform",
    "shelter": "yes",
    "tactile_paving": "no"
  }
},
{
  "type": "node",
  "id": 715848050,
  "lat": 45.4258529,
  "lon": 4.3953238,
  "tags": {
    "bench": "no",
    "highway": "bus_stop",
    "name": "Bouillet",
    "public_transport": "platform",
    "shelter": "no"
  }
},
{
  "type": "node",
  "id": 715848052,
  "lat": 45.4242251,
  "lon": 4.3959996,
  "tags": {
    "bench": "no",
    "direction": "Bellevue",
    "highway": "bus_stop",
    "name": "Valbenoite",
    "public_transport": "platform",
    "shelter": "no"
  }
},
{
  "type": "node",
  "id": 728946816,
  "lat": 45.4239910,
  "lon": 4.4025280,
  "tags": {
    "bench": "no",
    "highway": "bus_stop",
    "name": "F. Voytier",
    "public_transport": "platform",
    "shelter": "no"
  }
},
{
  "type": "node",
  "id": 728946821,
  "lat": 45.4238326,
  "lon": 4.4027035,
  "tags": {
    "bench": "no",
    "highway": "bus_stop",
    "name": "F. Voytier",
    "public_transport": "platform",
    "shelter": "no"
  }
},
{
  "type": "node",
  "id": 739390299,
  "lat": 45.4272897,
  "lon": 4.3848572,
  "tags": {
    "bench": "yes",
    "highway": "bus_stop",
    "name": "Tardy",
    "public_transport": "platform",
    "shelter": "yes"
  }
},
{
  "type": "node",
  "id": 741053757,
  "lat": 45.4260914,
  "lon": 4.4025603,
  "tags": {
    "bench": "no",
    "highway": "bus_stop",
    "name": "Montesquieu",
    "public_transport": "platform",
    "shelter": "yes"
  }
},
{
  "type": "node",
  "id": 741053767,
  "lat": 45.4263123,
  "lon": 4.4021237,
  "tags": {
    "bench": "no",
    "highway": "bus_stop",
    "name": "Montesquieu",
    "public_transport": "platform",
    "shelter": "no"
  }
},
{
  "type": "node",
  "id": 741097116,
  "lat": 45.4264602,
  "lon": 4.4044442,
  "tags": {
    "bench": "yes",
    "check_date:shelter": "2021-06-01",
    "highway": "bus_stop",
    "lit": "yes",
    "name": "Centre Congrès",
    "public_transport": "platform",
    "shelter": "yes",
    "tactile_paving": "no"
  }
},
{
  "type": "node",
  "id": 764875608,
  "lat": 45.4224425,
  "lon": 4.3965387,
  "tags": {
    "bench": "yes",
    "direction": "Bellevue",
    "highway": "bus_stop",
    "name": "Passementiers",
    "public_transport": "platform",
    "shelter": "yes"
  }
},
{
  "type": "node",
  "id": 773311217,
  "lat": 45.4317202,
  "lon": 4.4442110,
  "tags": {
    "highway": "bus_stop",
    "name": "Perrotière",
    "network": "STAS",
    "public_transport": "platform"
  }
},
{
  "type": "node",
  "id": 876482417,
  "lat": 45.4184988,
  "lon": 4.4226138,
  "tags": {
    "bench": "no",
    "bin": "no",
    "highway": "bus_stop",
    "name": "Lycée B. Fourneyron",
    "network": "STAS",
    "public_transport": "platform",
    "shelter": "no",
    "source": "cadastre-dgi-fr source : Direction Générale des Impôts - Cadastre. Mise à jour : 2010",
    "tactile_paving": "no"
  }
},
{
  "type": "node",
  "id": 876482425,
  "lat": 45.4186029,
  "lon": 4.4225940,
  "tags": {
    "bench": "no",
    "bin": "no",
    "highway": "bus_stop",
    "name": "Lycée B. Fourneyron",
    "network": "STAS",
    "public_transport": "platform",
    "shelter": "yes",
    "source": "cadastre-dgi-fr source : Direction Générale des Impôts - Cadastre. Mise à jour : 2010",
    "tactile_paving": "no"
  }
},
{
  "type": "node",
  "id": 876482432,
  "lat": 45.4225752,
  "lon": 4.4257153,
  "tags": {
    "bench": "yes",
    "bin": "yes",
    "highway": "bus_stop",
    "name": "Faculté des Sciences",
    "public_transport": "platform",
    "shelter": "yes",
    "tactile_paving": "no"
  }
},
{
  "type": "node",
  "id": 876482435,
  "lat": 45.4214218,
  "lon": 4.4274091,
  "tags": {
    "bench": "yes",
    "bin": "yes",
    "bus": "yes",
    "highway": "bus_stop",
    "name": "Faculté Sciences",
    "network": "STAS",
    "public_transport": "platform",
    "route_ref": "71",
    "shelter": "yes",
    "source": "cadastre-dgi-fr source : Direction Générale des Impôts - Cadastre. Mise à jour : 2010",
    "tactile_paving": "no"
  }
},
{
  "type": "node",
  "id": 876482441,
  "lat": 45.4225470,
  "lon": 4.4255445,
  "tags": {
    "bench": "no",
    "bin": "no",
    "bus": "yes",
    "highway": "bus_stop",
    "name": "Faculté des Sciences",
    "public_transport": "platform",
    "shelter": "no",
    "tactile_paving": "no"
  }
},
{
  "type": "node",
  "id": 876482449,
  "lat": 45.4213771,
  "lon": 4.4277634,
  "tags": {
    "bench": "no",
    "bin": "no",
    "bus": "yes",
    "highway": "bus_stop",
    "name": "Faculté Sciences",
    "network": "STAS",
    "public_transport": "platform",
    "route_ref": "71",
    "shelter": "no",
    "source": "cadastre-dgi-fr source : Direction Générale des Impôts - Cadastre. Mise à jour : 2010",
    "tactile_paving": "no"
  }
},
{
  "type": "node",
  "id": 876972604,
  "lat": 45.4175604,
  "lon": 4.4191328,
  "tags": {
    "bench": "no",
    "bin": "no",
    "highway": "bus_stop",
    "name": "Claudinon",
    "network": "STAS",
    "public_transport": "platform",
    "shelter": "no",
    "source": "cadastre-dgi-fr source : Direction Générale des Impôts - Cadastre. Mise à jour : 2010",
    "tactile_paving": "no"
  }
},
{
  "type": "node",
  "id": 876972614,
  "lat": 45.4174999,
  "lon": 4.4193940,
  "tags": {
    "bench": "no",
    "bin": "no",
    "highway": "bus_stop",
    "name": "Claudinon",
    "network": "STAS",
    "public_transport": "platform",
    "shelter": "no",
    "source": "cadastre-dgi-fr source : Direction Générale des Impôts - Cadastre. Mise à jour : 2010",
    "tactile_paving": "no"
  }
},
{
  "type": "node",
  "id": 877033177,
  "lat": 45.4166276,
  "lon": 4.4106660,
  "tags": {
    "bench": "yes",
    "bin": "yes",
    "highway": "bus_stop",
    "name": "Portail Rouge",
    "network": "STAS",
    "public_transport": "platform",
    "shelter": "yes",
    "tactile_paving": "no"
  }
},
{
  "type": "node",
  "id": 877050927,
  "lat": 45.4175789,
  "lon": 4.4154003,
  "tags": {
    "bench": "yes",
    "bin": "yes",
    "highway": "bus_stop",
    "name": "La Réjaillère",
    "network": "STAS",
    "public_transport": "platform",
    "shelter": "yes",
    "source": "cadastre-dgi-fr source : Direction Générale des Impôts - Cadastre;mise à jour : 2009",
    "tactile_paving": "no"
  }
},
{
  "type": "node",
  "id": 877050944,
  "lat": 45.4177336,
  "lon": 4.4153102,
  "tags": {
    "bench": "yes",
    "bin": "yes",
    "highway": "bus_stop",
    "name": "La Réjaillère",
    "network": "STAS",
    "public_transport": "platform",
    "shelter": "yes",
    "source": "cadastre-dgi-fr source : Direction Générale des Impôts - Cadastre;mise à jour : 2009",
    "tactile_paving": "no"
  }
},
{
  "type": "node",
  "id": 926618571,
  "lat": 45.4362018,
  "lon": 4.3851085,
  "tags": {
    "bench": "no",
    "bin": "no",
    "bus": "yes",
    "highway": "bus_stop",
    "lit": "no",
    "name": "Boivin",
    "network": "STAS",
    "public_transport": "platform",
    "shelter": "no",
    "tactile_paving": "no"
  }
},
{
  "type": "node",
  "id": 936997020,
  "lat": 45.4369015,
  "lon": 4.3909116,
  "tags": {
    "bench": "yes",
    "bin": "yes",
    "highway": "bus_stop",
    "lit": "no",
    "name": "Square Violette",
    "public_transport": "platform",
    "shelter": "yes",
    "tactile_paving": "no"
  }
},
{
  "type": "node",
  "id": 937222901,
  "lat": 45.4347282,
  "lon": 4.3838640,
  "tags": {
    "bench": "no",
    "highway": "bus_stop",
    "name": "Sainte-Barbe",
    "public_transport": "platform",
    "shelter": "no"
  }
},
{
  "type": "node",
  "id": 937222915,
  "lat": 45.4347466,
  "lon": 4.3838346,
  "tags": {
    "bench": "no",
    "highway": "bus_stop",
    "name": "Sainte-Barbe",
    "public_transport": "platform",
    "shelter": "no"
  }
},
{
  "type": "node",
  "id": 937222916,
  "lat": 45.4321112,
  "lon": 4.3832565,
  "tags": {
    "bench": "no",
    "bus": "yes",
    "highway": "bus_stop",
    "name": "Montée Thevenon",
    "public_transport": "platform",
    "shelter": "no",
    "tactile_paving": "no"
  }
},
{
  "type": "node",
  "id": 937222918,
  "lat": 45.4285786,
  "lon": 4.3844574,
  "tags": {
    "bench": "no",
    "highway": "bus_stop",
    "name": "Gayet",
    "public_transport": "platform",
    "shelter": "no"
  }
},
{
  "type": "node",
  "id": 937222923,
  "lat": 45.4332672,
  "lon": 4.3833852,
  "tags": {
    "bench": "no",
    "bus": "yes",
    "highway": "bus_stop",
    "name": "Rue de la Colline",
    "public_transport": "platform",
    "shelter": "no",
    "tactile_paving": "no"
  }
},
{
  "type": "node",
  "id": 1013129367,
  "lat": 45.4381732,
  "lon": 4.4021406,
  "tags": {
    "bench": "no",
    "bus": "yes",
    "highway": "bus_stop",
    "name": "Conte Grandchamp",
    "network": "STAS",
    "public_transport": "platform",
    "shelter": "no"
  }
},
{
  "type": "node",
  "id": 1013129374,
  "lat": 45.4405502,
  "lon": 4.4012274,
  "tags": {
    "bench": "yes",
    "highway": "bus_stop",
    "name": "Châteaucreux",
    "network": "STAS",
    "public_transport": "platform",
    "shelter": "yes"
  }
},
{
  "type": "node",
  "id": 1353845032,
  "lat": 45.4283333,
  "lon": 4.3949213,
  "tags": {
    "bench": "no",
    "highway": "bus_stop",
    "name": "Baulier",
    "public_transport": "platform",
    "shelter": "no"
  }
},
{
  "type": "node",
  "id": 1353858993,
  "lat": 45.4131308,
  "lon": 4.3930250,
  "tags": {
    "bench": "yes",
    "highway": "bus_stop",
    "name": "Hôpital Bellevue",
    "network": "STAS",
    "public_transport": "platform",
    "shelter": "yes"
  }
},
{
  "type": "node",
  "id": 1363129148,
  "lat": 45.4117131,
  "lon": 4.3867338,
  "tags": {
    "highway": "bus_stop",
    "name": "Bossuet",
    "network": "STAS",
    "public_transport": "platform",
    "source": "survey"
  }
},
{
  "type": "node",
  "id": 1363849632,
  "lat": 45.4436215,
  "lon": 4.3904744,
  "tags": {
    "bench": "yes",
    "bin": "yes",
    "bus": "yes",
    "check_date:bench": "2021-06-06",
    "highway": "bus_stop",
    "lit": "no",
    "name": "Crêt de Roch",
    "network": "STAS",
    "public_transport": "platform",
    "shelter": "yes",
    "source": "survey",
    "tactile_paving": "yes"
  }
},
{
  "type": "node",
  "id": 1389586119,
  "lat": 45.4405696,
  "lon": 4.3657246,
  "tags": {
    "bus": "yes",
    "highway": "bus_stop",
    "name": "Plaisance",
    "public_transport": "platform"
  }
},
{
  "type": "node",
  "id": 1601248081,
  "lat": 45.4415921,
  "lon": 4.3793651,
  "tags": {
    "bench": "no",
    "highway": "bus_stop",
    "name": "Buisson",
    "public_transport": "platform",
    "shelter": "no"
  }
},
{
  "type": "node",
  "id": 2146519301,
  "lat": 45.4396120,
  "lon": 4.4032770,
  "tags": {
    "bench": "yes",
    "highway": "bus_stop",
    "name": "Saint-François",
    "network": "STAS",
    "public_transport": "platform",
    "shelter": "yes"
  }
},
{
  "type": "node",
  "id": 2298261752,
  "lat": 45.4377032,
  "lon": 4.3874614,
  "tags": {
    "bench": "no",
    "bus": "yes",
    "highway": "bus_stop",
    "name": "Georges Teissier",
    "network": "STAS",
    "public_transport": "platform",
    "shelter": "no"
  }
},
{
  "type": "node",
  "id": 2298261756,
  "lat": 45.4384710,
  "lon": 4.3877514,
  "tags": {
    "bench": "yes",
    "bin": "yes",
    "check_date:shelter": "2021-08-25",
    "highway": "bus_stop",
    "lit": "yes",
    "name": "Dorian/Hôtel de Ville",
    "public_transport": "platform",
    "shelter": "yes",
    "source": "survey",
    "tactile_paving": "no",
    "wheelchair": "yes"
  }
},
{
  "type": "node",
  "id": 2298261760,
  "lat": 45.4395176,
  "lon": 4.3878680,
  "tags": {
    "bench": "yes",
    "bin": "yes",
    "bus": "yes",
    "check_date:shelter": "2021-08-25",
    "highway": "bus_stop",
    "lit": "no",
    "name": "Dorian/Hôtel de Ville",
    "public_transport": "platform",
    "shelter": "yes",
    "tactile_paving": "no"
  }
},
{
  "type": "node",
  "id": 2298261766,
  "lat": 45.4371893,
  "lon": 4.3891338,
  "tags": {
    "bench": "yes",
    "bin": "yes",
    "bus": "yes",
    "highway": "bus_stop",
    "name": "Grand Moulin",
    "network": "STAS",
    "public_transport": "platform",
    "shelter": "yes",
    "tactile_paving": "no"
  }
},
{
  "type": "node",
  "id": 2298261772,
  "lat": 45.4380834,
  "lon": 4.3851118,
  "tags": {
    "bench": "no",
    "bin": "no",
    "check_date:shelter": "2021-12-14",
    "highway": "bus_stop",
    "lit": "no",
    "name": "Mi-Carème",
    "network": "STAS",
    "public_transport": "platform",
    "shelter": "no",
    "tactile_paving": "yes"
  }
},
{
  "type": "node",
  "id": 2310913433,
  "lat": 45.4301155,
  "lon": 4.3963592,
  "tags": {
    "bench": "yes",
    "check_date:shelter": "2021-08-18",
    "highway": "bus_stop",
    "name": "Conservatoire",
    "public_transport": "platform",
    "shelter": "yes"
  }
},
{
  "type": "node",
  "id": 2376776969,
  "lat": 45.4555723,
  "lon": 4.2626804,
  "tags": {
    "bus": "yes",
    "covered": "yes",
    "highway": "bus_stop",
    "name": "Condamine",
    "network": "STAS",
    "public_transport": "platform"
  }
},
{
  "type": "node",
  "id": 2376776971,
  "lat": 45.4541924,
  "lon": 4.2669391,
  "tags": {
    "bus": "yes",
    "highway": "bus_stop",
    "name": "Clinique St-Victor",
    "network": "STAS",
    "public_transport": "platform"
  }
},
{
  "type": "node",
  "id": 2386429716,
  "lat": 45.4335489,
  "lon": 4.3954427,
  "tags": {
    "highway": "bus_stop",
    "name": "Place Villebœuf",
    "public_transport": "platform",
    "route_ref": "6;7;9",
    "source": "GPS"
  }
},
{
  "type": "node",
  "id": 2427170169,
  "lat": 45.4233321,
  "lon": 4.4306710,
  "tags": {
    "bench": "no",
    "highway": "bus_stop",
    "name": "IUT",
    "public_transport": "platform",
    "shelter": "no"
  }
},
{
  "type": "node",
  "id": 2427170173,
  "lat": 45.4229628,
  "lon": 4.4302891,
  "tags": {
    "highway": "bus_stop",
    "name": "IUT",
    "operator": "STAS",
    "public_transport": "platform",
    "shelter": "no"
  }
},
{
  "type": "node",
  "id": 2539967768,
  "lat": 45.4411986,
  "lon": 4.3822592,
  "tags": {
    "highway": "bus_stop",
    "name": "Élisée Reclus",
    "network": "stas",
    "operator": "Veolia Transport",
    "public_transport": "stop_position"
  }
},
{
  "type": "node",
  "id": 2540068045,
  "lat": 45.4512791,
  "lon": 4.3597920,
  "tags": {
    "bus": "yes",
    "highway": "bus_stop",
    "name": "Maisons Rouges",
    "network": "STAS",
    "public_transport": "platform"
  }
},
{
  "type": "node",
  "id": 2540068059,
  "lat": 45.4517757,
  "lon": 4.3596227,
  "tags": {
    "bus": "yes",
    "highway": "bus_stop",
    "name": "Maisons Rouges",
    "network": "STAS",
    "public_transport": "platform"
  }
},
{
  "type": "node",
  "id": 2541227609,
  "lat": 45.4495805,
  "lon": 4.3649832,
  "tags": {
    "bench": "yes",
    "highway": "bus_stop",
    "name": "Chavassieux",
    "network": "STAS",
    "public_transport": "platform",
    "shelter": "yes",
    "tactile_paving": "no"
  }
},
{
  "type": "node",
  "id": 2541227611,
  "lat": 45.4497355,
  "lon": 4.3649253,
  "tags": {
    "bench": "no",
    "highway": "bus_stop",
    "name": "Chavassieux",
    "network": "STAS",
    "public_transport": "platform",
    "shelter": "no"
  }
},
{
  "type": "node",
  "id": 2541227612,
  "lat": 45.4471154,
  "lon": 4.3690083,
  "tags": {
    "bus": "yes",
    "highway": "bus_stop",
    "name": "Hauts Jacquard",
    "network": "STAS",
    "public_transport": "platform",
    "shelter": "yes"
  }
},
{
  "type": "node",
  "id": 2541227617,
  "lat": 45.4471658,
  "lon": 4.3684191,
  "tags": {
    "bus": "yes",
    "highway": "bus_stop",
    "name": "Hauts Jacquard",
    "network": "STAS",
    "public_transport": "platform"
  }
},
{
  "type": "node",
  "id": 2541227625,
  "lat": 45.4473383,
  "lon": 4.3667697,
  "tags": {
    "bench": "no",
    "bus": "yes",
    "highway": "bus_stop",
    "name": "Puits Garenne",
    "network": "STAS",
    "public_transport": "platform",
    "shelter": "no"
  }
},
{
  "type": "node",
  "id": 2541227631,
  "lat": 45.4476468,
  "lon": 4.3666917,
  "tags": {
    "bench": "yes",
    "bus": "yes",
    "highway": "bus_stop",
    "name": "Puits Garenne",
    "network": "STAS",
    "public_transport": "platform",
    "shelter": "yes"
  }
},
{
  "type": "node",
  "id": 2541325945,
  "lat": 45.4460550,
  "lon": 4.3726964,
  "tags": {
    "bench": "yes",
    "bus": "yes",
    "highway": "bus_stop",
    "name": "Crêche Garderie",
    "network": "STAS",
    "public_transport": "platform",
    "shelter": "yes"
  }
},
{
  "type": "node",
  "id": 2541325946,
  "lat": 45.4462201,
  "lon": 4.3721656,
  "tags": {
    "bus": "yes",
    "highway": "bus_stop",
    "name": "Crêche Garderie",
    "network": "STAS",
    "public_transport": "platform",
    "shelter": "yes"
  }
},
{
  "type": "node",
  "id": 2541325949,
  "lat": 45.4442830,
  "lon": 4.3771128,
  "tags": {
    "bus": "yes",
    "highway": "bus_stop",
    "name": "Puits de la Loire",
    "network": "STAS",
    "public_transport": "platform"
  }
},
{
  "type": "node",
  "id": 2541325951,
  "lat": 45.4466953,
  "lon": 4.3705644,
  "tags": {
    "bus": "yes",
    "highway": "bus_stop",
    "name": "Parc Montaud",
    "network": "STAS",
    "public_transport": "platform",
    "shelter": "yes"
  }
},
{
  "type": "node",
  "id": 2541325955,
  "lat": 45.4467472,
  "lon": 4.3707333,
  "tags": {
    "bus": "yes",
    "highway": "bus_stop",
    "name": "Parc Montaud",
    "network": "STAS",
    "public_transport": "platform"
  }
},
{
  "type": "node",
  "id": 2541325963,
  "lat": 45.4447665,
  "lon": 4.3743259,
  "tags": {
    "bus": "yes",
    "highway": "bus_stop",
    "name": "Petrus Maussier",
    "network": "STAS",
    "public_transport": "platform"
  }
},
{
  "type": "node",
  "id": 2541325967,
  "lat": 45.4448191,
  "lon": 4.3745793,
  "tags": {
    "bus": "yes",
    "highway": "bus_stop",
    "name": "Petrus Maussier",
    "network": "STAS",
    "public_transport": "platform"
  }
},
{
  "type": "node",
  "id": 2541325974,
  "lat": 45.4432707,
  "lon": 4.3766535,
  "tags": {
    "bus": "yes",
    "highway": "bus_stop",
    "name": "Puits de la Loire",
    "network": "STAS",
    "public_transport": "platform"
  }
},
{
  "type": "node",
  "id": 2541363806,
  "lat": 45.4390372,
  "lon": 4.3828270,
  "tags": {
    "highway": "bus_stop",
    "name": "Aristide Briand",
    "public_transport": "platform"
  }
},
{
  "type": "node",
  "id": 2541363812,
  "lat": 45.4369960,
  "lon": 4.3846563,
  "tags": {
    "bench": "no",
    "bin": "no",
    "check_date:shelter": "2021-03-30",
    "highway": "bus_stop",
    "name": "Palais de Justice",
    "network": "STAS",
    "public_transport": "platform",
    "shelter": "no",
    "tactile_paving": "no"
  }
},
{
  "type": "node",
  "id": 2541730974,
  "lat": 45.4383224,
  "lon": 4.4021842,
  "tags": {
    "bus": "yes",
    "highway": "bus_stop",
    "name": "Conte Grandchamp",
    "network": "STAS",
    "public_transport": "platform",
    "ref": "16"
  }
},
{
  "type": "node",
  "id": 2541731018,
  "lat": 45.4396383,
  "lon": 4.4001642,
  "tags": {
    "bench": "yes",
    "bin": "yes",
    "check_date:bench": "2021-05-16",
    "highway": "bus_stop",
    "name": "Gaspard Monge",
    "network": "STAS",
    "public_transport": "platform",
    "shelter": "yes"
  }
},
{
  "type": "node",
  "id": 2541731053,
  "lat": 45.4359622,
  "lon": 4.4066999,
  "tags": {
    "bus": "yes",
    "highway": "bus_stop",
    "name": "Molière",
    "network": "STAS",
    "public_transport": "platform",
    "ref": "16"
  }
},
{
  "type": "node",
  "id": 2541731073,
  "lat": 45.4360599,
  "lon": 4.4067369,
  "tags": {
    "bus": "yes",
    "highway": "bus_stop",
    "name": "Molière",
    "network": "STAS",
    "public_transport": "platform"
  }
},
{
  "type": "node",
  "id": 2541731081,
  "lat": 45.4371699,
  "lon": 4.4045027,
  "tags": {
    "bus": "yes",
    "highway": "bus_stop",
    "name": "Paul Petit",
    "network": "STAS",
    "public_transport": "platform"
  }
},
{
  "type": "node",
  "id": 2541731096,
  "lat": 45.4374293,
  "lon": 4.4040711,
  "tags": {
    "bench": "yes",
    "bus": "yes",
    "highway": "bus_stop",
    "name": "Paul Petit",
    "network": "STAS",
    "public_transport": "platform",
    "shelter": "yes"
  }
},
{
  "type": "node",
  "id": 2541876555,
  "lat": 45.4349992,
  "lon": 4.4058406,
  "tags": {
    "bus": "yes",
    "highway": "bus_stop",
    "name": "Boileau",
    "network": "STAS",
    "public_transport": "platform",
    "ref": "16"
  }
},
{
  "type": "node",
  "id": 2541876556,
  "lat": 45.4350542,
  "lon": 4.4055493,
  "tags": {
    "bus": "yes",
    "highway": "bus_stop",
    "name": "Boileau",
    "network": "STAS",
    "public_transport": "platform"
  }
},
{
  "type": "node",
  "id": 2543434512,
  "lat": 45.4302983,
  "lon": 4.4094436,
  "tags": {
    "bus": "yes",
    "highway": "bus_stop",
    "name": "Champagnat",
    "network": "STAS",
    "public_transport": "platform",
    "shelter": "no",
    "tactile_paving": "no"
  }
},
{
  "type": "node",
  "id": 2543434523,
  "lat": 45.4303183,
  "lon": 4.4096766,
  "tags": {
    "bus": "yes",
    "highway": "bus_stop",
    "name": "Champagnat",
    "network": "STAS",
    "public_transport": "platform",
    "ref": "16",
    "shelter": "no",
    "tactile_paving": "no"
  }
},
{
  "type": "node",
  "id": 2543434527,
  "lat": 45.4335878,
  "lon": 4.4079825,
  "tags": {
    "bus": "yes",
    "highway": "bus_stop",
    "name": "Fénelon",
    "network": "STAS",
    "public_transport": "platform",
    "shelter": "yes"
  }
},
{
  "type": "node",
  "id": 2543434535,
  "lat": 45.4336882,
  "lon": 4.4081078,
  "tags": {
    "bus": "yes",
    "highway": "bus_stop",
    "name": "Fénelon",
    "network": "STAS",
    "public_transport": "platform",
    "ref": "16"
  }
},
{
  "type": "node",
  "id": 2543434551,
  "lat": 45.4321226,
  "lon": 4.4092896,
  "tags": {
    "bus": "yes",
    "highway": "bus_stop",
    "name": "La Dame Blanche",
    "network": "STAS",
    "public_transport": "platform",
    "ref": "16",
    "shelter": "yes"
  }
},
{
  "type": "node",
  "id": 2543434558,
  "lat": 45.4325213,
  "lon": 4.4091731,
  "tags": {
    "bus": "yes",
    "highway": "bus_stop",
    "name": "La Dame Blanche",
    "network": "STAS",
    "public_transport": "platform"
  }
},
{
  "type": "node",
  "id": 2543581617,
  "lat": 45.4316309,
  "lon": 4.3999991,
  "tags": {
    "bus": "yes",
    "highway": "bus_stop",
    "name": "André Delorme",
    "network": "STAS",
    "public_transport": "platform"
  }
},
{
  "type": "node",
  "id": 2543581623,
  "lat": 45.4317857,
  "lon": 4.4000201,
  "tags": {
    "bus": "yes",
    "highway": "bus_stop",
    "name": "André Delorme",
    "network": "STAS",
    "public_transport": "platform"
  }
},
{
  "type": "node",
  "id": 2543581626,
  "lat": 45.4308559,
  "lon": 4.4020464,
  "tags": {
    "bus": "yes",
    "highway": "bus_stop",
    "name": "Chemin Puits Guérin",
    "network": "STAS",
    "public_transport": "platform"
  }
},
{
  "type": "node",
  "id": 2543581633,
  "lat": 45.4309332,
  "lon": 4.4020384,
  "tags": {
    "bus": "yes",
    "highway": "bus_stop",
    "name": "Chemin Puits Guérin",
    "network": "STAS",
    "public_transport": "platform",
    "shelter": "yes"
  }
},
{
  "type": "node",
  "id": 2543581637,
  "lat": 45.4309519,
  "lon": 4.4037191,
  "tags": {
    "bus": "yes",
    "highway": "bus_stop",
    "name": "Horace Vernet",
    "network": "STAS",
    "public_transport": "platform"
  }
},
{
  "type": "node",
  "id": 2543581643,
  "lat": 45.4310508,
  "lon": 4.4036237,
  "tags": {
    "bus": "yes",
    "highway": "bus_stop",
    "name": "Horace Vernet",
    "network": "STAS",
    "public_transport": "platform"
  }
},
{
  "type": "node",
  "id": 2543581647,
  "lat": 45.4303322,
  "lon": 4.4078747,
  "tags": {
    "bus": "yes",
    "highway": "bus_stop",
    "name": "Hovelacque",
    "network": "STAS",
    "public_transport": "platform"
  }
},
{
  "type": "node",
  "id": 2543581656,
  "lat": 45.4304022,
  "lon": 4.4072887,
  "tags": {
    "bus": "yes",
    "highway": "bus_stop",
    "name": "Hovelacque",
    "network": "STAS",
    "public_transport": "platform"
  }
},
{
  "type": "node",
  "id": 2544673403,
  "lat": 45.4390811,
  "lon": 4.4036362,
  "tags": {
    "highway": "bus_stop",
    "name": "La Plagne",
    "network": "STAS",
    "public_transport": "platform"
  }
},
{
  "type": "node",
  "id": 2544673404,
  "lat": 45.4385033,
  "lon": 4.4023237,
  "tags": {
    "bench": "yes",
    "bin": "yes",
    "highway": "bus_stop",
    "lit": "no",
    "name": "Seguin",
    "network": "STAS",
    "public_transport": "platform",
    "shelter": "no",
    "tactile_paving": "no"
  }
},
{
  "type": "node",
  "id": 2544673406,
  "lat": 45.4326638,
  "lon": 4.3992453,
  "tags": {
    "bus": "yes",
    "highway": "bus_stop",
    "name": "Villebœuf-le-Haut",
    "network": "STAS",
    "public_transport": "platform"
  }
},
{
  "type": "node",
  "id": 2545425634,
  "lat": 45.4403663,
  "lon": 4.3841327,
  "tags": {
    "bus": "yes",
    "highway": "bus_stop",
    "name": "Arcole",
    "network": "STAS",
    "public_transport": "platform"
  }
},
{
  "type": "node",
  "id": 2545425639,
  "lat": 45.4391516,
  "lon": 4.3927656,
  "tags": {
    "bench": "no",
    "bin": "yes",
    "bus": "yes",
    "highway": "bus_stop",
    "lit": "no",
    "name": "République",
    "network": "STAS",
    "public_transport": "platform",
    "shelter": "no",
    "tactile_paving": "no"
  }
},
{
  "type": "node",
  "id": 2551196658,
  "lat": 45.4403073,
  "lon": 4.4050396,
  "tags": {
    "highway": "bus_stop",
    "name": "Rue de la Chance",
    "network": "STAS",
    "public_transport": "platform",
    "shelter": "no"
  }
},
{
  "type": "node",
  "id": 2556021793,
  "lat": 45.4427575,
  "lon": 4.3786939,
  "tags": {
    "bench": "no",
    "bin": "yes",
    "highway": "bus_stop",
    "lit": "no",
    "name": "Jules Verne",
    "network": "STAS",
    "public_transport": "platform",
    "shelter": "no",
    "tactile_paving": "no"
  }
},
{
  "type": "node",
  "id": 2562635246,
  "lat": 45.4469291,
  "lon": 4.3760718,
  "tags": {
    "bench": "yes",
    "bus": "yes",
    "highway": "bus_stop",
    "name": "Crêt de Montaud",
    "network": "STAS",
    "public_transport": "platform",
    "shelter": "no"
  }
},
{
  "type": "node",
  "id": 2562879959,
  "lat": 45.4713686,
  "lon": 4.4029412,
  "tags": {
    "bench": "yes",
    "bus": "yes",
    "highway": "bus_stop",
    "name": "Montreynaud",
    "network": "STAS",
    "public_transport": "platform",
    "shelter": "yes"
  }
},
{
  "type": "node",
  "id": 2562879965,
  "lat": 45.4714012,
  "lon": 4.4030939,
  "tags": {
    "highway": "bus_stop",
    "name": "Montreynaud",
    "network": "STAS",
    "public_transport": "platform",
    "shelter": "yes"
  }
},
{
  "type": "node",
  "id": 2563007848,
  "lat": 45.4401254,
  "lon": 4.3945506,
  "tags": {
    "bench": "no",
    "bin": "yes",
    "bus": "yes",
    "highway": "bus_stop",
    "lit": "yes",
    "name": "Frères Chappe",
    "network": "STAS",
    "public_transport": "platform",
    "shelter": "no",
    "tactile_paving": "no"
  }
},
{
  "type": "node",
  "id": 2563007857,
  "lat": 45.4407109,
  "lon": 4.3927482,
  "tags": {
    "bench": "no",
    "bus": "yes",
    "highway": "bus_stop",
    "name": "Painlevé",
    "network": "STAS",
    "public_transport": "platform",
    "shelter": "no",
    "tactile_paving": "no"
  }
},
{
  "type": "node",
  "id": 2563155621,
  "lat": 45.4475308,
  "lon": 4.3823689,
  "tags": {
    "bench": "no",
    "highway": "bus_stop",
    "name": "Église Montaud",
    "public_transport": "platform",
    "shelter": "no"
  }
},
{
  "type": "node",
  "id": 2564157678,
  "lat": 45.4463408,
  "lon": 4.3891954,
  "tags": {
    "bench": "no",
    "bin": "no",
    "bus": "yes",
    "highway": "bus_stop",
    "lit": "no",
    "name": "Lavoisier",
    "network": "STAS",
    "public_transport": "platform",
    "shelter": "no",
    "tactile_paving": "no"
  }
},
{
  "type": "node",
  "id": 2564157680,
  "lat": 45.4465588,
  "lon": 4.3885998,
  "tags": {
    "bus": "yes",
    "highway": "bus_stop",
    "name": "Lavoisier",
    "network": "STAS",
    "public_transport": "platform",
    "shelter": "no"
  }
},
{
  "type": "node",
  "id": 2564157681,
  "lat": 45.4483844,
  "lon": 4.3850126,
  "tags": {
    "bench": "yes",
    "highway": "bus_stop",
    "name": "Place Carnot",
    "public_transport": "platform",
    "shelter": "yes",
    "tactile_paving": "no"
  }
},
{
  "type": "node",
  "id": 2568047449,
  "lat": 45.4423686,
  "lon": 4.4020982,
  "tags": {
    "bench": "yes",
    "bin": "yes",
    "highway": "bus_stop",
    "lit": "yes",
    "name": "Châteaucreux",
    "public_transport": "platform",
    "shelter": "yes",
    "tactile_paving": "no"
  }
},
{
  "type": "node",
  "id": 2568047450,
  "lat": 45.4424171,
  "lon": 4.4017910,
  "tags": {
    "bench": "yes",
    "bin": "yes",
    "highway": "bus_stop",
    "lit": "yes",
    "name": "Châteaucreux",
    "public_transport": "platform",
    "shelter": "yes",
    "tactile_paving": "no"
  }
},
{
  "type": "node",
  "id": 2571478285,
  "lat": 45.4468585,
  "lon": 4.3844100,
  "tags": {
    "bench": "yes",
    "highway": "bus_stop",
    "name": "Carnot - Augustin Thierry",
    "network": "STAS;TIL",
    "public_transport": "platform",
    "route_ref": "111",
    "shelter": "yes"
  }
},
{
  "type": "node",
  "id": 2571542739,
  "lat": 45.4458579,
  "lon": 4.3801329,
  "tags": {
    "bench": "no",
    "bus": "yes",
    "highway": "bus_stop",
    "name": "Les Tilleuls",
    "network": "STAS",
    "public_transport": "platform",
    "shelter": "no"
  }
},
{
  "type": "node",
  "id": 2573185450,
  "lat": 45.4470914,
  "lon": 4.3790162,
  "tags": {
    "bench": "yes",
    "bus": "yes",
    "highway": "bus_stop",
    "name": "André Ruel",
    "network": "STAS",
    "public_transport": "platform",
    "shelter": "no"
  }
},
{
  "type": "node",
  "id": 2573185452,
  "lat": 45.4471315,
  "lon": 4.3790780,
  "tags": {
    "bench": "yes",
    "bus": "yes",
    "highway": "bus_stop",
    "name": "André Ruel",
    "network": "STAS",
    "public_transport": "platform",
    "shelter": "no"
  }
},
{
  "type": "node",
  "id": 2573185454,
  "lat": 45.4466824,
  "lon": 4.3774870,
  "tags": {
    "bus": "yes",
    "highway": "bus_stop",
    "name": "Lycée B. Charvet",
    "network": "STAS",
    "public_transport": "platform"
  }
},
{
  "type": "node",
  "id": 2573185455,
  "lat": 45.4466850,
  "lon": 4.3775786,
  "tags": {
    "bus": "yes",
    "highway": "bus_stop",
    "name": "Lycée B. Charvet",
    "network": "STAS",
    "public_transport": "platform"
  }
},
{
  "type": "node",
  "id": 2573185456,
  "lat": 45.4481605,
  "lon": 4.3781426,
  "tags": {
    "bus": "yes",
    "highway": "bus_stop",
    "name": "Rue de Laharpe",
    "network": "STAS",
    "public_transport": "platform",
    "shelter": "yes"
  }
},
{
  "type": "node",
  "id": 2573185459,
  "lat": 45.4487692,
  "lon": 4.3777852,
  "tags": {
    "bench": "yes",
    "bus": "yes",
    "highway": "bus_stop",
    "name": "Rue de Laharpe",
    "network": "STAS",
    "public_transport": "platform",
    "shelter": "no"
  }
},
{
  "type": "node",
  "id": 2597252753,
  "lat": 45.4225934,
  "lon": 4.4230013,
  "tags": {
    "bench": "yes",
    "highway": "bus_stop",
    "name": "Fraissinnette",
    "public_transport": "platform",
    "shelter": "yes",
    "source": "cadastre-dgi-fr source : Direction Générale des Impôts - Cadastre. Mise à jour : 2013",
    "tactile_paving": "no"
  }
},
{
  "type": "node",
  "id": 2597252754,
  "lat": 45.4227880,
  "lon": 4.4230454,
  "tags": {
    "bench": "yes",
    "highway": "bus_stop",
    "name": "Fraissinnette",
    "public_transport": "platform",
    "shelter": "yes",
    "source": "cadastre-dgi-fr source : Direction Générale des Impôts - Cadastre. Mise à jour : 2013",
    "tactile_paving": "no"
  }
},
{
  "type": "node",
  "id": 2597252755,
  "lat": 45.4256481,
  "lon": 4.4201768,
  "tags": {
    "highway": "bus_stop",
    "name": "Sembat",
    "public_transport": "platform",
    "source": "cadastre-dgi-fr source : Direction Générale des Impôts - Cadastre. Mise à jour : 2013",
    "tactile_paving": "no"
  }
},
{
  "type": "node",
  "id": 2683124410,
  "lat": 45.4407365,
  "lon": 4.3924633,
  "tags": {
    "bench": "no",
    "bin": "no",
    "bus": "yes",
    "highway": "bus_stop",
    "lit": "no",
    "name": "Painlevé Royet",
    "network": "STAS",
    "public_transport": "platform",
    "shelter": "no",
    "tactile_paving": "no"
  }
},
{
  "type": "node",
  "id": 2730592713,
  "lat": 45.4127633,
  "lon": 4.3911345,
  "tags": {
    "highway": "bus_stop",
    "name": "Hôpital Bellevue",
    "network": "STAS",
    "public_transport": "platform",
    "source": "multitud"
  }
},
{
  "type": "node",
  "id": 2730592720,
  "lat": 45.4128410,
  "lon": 4.3903708,
  "tags": {
    "highway": "bus_stop",
    "name": "Hôpital Bellevue",
    "network": "STAS",
    "public_transport": "platform",
    "source": "multitud"
  }
},
{
  "type": "node",
  "id": 2732850556,
  "lat": 45.4116761,
  "lon": 4.3868682,
  "tags": {
    "highway": "bus_stop",
    "name": "Bossuet",
    "network": "STAS",
    "public_transport": "platform",
    "source": "survey"
  }
},
{
  "type": "node",
  "id": 2732850561,
  "lat": 45.4071897,
  "lon": 4.3803230,
  "tags": {
    "highway": "bus_stop",
    "name": "Croix de l'Orme",
    "network": "STAS",
    "public_transport": "platform",
    "source": "survey"
  }
},
{
  "type": "node",
  "id": 2732850587,
  "lat": 45.4073530,
  "lon": 4.3803743,
  "tags": {
    "highway": "bus_stop",
    "name": "Croix de l'Orme",
    "network": "STAS",
    "public_transport": "platform",
    "shelter": "yes",
    "source": "survey"
  }
},
{
  "type": "node",
  "id": 2732850600,
  "lat": 45.4108001,
  "lon": 4.3856147,
  "tags": {
    "highway": "bus_stop",
    "name": "Henri Brisson",
    "network": "STAS",
    "public_transport": "platform",
    "source": "survey"
  }
},
{
  "type": "node",
  "id": 2732850613,
  "lat": 45.4108393,
  "lon": 4.3854808,
  "tags": {
    "highway": "bus_stop",
    "name": "Henri Brisson",
    "network": "STAS",
    "public_transport": "platform",
    "source": "survey"
  }
},
{
  "type": "node",
  "id": 2732850619,
  "lat": 45.4088028,
  "lon": 4.3823165,
  "tags": {
    "highway": "bus_stop",
    "name": "Solaure",
    "network": "STAS",
    "public_transport": "platform",
    "source": "survey"
  }
},
{
  "type": "node",
  "id": 2732850627,
  "lat": 45.4089357,
  "lon": 4.3822869,
  "tags": {
    "highway": "bus_stop",
    "name": "Solaure",
    "network": "STAS",
    "public_transport": "platform",
    "source": "survey"
  }
},
{
  "type": "node",
  "id": 2734436905,
  "lat": 45.4435100,
  "lon": 4.3702801,
  "tags": {
    "bench": "yes",
    "bus": "yes",
    "highway": "bus_stop",
    "name": "Grand Coin",
    "public_transport": "platform",
    "shelter": "yes",
    "tactile_paving": "no"
  }
},
{
  "type": "node",
  "id": 2734436913,
  "lat": 45.4426003,
  "lon": 4.3728054,
  "tags": {
    "bench": "no",
    "bus": "yes",
    "highway": "bus_stop",
    "name": "Petit Coin",
    "public_transport": "platform",
    "shelter": "no"
  }
},
{
  "type": "node",
  "id": 2734522648,
  "lat": 45.4382171,
  "lon": 4.3665054,
  "tags": {
    "bus": "yes",
    "highway": "bus_stop",
    "name": "Michon",
    "public_transport": "platform",
    "shelter": "yes"
  }
},
{
  "type": "node",
  "id": 2734522654,
  "lat": 45.4384114,
  "lon": 4.3662607,
  "tags": {
    "bus": "yes",
    "highway": "bus_stop",
    "name": "Michon",
    "public_transport": "platform",
    "shelter": "yes"
  }
},
{
  "type": "node",
  "id": 2736013962,
  "lat": 45.4225669,
  "lon": 4.3858460,
  "tags": {
    "bench": "yes",
    "highway": "bus_stop",
    "name": "Cité U",
    "name:fr": "Cité universitaire la cotonne",
    "public_transport": "platform",
    "shelter": "yes",
    "source": "survey"
  }
},
{
  "type": "node",
  "id": 2736013964,
  "lat": 45.4226895,
  "lon": 4.3858592,
  "tags": {
    "bench": "yes",
    "highway": "bus_stop",
    "name": "Cité U",
    "public_transport": "platform",
    "shelter": "yes",
    "source": "survey"
  }
},
{
  "type": "node",
  "id": 2736013965,
  "lat": 45.4220038,
  "lon": 4.3831261,
  "tags": {
    "bench": "yes",
    "highway": "bus_stop",
    "name": "Cotonne",
    "public_transport": "platform",
    "shelter": "yes",
    "source": "survey"
  }
},
{
  "type": "node",
  "id": 2736013970,
  "lat": 45.4312264,
  "lon": 4.3809940,
  "tags": {
    "highway": "bus_stop",
    "name": "Martin Bernard",
    "public_transport": "platform"
  }
},
{
  "type": "node",
  "id": 2736013972,
  "lat": 45.4285538,
  "lon": 4.3821046,
  "tags": {
    "highway": "bus_stop",
    "name": "Merlin",
    "public_transport": "platform"
  }
},
{
  "type": "node",
  "id": 2736013973,
  "lat": 45.4294061,
  "lon": 4.3821461,
  "tags": {
    "highway": "bus_stop",
    "name": "Merlin",
    "public_transport": "platform"
  }
},
{
  "type": "node",
  "id": 2736013976,
  "lat": 45.4229939,
  "lon": 4.3830441,
  "tags": {
    "bench": "yes",
    "bin": "no",
    "highway": "bus_stop",
    "lit": "no",
    "name": "Palerne",
    "public_transport": "platform",
    "shelter": "yes",
    "source": "survey",
    "tactile_paving": "no"
  }
},
{
  "type": "node",
  "id": 2736013977,
  "lat": 45.4230855,
  "lon": 4.3838333,
  "tags": {
    "bench": "yes",
    "bin": "yes",
    "highway": "bus_stop",
    "name": "Palerne",
    "public_transport": "platform",
    "shelter": "yes",
    "source": "survey"
  }
},
{
  "type": "node",
  "id": 2736013980,
  "lat": 45.4321159,
  "lon": 4.3813423,
  "tags": {
    "highway": "bus_stop",
    "name": "Raspail",
    "public_transport": "platform"
  }
},
{
  "type": "node",
  "id": 2736013982,
  "lat": 45.4324988,
  "lon": 4.3812067,
  "tags": {
    "highway": "bus_stop",
    "name": "Raspail",
    "public_transport": "platform"
  }
},
{
  "type": "node",
  "id": 2736013984,
  "lat": 45.4279716,
  "lon": 4.3839223,
  "tags": {
    "bench": "yes",
    "highway": "bus_stop",
    "name": "Tardy",
    "public_transport": "platform",
    "shelter": "yes"
  }
},
{
  "type": "node",
  "id": 2736495889,
  "lat": 45.4384363,
  "lon": 4.3877177,
  "tags": {
    "bench": "yes",
    "bin": "yes",
    "check_date:shelter": "2021-08-25",
    "highway": "bus_stop",
    "lit": "yes",
    "name": "Dorian/Hôtel de Ville",
    "public_transport": "platform",
    "shelter": "yes",
    "source": "survey",
    "tactile_paving": "no",
    "wheelchair": "yes"
  }
},
{
  "type": "node",
  "id": 2736495934,
  "lat": 45.4346629,
  "lon": 4.3823737,
  "tags": {
    "bench": "yes",
    "check_date:shelter": "2020-12-21",
    "highway": "bus_stop",
    "name": "Saint-Ennemond",
    "public_transport": "platform",
    "shelter": "yes",
    "tactile_paving": "no"
  }
},
{
  "type": "node",
  "id": 2736495942,
  "lat": 45.4347051,
  "lon": 4.3825371,
  "tags": {
    "bench": "no",
    "highway": "bus_stop",
    "name": "Saint-Ennemond",
    "public_transport": "platform",
    "shelter": "no"
  }
},
{
  "type": "node",
  "id": 2736662747,
  "lat": 45.4393317,
  "lon": 4.4062711,
  "tags": {
    "bus": "yes",
    "highway": "bus_stop",
    "name": "Bd du 38e Régiment d'Infanterie",
    "network": "STAS",
    "public_transport": "platform"
  }
},
{
  "type": "node",
  "id": 2736662752,
  "lat": 45.4394209,
  "lon": 4.4062789,
  "tags": {
    "bus": "yes",
    "highway": "bus_stop",
    "name": "Bd du 38e Régiment d'Infanterie",
    "network": "STAS",
    "public_transport": "platform"
  }
},
{
  "type": "node",
  "id": 2736662756,
  "lat": 45.4403251,
  "lon": 4.4084079,
  "tags": {
    "bus": "yes",
    "highway": "bus_stop",
    "name": "Rue Beaumarchais",
    "network": "STAS",
    "public_transport": "platform"
  }
},
{
  "type": "node",
  "id": 2736662764,
  "lat": 45.4407071,
  "lon": 4.4089361,
  "tags": {
    "bus": "yes",
    "highway": "bus_stop",
    "name": "Rue Beaumarchais",
    "network": "STAS",
    "public_transport": "platform"
  }
},
{
  "type": "node",
  "id": 2736662768,
  "lat": 45.4411437,
  "lon": 4.4133443,
  "tags": {
    "bench": "no",
    "highway": "bus_stop",
    "name": "Rue des Alliés",
    "network": "STAS",
    "public_transport": "platform",
    "shelter": "no"
  }
},
{
  "type": "node",
  "id": 2736662773,
  "lat": 45.4413702,
  "lon": 4.4136697,
  "tags": {
    "bench": "yes",
    "highway": "bus_stop",
    "name": "Rue des Alliés",
    "network": "STAS",
    "public_transport": "platform",
    "shelter": "yes"
  }
},
{
  "type": "node",
  "id": 2737627121,
  "lat": 45.4393827,
  "lon": 4.4199993,
  "tags": {
    "bench": "yes",
    "highway": "bus_stop",
    "name": "Bois d'Avaize",
    "network": "STAS",
    "public_transport": "platform",
    "shelter": "yes",
    "tactile_paving": "no"
  }
},
{
  "type": "node",
  "id": 2737627124,
  "lat": 45.4396275,
  "lon": 4.4199006,
  "tags": {
    "bench": "yes",
    "highway": "bus_stop",
    "name": "Bois d'Avaize",
    "network": "STAS",
    "public_transport": "platform",
    "shelter": "yes",
    "tactile_paving": "no"
  }
},
{
  "type": "node",
  "id": 2737627136,
  "lat": 45.4398669,
  "lon": 4.4274980,
  "tags": {
    "bench": "yes",
    "highway": "bus_stop",
    "name": "Cinq Chemins",
    "network": "STAS",
    "public_transport": "platform",
    "shelter": "yes"
  }
},
{
  "type": "node",
  "id": 2737627144,
  "lat": 45.4399854,
  "lon": 4.4275296,
  "tags": {
    "bench": "no",
    "highway": "bus_stop",
    "name": "Cinq Chemins",
    "network": "STAS",
    "public_transport": "platform",
    "shelter": "yes"
  }
},
{
  "type": "node",
  "id": 2737627148,
  "lat": 45.4411450,
  "lon": 4.4324315,
  "tags": {
    "bench": "no",
    "highway": "bus_stop",
    "name": "Les Chaleyères",
    "network": "STAS",
    "public_transport": "platform",
    "shelter": "no"
  }
},
{
  "type": "node",
  "id": 2737627154,
  "lat": 45.4413321,
  "lon": 4.4324703,
  "tags": {
    "bench": "yes",
    "highway": "bus_stop",
    "name": "Les Chaleyères",
    "network": "STAS",
    "public_transport": "platform",
    "shelter": "yes"
  }
},
{
  "type": "node",
  "id": 2737627167,
  "lat": 45.4391019,
  "lon": 4.4219253,
  "tags": {
    "bench": "no",
    "highway": "bus_stop",
    "name": "Louis Destre",
    "network": "STAS",
    "public_transport": "platform",
    "shelter": "no",
    "tactile_paving": "no"
  }
},
{
  "type": "node",
  "id": 2737627175,
  "lat": 45.4390598,
  "lon": 4.4226911,
  "tags": {
    "bench": "no",
    "highway": "bus_stop",
    "name": "Louis Destre",
    "network": "STAS",
    "public_transport": "platform",
    "shelter": "no",
    "tactile_paving": "no"
  }
},
{
  "type": "node",
  "id": 2737627198,
  "lat": 45.4412046,
  "lon": 4.4172963,
  "tags": {
    "bench": "yes",
    "highway": "bus_stop",
    "name": "Monthieu",
    "network": "STAS",
    "public_transport": "platform",
    "shelter": "yes"
  }
},
{
  "type": "node",
  "id": 2737627211,
  "lat": 45.4412916,
  "lon": 4.4167229,
  "tags": {
    "bench": "no",
    "highway": "bus_stop",
    "name": "Monthieu",
    "network": "STAS",
    "public_transport": "platform",
    "shelter": "no"
  }
},
{
  "type": "node",
  "id": 2737627215,
  "lat": 45.4362000,
  "lon": 4.4370229,
  "tags": {
    "bench": "yes",
    "highway": "bus_stop",
    "name": "Place Vial",
    "network": "STAS",
    "public_transport": "platform",
    "shelter": "yes"
  }
},
{
  "type": "node",
  "id": 2737627229,
  "lat": 45.4364017,
  "lon": 4.4370360,
  "tags": {
    "bench": "yes",
    "highway": "bus_stop",
    "name": "Place Vial",
    "network": "STAS",
    "public_transport": "platform",
    "shelter": "yes"
  }
},
{
  "type": "node",
  "id": 2737627235,
  "lat": 45.4397653,
  "lon": 4.4361867,
  "tags": {
    "bench": "yes",
    "highway": "bus_stop",
    "name": "Puits Lachaud",
    "network": "STAS",
    "public_transport": "platform",
    "shelter": "yes"
  }
},
{
  "type": "node",
  "id": 2737627238,
  "lat": 45.4401553,
  "lon": 4.4360251,
  "tags": {
    "bench": "no",
    "highway": "bus_stop",
    "name": "Puits Lachaud",
    "network": "STAS",
    "public_transport": "platform",
    "shelter": "no"
  }
},
{
  "type": "node",
  "id": 2737627252,
  "lat": 45.4344153,
  "lon": 4.4373683,
  "tags": {
    "bench": "yes",
    "highway": "bus_stop",
    "name": "Terrenoire",
    "network": "STAS",
    "public_transport": "platform",
    "shelter": "yes"
  }
},
{
  "type": "node",
  "id": 2737627268,
  "lat": 45.4345944,
  "lon": 4.4370922,
  "tags": {
    "bench": "no",
    "highway": "bus_stop",
    "name": "Terrenoire",
    "network": "STAS",
    "public_transport": "platform",
    "shelter": "no"
  }
},
{
  "type": "node",
  "id": 2737627275,
  "lat": 45.4381209,
  "lon": 4.4362898,
  "tags": {
    "bench": "no",
    "highway": "bus_stop",
    "name": "Thomas Edison",
    "network": "STAS",
    "public_transport": "platform",
    "shelter": "no"
  }
},
{
  "type": "node",
  "id": 2737627289,
  "lat": 45.4382215,
  "lon": 4.4363860,
  "tags": {
    "bench": "no",
    "highway": "bus_stop",
    "name": "Thomas Edison",
    "network": "STAS",
    "public_transport": "platform",
    "shelter": "no"
  }
},
{
  "type": "node",
  "id": 2739009651,
  "lat": 45.4114681,
  "lon": 4.3977566,
  "tags": {
    "bench": "yes",
    "bus": "yes",
    "highway": "bus_stop",
    "name": "Digonnière",
    "network": "STAS;TIL",
    "public_transport": "platform",
    "shelter": "yes"
  }
},
{
  "type": "node",
  "id": 2739009654,
  "lat": 45.4116652,
  "lon": 4.3977777,
  "tags": {
    "bench": "no",
    "bus": "yes",
    "highway": "bus_stop",
    "name": "Digonnière",
    "network": "STAS;TIL",
    "public_transport": "platform",
    "shelter": "no"
  }
},
{
  "type": "node",
  "id": 2739427740,
  "lat": 45.4198423,
  "lon": 4.4113933,
  "tags": {
    "bench": "no",
    "highway": "bus_stop",
    "name": "Parc de l'Europe",
    "network": "STAS",
    "public_transport": "platform",
    "shelter": "no"
  }
},
{
  "type": "node",
  "id": 2739427745,
  "lat": 45.4198285,
  "lon": 4.4115932,
  "tags": {
    "bench": "yes",
    "highway": "bus_stop",
    "name": "Parc de l'Europe",
    "network": "STAS",
    "public_transport": "platform",
    "shelter": "yes"
  }
},
{
  "type": "node",
  "id": 2739519382,
  "lat": 45.4320320,
  "lon": 4.4139833,
  "tags": {
    "bench": "no",
    "highway": "bus_stop",
    "name": "Rue de Terrenoire",
    "network": "STAS",
    "public_transport": "platform",
    "shelter": "no",
    "tactile_paving": "no"
  }
},
{
  "type": "node",
  "id": 2739519383,
  "lat": 45.4331794,
  "lon": 4.4157408,
  "tags": {
    "bench": "yes",
    "highway": "bus_stop",
    "name": "Rue des Villas",
    "network": "STAS",
    "public_transport": "platform",
    "shelter": "yes",
    "tactile_paving": "no"
  }
},
{
  "type": "node",
  "id": 2739519385,
  "lat": 45.4332564,
  "lon": 4.4156132,
  "tags": {
    "bench": "no",
    "highway": "bus_stop",
    "name": "Rue des Villas",
    "network": "STAS",
    "public_transport": "platform",
    "shelter": "no",
    "tactile_paving": "no"
  }
},
{
  "type": "node",
  "id": 2739887508,
  "lat": 45.4142265,
  "lon": 4.2964052,
  "tags": {
    "bus": "yes",
    "highway": "bus_stop",
    "name": "Laumière",
    "public_transport": "platform"
  }
},
{
  "type": "node",
  "id": 2739887514,
  "lat": 45.4149302,
  "lon": 4.3022190,
  "tags": {
    "bus": "yes",
    "highway": "bus_stop",
    "name": "Puits Voisin",
    "public_transport": "platform"
  }
},
{
  "type": "node",
  "id": 2740879167,
  "lat": 45.4352204,
  "lon": 4.4180328,
  "tags": {
    "bench": "yes",
    "highway": "bus_stop",
    "name": "Gauthier Dumont",
    "network": "STAS",
    "public_transport": "platform",
    "shelter": "yes"
  }
},
{
  "type": "node",
  "id": 2740879180,
  "lat": 45.4353536,
  "lon": 4.4181387,
  "tags": {
    "bench": "yes",
    "highway": "bus_stop",
    "name": "Gauthier Dumont",
    "network": "STAS",
    "public_transport": "platform",
    "shelter": "yes"
  }
},
{
  "type": "node",
  "id": 2740879192,
  "lat": 45.4383872,
  "lon": 4.4055232,
  "tags": {
    "bench": "no",
    "highway": "bus_stop",
    "name": "Isérable",
    "network": "STAS",
    "public_transport": "platform",
    "shelter": "no"
  }
},
{
  "type": "node",
  "id": 2740879198,
  "lat": 45.4386620,
  "lon": 4.4051014,
  "tags": {
    "bench": "yes",
    "highway": "bus_stop",
    "name": "Isérable",
    "network": "STAS",
    "public_transport": "platform",
    "shelter": "yes",
    "tactile_paving": "no"
  }
},
{
  "type": "node",
  "id": 2740879205,
  "lat": 45.4371693,
  "lon": 4.4120045,
  "tags": {
    "bench": "yes",
    "highway": "bus_stop",
    "name": "Normandie Niemen",
    "network": "STAS",
    "public_transport": "platform",
    "shelter": "yes",
    "tactile_paving": "no"
  }
},
{
  "type": "node",
  "id": 2740879223,
  "lat": 45.4374795,
  "lon": 4.4110150,
  "tags": {
    "bench": "yes",
    "highway": "bus_stop",
    "name": "Normandie Niemen",
    "network": "STAS",
    "public_transport": "platform",
    "shelter": "yes"
  }
},
{
  "type": "node",
  "id": 2740879229,
  "lat": 45.4359437,
  "lon": 4.4154756,
  "tags": {
    "bench": "yes",
    "highway": "bus_stop",
    "name": "Paul Ronin",
    "network": "STAS",
    "public_transport": "platform",
    "shelter": "yes"
  }
},
{
  "type": "node",
  "id": 2740879242,
  "lat": 45.4360864,
  "lon": 4.4154590,
  "tags": {
    "bench": "yes",
    "highway": "bus_stop",
    "name": "Paul Ronin",
    "network": "STAS",
    "public_transport": "platform",
    "shelter": "yes"
  }
},
{
  "type": "node",
  "id": 2740879248,
  "lat": 45.4376996,
  "lon": 4.4095035,
  "tags": {
    "bench": "no",
    "highway": "bus_stop",
    "name": "Robinson",
    "network": "STAS",
    "public_transport": "platform",
    "shelter": "no",
    "tactile_paving": "no"
  }
},
{
  "type": "node",
  "id": 2740879261,
  "lat": 45.4379592,
  "lon": 4.4083907,
  "tags": {
    "bench": "no",
    "highway": "bus_stop",
    "name": "Robinson",
    "network": "STAS",
    "public_transport": "platform",
    "shelter": "no"
  }
},
{
  "type": "node",
  "id": 2740879267,
  "lat": 45.4406590,
  "lon": 4.4048644,
  "tags": {
    "highway": "bus_stop",
    "name": "Rue de la Chance",
    "network": "STAS",
    "public_transport": "platform",
    "shelter": "no",
    "tactile_paving": "no"
  }
},
{
  "type": "node",
  "id": 2740879270,
  "lat": 45.4342645,
  "lon": 4.4178337,
  "tags": {
    "bench": "yes",
    "highway": "bus_stop",
    "name": "Sainte-Marguerite",
    "public_transport": "platform",
    "shelter": "yes"
  }
},
{
  "type": "node",
  "id": 2741640729,
  "lat": 45.4365352,
  "lon": 4.3926833,
  "tags": {
    "bench": "yes",
    "bin": "yes",
    "highway": "bus_stop",
    "lit": "no",
    "name": "Marcelin Allard",
    "public_transport": "platform",
    "shelter": "yes",
    "tactile_paving": "no"
  }
},
{
  "type": "node",
  "id": 2741640732,
  "lat": 45.4368725,
  "lon": 4.3910615,
  "tags": {
    "bench": "yes",
    "bin": "no",
    "highway": "bus_stop",
    "lit": "no",
    "name": "Square Violette",
    "public_transport": "platform",
    "shelter": "yes",
    "tactile_paving": "no"
  }
},
{
  "type": "node",
  "id": 2743483435,
  "lat": 45.4265585,
  "lon": 4.4045193,
  "tags": {
    "bench": "yes",
    "check_date:shelter": "2021-06-01",
    "highway": "bus_stop",
    "lit": "yes",
    "name": "Centre Congrès",
    "public_transport": "platform",
    "shelter": "yes",
    "tactile_paving": "no"
  }
},
{
  "type": "node",
  "id": 2743483437,
  "lat": 45.4305974,
  "lon": 4.3962054,
  "tags": {
    "bench": "yes",
    "bin": "yes",
    "check_date:shelter": "2021-08-21",
    "highway": "bus_stop",
    "lit": "yes",
    "name": "Conservatoire",
    "public_transport": "platform",
    "shelter": "yes",
    "tactile_paving": "no"
  }
},
{
  "type": "node",
  "id": 2743483449,
  "lat": 45.4275074,
  "lon": 4.4009878,
  "tags": {
    "bench": "yes",
    "highway": "bus_stop",
    "name": "Espace Fauriel",
    "public_transport": "platform",
    "shelter": "yes"
  }
},
{
  "type": "node",
  "id": 2743483451,
  "lat": 45.4277120,
  "lon": 4.4005616,
  "tags": {
    "bench": "yes",
    "bin": "yes",
    "check_date:shelter": "2021-08-18",
    "highway": "bus_stop",
    "name": "Espace Fauriel",
    "public_transport": "platform",
    "shelter": "yes",
    "tactile_paving": "no"
  }
},
{
  "type": "node",
  "id": 2743483454,
  "lat": 45.4213500,
  "lon": 4.4106325,
  "tags": {
    "bench": "yes",
    "highway": "bus_stop",
    "name": "Le Rond Point",
    "public_transport": "platform",
    "shelter": "yes"
  }
},
{
  "type": "node",
  "id": 2743483456,
  "lat": 45.4216814,
  "lon": 4.4105319,
  "tags": {
    "bench": "yes",
    "check_date:shelter": "2021-06-09",
    "highway": "bus_stop",
    "lit": "yes",
    "name": "Le Rond Point",
    "public_transport": "platform",
    "shelter": "yes",
    "tactile_paving": "no"
  }
},
{
  "type": "node",
  "id": 2743483460,
  "lat": 45.4241297,
  "lon": 4.4077427,
  "tags": {
    "bench": "yes",
    "bin": "yes",
    "check_date:shelter": "2021-06-01",
    "highway": "bus_stop",
    "lit": "yes",
    "name": "École des Mines",
    "public_transport": "platform",
    "shelter": "yes",
    "tactile_paving": "no"
  }
},
{
  "type": "node",
  "id": 2743706786,
  "lat": 45.4186360,
  "lon": 4.4184046,
  "tags": {
    "bench": "yes",
    "bus": "yes",
    "highway": "bus_stop",
    "name": "C.C. Métare",
    "network": "STAS",
    "not:network:wikidata": "Q377869",
    "public_transport": "platform",
    "shelter": "yes",
    "source": "cadastre-dgi-fr source : Direction Générale des Impôts - Cadastre. Mise à jour : 2010",
    "tactile_paving": "no"
  }
},
{
  "type": "node",
  "id": 2743706794,
  "lat": 45.4186506,
  "lon": 4.4189278,
  "tags": {
    "bench": "yes",
    "bus": "yes",
    "highway": "bus_stop",
    "name": "C.C. Métare",
    "operator": "Veolia Transport",
    "public_transport": "platform",
    "shelter": "yes",
    "source": "cadastre-dgi-fr source : Direction Générale des Impôts - Cadastre. Mise à jour : 2010",
    "tactile_paving": "no"
  }
},
{
  "type": "node",
  "id": 2743706838,
  "lat": 45.4255860,
  "lon": 4.4200760,
  "tags": {
    "highway": "bus_stop",
    "name": "Sembat",
    "public_transport": "platform",
    "source": "cadastre-dgi-fr source : Direction Générale des Impôts - Cadastre. Mise à jour : 2013",
    "tactile_paving": "no"
  }
},
{
  "type": "node",
  "id": 2748530035,
  "lat": 45.4154071,
  "lon": 4.4013694,
  "tags": {
    "bench": "no",
    "highway": "bus_stop",
    "name": "Avenue Rochetaillée",
    "public_transport": "platform",
    "shelter": "no"
  }
},
{
  "type": "node",
  "id": 2748530036,
  "lat": 45.4154460,
  "lon": 4.4009639,
  "tags": {
    "bench": "no",
    "highway": "bus_stop",
    "name": "Avenue Rochetaillée",
    "public_transport": "platform",
    "shelter": "no"
  }
},
{
  "type": "node",
  "id": 2748530040,
  "lat": 45.4150826,
  "lon": 4.3978592,
  "tags": {
    "bench": "no",
    "highway": "bus_stop",
    "name": "Forges",
    "public_transport": "platform",
    "shelter": "no"
  }
},
{
  "type": "node",
  "id": 2748530049,
  "lat": 45.4142951,
  "lon": 4.4001192,
  "tags": {
    "bench": "no",
    "highway": "bus_stop",
    "name": "Rue Amouroux",
    "public_transport": "platform",
    "shelter": "no"
  }
},
{
  "type": "node",
  "id": 2749222149,
  "lat": 45.4207861,
  "lon": 4.3981314,
  "tags": {
    "bench": "yes",
    "highway": "bus_stop",
    "name": "Les Maristes",
    "network": "STAS",
    "public_transport": "platform",
    "shelter": "yes"
  }
},
{
  "type": "node",
  "id": 2749222153,
  "lat": 45.4186825,
  "lon": 4.3997819,
  "tags": {
    "bench": "yes",
    "highway": "bus_stop",
    "name": "Les Mouliniers",
    "public_transport": "platform",
    "shelter": "yes"
  }
},
{
  "type": "node",
  "id": 2749222157,
  "lat": 45.4170771,
  "lon": 4.4006433,
  "tags": {
    "bench": "no",
    "highway": "bus_stop",
    "name": "Thimonnier",
    "public_transport": "platform",
    "shelter": "no"
  }
},
{
  "type": "node",
  "id": 2749222164,
  "lat": 45.4170435,
  "lon": 4.4005145,
  "tags": {
    "bench": "no",
    "highway": "bus_stop",
    "name": "Thimonnier",
    "public_transport": "platform",
    "shelter": "no"
  }
},
{
  "type": "node",
  "id": 2751408379,
  "lat": 45.4347864,
  "lon": 4.3929359,
  "tags": {
    "bench": "yes",
    "highway": "bus_stop",
    "name": "Chavanelle",
    "public_transport": "platform",
    "shelter": "yes"
  }
},
{
  "type": "node",
  "id": 2751408380,
  "lat": 45.4301037,
  "lon": 4.3954998,
  "tags": {
    "bench": "no",
    "highway": "bus_stop",
    "name": "Edmond Maurat",
    "public_transport": "platform",
    "shelter": "no"
  }
},
{
  "type": "node",
  "id": 2751408382,
  "lat": 45.4386567,
  "lon": 4.3916693,
  "tags": {
    "bench": "no",
    "bin": "yes",
    "check_date:bench": "2021-04-30",
    "highway": "bus_stop",
    "lit": "no",
    "name": "Jeu de l'Arc",
    "public_transport": "platform",
    "shelter": "no",
    "tactile_paving": "no"
  }
},
{
  "type": "node",
  "id": 2751408385,
  "lat": 45.4327666,
  "lon": 4.3924043,
  "tags": {
    "bench": "yes",
    "bin": "yes",
    "highway": "bus_stop",
    "lit": "yes",
    "name": "La Charité",
    "public_transport": "platform",
    "shelter": "yes",
    "tactile_paving": "no"
  }
},
{
  "type": "node",
  "id": 2751576067,
  "lat": 45.4460345,
  "lon": 4.3680234,
  "tags": {
    "bench": "yes",
    "bus": "yes",
    "highway": "bus_stop",
    "name": "Benoît Frachon",
    "network": "STAS",
    "public_transport": "platform",
    "shelter": "yes"
  }
},
{
  "type": "node",
  "id": 2751576072,
  "lat": 45.4463002,
  "lon": 4.3675656,
  "tags": {
    "bench": "yes",
    "bus": "yes",
    "highway": "bus_stop",
    "name": "Benoît Frachon",
    "network": "STAS",
    "public_transport": "platform",
    "shelter": "yes"
  }
},
{
  "type": "node",
  "id": 2751576073,
  "lat": 45.4437271,
  "lon": 4.3699957,
  "tags": {
    "bench": "yes",
    "bus": "yes",
    "highway": "bus_stop",
    "name": "Grand Coin",
    "network": "STAS",
    "public_transport": "platform",
    "shelter": "yes",
    "tactile_paving": "no"
  }
},
{
  "type": "node",
  "id": 2751576076,
  "lat": 45.4439238,
  "lon": 4.3697157,
  "tags": {
    "bench": "yes",
    "bus": "yes",
    "highway": "bus_stop",
    "name": "Grand Coin",
    "network": "STAS",
    "public_transport": "platform",
    "shelter": "yes",
    "tactile_paving": "no"
  }
},
{
  "type": "node",
  "id": 2751576078,
  "lat": 45.4385122,
  "lon": 4.3793980,
  "tags": {
    "bench": "yes",
    "bin": "yes",
    "bus": "yes",
    "highway": "bus_stop",
    "lit": "yes",
    "name": "La Pareille",
    "public_transport": "platform",
    "shelter": "yes",
    "tactile_paving": "yes"
  }
},
{
  "type": "node",
  "id": 2751576081,
  "lat": 45.4374568,
  "lon": 4.3785658,
  "tags": {
    "bench": "yes",
    "check_date:shelter": "2021-01-20",
    "highway": "bus_stop",
    "name": "Le Clapier",
    "public_transport": "platform",
    "shelter": "yes",
    "tactile_paving": "no"
  }
},
{
  "type": "node",
  "id": 2751576083,
  "lat": 45.4393393,
  "lon": 4.3772298,
  "tags": {
    "bench": "no",
    "bus": "yes",
    "highway": "bus_stop",
    "name": "Musée de la Mine",
    "public_transport": "platform",
    "shelter": "no",
    "tactile_paving": "no"
  }
},
{
  "type": "node",
  "id": 2751576085,
  "lat": 45.4394950,
  "lon": 4.3767025,
  "tags": {
    "bench": "no",
    "bus": "yes",
    "highway": "bus_stop",
    "name": "Musée de la Mine",
    "public_transport": "platform",
    "shelter": "no"
  }
},
{
  "type": "node",
  "id": 2751576087,
  "lat": 45.4427793,
  "lon": 4.3724920,
  "tags": {
    "bench": "yes",
    "bus": "yes",
    "highway": "bus_stop",
    "name": "Petit Coin",
    "public_transport": "platform",
    "shelter": "yes"
  }
},
{
  "type": "node",
  "id": 2751576088,
  "lat": 45.4406377,
  "lon": 4.3759943,
  "tags": {
    "bench": "no",
    "bus": "yes",
    "highway": "bus_stop",
    "name": "Sainte-Enfance",
    "public_transport": "platform",
    "shelter": "no"
  }
},
{
  "type": "node",
  "id": 2751576090,
  "lat": 45.4413934,
  "lon": 4.3751351,
  "tags": {
    "bench": "yes",
    "bus": "yes",
    "highway": "bus_stop",
    "name": "Sainte-Enfance",
    "public_transport": "platform",
    "shelter": "yes"
  }
},
{
  "type": "node",
  "id": 2751878259,
  "lat": 45.4446056,
  "lon": 4.3635437,
  "tags": {
    "bench": "yes",
    "bus": "yes",
    "highway": "bus_stop",
    "name": "Côte Chaude",
    "network": "STAS",
    "public_transport": "platform",
    "shelter": "yes"
  }
},
{
  "type": "node",
  "id": 2751878262,
  "lat": 45.4448258,
  "lon": 4.3635160,
  "tags": {
    "bench": "yes",
    "highway": "bus_stop",
    "name": "Côte Chaude",
    "network": "STAS",
    "public_transport": "platform",
    "shelter": "yes"
  }
},
{
  "type": "node",
  "id": 2751878272,
  "lat": 45.4386745,
  "lon": 4.3664351,
  "tags": {
    "bench": "yes",
    "bus": "yes",
    "highway": "bus_stop",
    "name": "Michon",
    "public_transport": "platform",
    "shelter": "yes"
  }
},
{
  "type": "node",
  "id": 2751878275,
  "lat": 45.4466961,
  "lon": 4.3623778,
  "tags": {
    "bench": "no",
    "highway": "bus_stop",
    "name": "Quartier Gaillard",
    "network": "STAS",
    "public_transport": "platform",
    "shelter": "no"
  }
},
{
  "type": "node",
  "id": 2751878277,
  "lat": 45.4469193,
  "lon": 4.3625310,
  "tags": {
    "bench": "yes",
    "highway": "bus_stop",
    "name": "Quartier Gaillard",
    "network": "STAS",
    "public_transport": "platform",
    "shelter": "yes"
  }
},
{
  "type": "node",
  "id": 2751878284,
  "lat": 45.4418412,
  "lon": 4.3649614,
  "tags": {
    "bench": "no",
    "bus": "yes",
    "highway": "bus_stop",
    "name": "Roche du Geai",
    "network": "STAS",
    "public_transport": "platform",
    "shelter": "no"
  }
},
{
  "type": "node",
  "id": 2751878287,
  "lat": 45.4423978,
  "lon": 4.3647414,
  "tags": {
    "bench": "no",
    "bus": "yes",
    "highway": "bus_stop",
    "name": "Roche du Geai",
    "network": "STAS",
    "public_transport": "platform",
    "shelter": "yes"
  }
},
{
  "type": "node",
  "id": 2751878292,
  "lat": 45.4396332,
  "lon": 4.3661074,
  "tags": {
    "bench": "no",
    "bus": "yes",
    "highway": "bus_stop",
    "name": "Rue Kléber",
    "network": "STAS",
    "public_transport": "platform",
    "shelter": "no"
  }
},
{
  "type": "node",
  "id": 2751878295,
  "lat": 45.4402899,
  "lon": 4.3658408,
  "tags": {
    "bench": "no",
    "bus": "yes",
    "highway": "bus_stop",
    "name": "Rue Kléber",
    "network": "STAS",
    "public_transport": "platform",
    "shelter": "no"
  }
},
{
  "type": "node",
  "id": 2752332020,
  "lat": 45.4659435,
  "lon": 4.4008147,
  "tags": {
    "bench": "yes",
    "bus": "yes",
    "highway": "bus_stop",
    "name": "Clos Fougeols",
    "network": "Stas",
    "operator": "Stas",
    "public_transport": "platform",
    "shelter": "yes",
    "source": "survey"
  }
},
{
  "type": "node",
  "id": 2752332022,
  "lat": 45.4645523,
  "lon": 4.4086033,
  "tags": {
    "bench": "no",
    "highway": "bus_stop",
    "name": "Collège M. Seguin",
    "public_transport": "platform",
    "shelter": "no",
    "source": "survey"
  }
},
{
  "type": "node",
  "id": 2752332023,
  "lat": 45.4654077,
  "lon": 4.4089272,
  "tags": {
    "bench": "no",
    "highway": "bus_stop",
    "name": "Collège M. Seguin",
    "public_transport": "platform",
    "shelter": "no",
    "source": "survey"
  }
},
{
  "type": "node",
  "id": 2752332026,
  "lat": 45.4633945,
  "lon": 4.4051826,
  "tags": {
    "bench": "yes",
    "bus": "yes",
    "highway": "bus_stop",
    "name": "La Batie",
    "network": "Stas",
    "operator": "Stas",
    "public_transport": "platform",
    "shelter": "yes",
    "source": "survey"
  }
},
{
  "type": "node",
  "id": 2752332030,
  "lat": 45.4677831,
  "lon": 4.3811051,
  "tags": {
    "bench": "no",
    "highway": "bus_stop",
    "name": "La Méarie",
    "public_transport": "platform",
    "shelter": "no",
    "source": "survey"
  }
},
{
  "type": "node",
  "id": 2752332031,
  "lat": 45.4682820,
  "lon": 4.3807167,
  "tags": {
    "bench": "no",
    "highway": "bus_stop",
    "name": "La Méarie",
    "public_transport": "platform",
    "shelter": "no",
    "source": "survey"
  }
},
{
  "type": "node",
  "id": 2752332032,
  "lat": 45.4662394,
  "lon": 4.3982777,
  "tags": {
    "bench": "yes",
    "highway": "bus_stop",
    "name": "Les Granges",
    "public_transport": "platform",
    "shelter": "yes",
    "source": "survey"
  }
},
{
  "type": "node",
  "id": 2752332034,
  "lat": 45.4663893,
  "lon": 4.3981295,
  "tags": {
    "bench": "yes",
    "highway": "bus_stop",
    "name": "Les Granges",
    "name:fr": "Peugeot",
    "public_transport": "platform",
    "shelter": "yes",
    "source": "survey"
  }
},
{
  "type": "node",
  "id": 2752332035,
  "lat": 45.4678518,
  "lon": 4.3833336,
  "tags": {
    "bench": "no",
    "highway": "bus_stop",
    "name": "Montyon",
    "public_transport": "platform",
    "shelter": "no",
    "source": "survey"
  }
},
{
  "type": "node",
  "id": 2752332038,
  "lat": 45.4666313,
  "lon": 4.3918638,
  "tags": {
    "bench": "no",
    "highway": "bus_stop",
    "name": "P. de Coubertin",
    "public_transport": "platform",
    "shelter": "no",
    "source": "survey"
  }
},
{
  "type": "node",
  "id": 2752332041,
  "lat": 45.4667208,
  "lon": 4.3912701,
  "tags": {
    "bench": "yes",
    "highway": "bus_stop",
    "name": "P. de Coubertin",
    "public_transport": "platform",
    "shelter": "yes",
    "source": "survey"
  }
},
{
  "type": "node",
  "id": 2752332043,
  "lat": 45.4663902,
  "lon": 4.3880603,
  "tags": {
    "bench": "no",
    "highway": "bus_stop",
    "name": "Rue de la Tour",
    "public_transport": "platform",
    "shelter": "no",
    "source": "survey"
  }
},
{
  "type": "node",
  "id": 2752332044,
  "lat": 45.4665533,
  "lon": 4.3875035,
  "tags": {
    "bench": "yes",
    "check_date:shelter": "2021-02-15",
    "highway": "bus_stop",
    "name": "Rue de la Tour",
    "public_transport": "platform",
    "shelter": "yes",
    "source": "survey"
  }
},
{
  "type": "node",
  "id": 2752332045,
  "lat": 45.4659810,
  "lon": 4.3790535,
  "tags": {
    "bench": "yes",
    "highway": "bus_stop",
    "name": "Terrasse",
    "public_transport": "platform",
    "shelter": "yes",
    "source": "survey"
  }
},
{
  "type": "node",
  "id": 2752332047,
  "lat": 45.4660340,
  "lon": 4.3790185,
  "tags": {
    "bench": "yes",
    "highway": "bus_stop",
    "name": "Terrasse",
    "public_transport": "platform",
    "shelter": "yes",
    "source": "survey"
  }
},
{
  "type": "node",
  "id": 2752332049,
  "lat": 45.4660300,
  "lon": 4.3789421,
  "tags": {
    "bench": "yes",
    "highway": "bus_stop",
    "name": "Terrasse",
    "public_transport": "platform",
    "shelter": "yes",
    "source": "survey"
  }
},
{
  "type": "node",
  "id": 2752332050,
  "lat": 45.4660522,
  "lon": 4.3788961,
  "tags": {
    "bench": "yes",
    "highway": "bus_stop",
    "name": "Terrasse",
    "public_transport": "platform",
    "shelter": "yes",
    "source": "survey"
  }
},
{
  "type": "node",
  "id": 2752390541,
  "lat": 45.4697938,
  "lon": 4.4080809,
  "tags": {
    "bench": "yes",
    "highway": "bus_stop",
    "name": "La Chèvre",
    "public_transport": "platform",
    "shelter": "yes",
    "source": "survey",
    "wikimedia_commons": "File:Arrêt La Chèvre vers Terrasse.jpg"
  }
},
{
  "type": "node",
  "id": 2752390542,
  "lat": 45.4703344,
  "lon": 4.4080547,
  "tags": {
    "bench": "no",
    "highway": "bus_stop",
    "name": "La Chèvre",
    "public_transport": "platform",
    "shelter": "no",
    "source": "survey"
  }
},
{
  "type": "node",
  "id": 2752390548,
  "lat": 45.4669154,
  "lon": 4.4090503,
  "tags": {
    "bench": "yes",
    "highway": "bus_stop",
    "name": "La Girardière",
    "public_transport": "platform",
    "shelter": "yes",
    "source": "survey",
    "wikimedia_commons": "File:Arrêt La Girardière vers Terrasse.jpg"
  }
},
{
  "type": "node",
  "id": 2752390553,
  "lat": 45.4672025,
  "lon": 4.4092010,
  "tags": {
    "bench": "yes",
    "check_date:shelter": "2021-01-16",
    "highway": "bus_stop",
    "name": "La Girardière",
    "public_transport": "platform",
    "shelter": "yes",
    "source": "survey"
  }
},
{
  "type": "node",
  "id": 2752725735,
  "lat": 45.4731986,
  "lon": 4.3959775,
  "tags": {
    "highway": "bus_stop",
    "name": "Amundsen",
    "network": "STAS",
    "public_transport": "platform",
    "shelter": "no"
  }
},
{
  "type": "node",
  "id": 2752725741,
  "lat": 45.4733029,
  "lon": 4.3958467,
  "tags": {
    "highway": "bus_stop",
    "name": "Amundsen",
    "network": "STAS",
    "public_transport": "platform",
    "shelter": "yes"
  }
},
{
  "type": "node",
  "id": 2752725765,
  "lat": 45.4727482,
  "lon": 4.3914984,
  "tags": {
    "highway": "bus_stop",
    "name": "Brahms",
    "network": "STAS",
    "public_transport": "platform",
    "shelter": "yes"
  }
},
{
  "type": "node",
  "id": 2752725771,
  "lat": 45.4729880,
  "lon": 4.3916441,
  "tags": {
    "highway": "bus_stop",
    "name": "Brahms",
    "network": "STAS",
    "public_transport": "platform",
    "shelter": "yes"
  }
},
{
  "type": "node",
  "id": 2752725804,
  "lat": 45.4718656,
  "lon": 4.3935401,
  "tags": {
    "highway": "bus_stop",
    "name": "Fleming",
    "network": "STAS",
    "public_transport": "platform",
    "shelter": "yes"
  }
},
{
  "type": "node",
  "id": 2752725814,
  "lat": 45.4719733,
  "lon": 4.3939186,
  "tags": {
    "highway": "bus_stop",
    "name": "Fleming",
    "network": "STAS",
    "public_transport": "platform",
    "shelter": "no"
  }
},
{
  "type": "node",
  "id": 2752725820,
  "lat": 45.4708875,
  "lon": 4.4000905,
  "tags": {
    "highway": "bus_stop",
    "name": "Georges Bizet",
    "network": "STAS",
    "public_transport": "platform",
    "shelter": "yes"
  }
},
{
  "type": "node",
  "id": 2752725832,
  "lat": 45.4741957,
  "lon": 4.3927237,
  "tags": {
    "highway": "bus_stop",
    "name": "Saint-Saëns",
    "network": "STAS",
    "public_transport": "platform",
    "shelter": "yes"
  }
},
{
  "type": "node",
  "id": 2752725837,
  "lat": 45.4742019,
  "lon": 4.3931133,
  "tags": {
    "highway": "bus_stop",
    "name": "Saint-Saëns",
    "network": "STAS",
    "public_transport": "platform",
    "shelter": "yes"
  }
},
{
  "type": "node",
  "id": 2752725843,
  "lat": 45.4716089,
  "lon": 4.4057816,
  "tags": {
    "bench": "no",
    "highway": "bus_stop",
    "name": "Tennis",
    "public_transport": "platform",
    "shelter": "no",
    "source": "survey"
  }
},
{
  "type": "node",
  "id": 2752725855,
  "lat": 45.4717929,
  "lon": 4.4056935,
  "tags": {
    "bench": "no",
    "highway": "bus_stop",
    "name": "Tennis",
    "public_transport": "platform",
    "shelter": "no",
    "source": "survey"
  }
},
{
  "type": "node",
  "id": 2752851333,
  "lat": 45.4705255,
  "lon": 4.3943713,
  "tags": {
    "highway": "bus_stop",
    "name": "Allée Troènes",
    "network": "STAS",
    "public_transport": "platform",
    "shelter": "yes"
  }
},
{
  "type": "node",
  "id": 2752851334,
  "lat": 45.4708738,
  "lon": 4.3945319,
  "tags": {
    "highway": "bus_stop",
    "name": "Allée Troènes",
    "network": "STAS",
    "public_transport": "platform",
    "shelter": "yes"
  }
},
{
  "type": "node",
  "id": 2752851336,
  "lat": 45.4680309,
  "lon": 4.3937708,
  "tags": {
    "highway": "bus_stop",
    "name": "Cottages",
    "network": "STAS",
    "public_transport": "platform",
    "shelter": "yes"
  }
},
{
  "type": "node",
  "id": 2752851337,
  "lat": 45.4681573,
  "lon": 4.3936871,
  "tags": {
    "highway": "bus_stop",
    "name": "Cottages",
    "network": "STAS",
    "public_transport": "platform",
    "shelter": "yes"
  }
},
{
  "type": "node",
  "id": 2752851339,
  "lat": 45.4658555,
  "lon": 4.3988242,
  "tags": {
    "highway": "bus_stop",
    "name": "Gustave Delory",
    "network": "STAS",
    "public_transport": "platform",
    "shelter": "yes"
  }
},
{
  "type": "node",
  "id": 2752851340,
  "lat": 45.4658686,
  "lon": 4.3990028,
  "tags": {
    "highway": "bus_stop",
    "name": "Gustave Delory",
    "network": "STAS",
    "public_transport": "platform",
    "shelter": "yes"
  }
},
{
  "type": "node",
  "id": 2752851341,
  "lat": 45.4610396,
  "lon": 4.3968866,
  "tags": {
    "highway": "bus_stop",
    "name": "Le Bessard",
    "network": "STAS",
    "public_transport": "platform",
    "shelter": "yes"
  }
},
{
  "type": "node",
  "id": 2752851343,
  "lat": 45.4613297,
  "lon": 4.3968606,
  "tags": {
    "highway": "bus_stop",
    "name": "Le Bessard",
    "network": "STAS",
    "public_transport": "platform",
    "shelter": "yes"
  }
},
{
  "type": "node",
  "id": 2752851345,
  "lat": 45.4587210,
  "lon": 4.3951665,
  "tags": {
    "highway": "bus_stop",
    "name": "Le Marais",
    "network": "STAS",
    "public_transport": "platform",
    "shelter": "yes"
  }
},