{
  "version": 0.6,
  "generator": "Overpass API 0.7.57 93a4d346",
  "osm3s": {
    "timestamp_osm_base": "2022-02-13T13:29:38Z",
    "timestamp_areas_base": "2022-02-13T06:31:57Z",
    "copyright": "The data included in this document is from www.openstreetmap.org. The data is made available under ODbL."
  },
  "elements": [

{
  "type": "node",
  "id": 23719915,
  "lat": 45.8999386,
  "lon": 6.1164500,
  "tags": {
    "bus": "yes",
    "highway": "bus_stop",
    "name": "Mandallaz",
    "network": "Sibra",
    "public_transport": "stop_position"
  }
},
{
  "type": "node",
  "id": 27087054,
  "lat": 45.8926739,
  "lon": 6.1109694,
  "tags": {
    "bus": "yes",
    "highway": "bus_stop",
    "name": "Barral",
    "network": "Sibra",
    "public_transport": "stop_position"
  }
},
{
  "type": "node",
  "id": 29035985,
  "lat": 45.9221486,
  "lon": 6.1715205,
  "tags": {
    "bus": "yes",
    "highway": "bus_stop",
    "name": "Bergeronette",
    "operator": "Sibra",
    "public_transport": "stop_position"
  }
},
{
  "type": "node",
  "id": 29035987,
  "lat": 45.9231141,
  "lon": 6.1732723,
  "tags": {
    "bus": "yes",
    "highway": "bus_stop",
    "name": "Bulloz",
    "operator": "Sibra",
    "public_transport": "stop_position"
  }
},
{
  "type": "node",
  "id": 29041847,
  "lat": 45.9194361,
  "lon": 6.1548505,
  "tags": {
    "bus": "yes",
    "highway": "bus_stop",
    "name": "IUT",
    "network": "Sibra",
    "public_transport": "stop_position"
  }
},
{
  "type": "node",
  "id": 29041859,
  "lat": 45.9209521,
  "lon": 6.1643413,
  "tags": {
    "bus": "yes",
    "highway": "bus_stop",
    "name": "Rampignon",
    "network": "Sibra",
    "public_transport": "stop_position"
  }
},
{
  "type": "node",
  "id": 29331801,
  "lat": 45.9058742,
  "lon": 6.1586543,
  "tags": {
    "bus": "yes",
    "highway": "bus_stop",
    "name": "Petit Port Chavoires",
    "operator": "Sibra",
    "public_transport": "stop_position"
  }
},
{
  "type": "node",
  "id": 29397500,
  "lat": 45.9211645,
  "lon": 6.1451320,
  "tags": {
    "bus": "yes",
    "highway": "bus_stop",
    "name": "Tilleuls",
    "network": "Sibra",
    "public_transport": "stop_position"
  }
},
{
  "type": "node",
  "id": 31724557,
  "lat": 45.9230290,
  "lon": 6.1360423,
  "tags": {
    "bus": "yes",
    "highway": "bus_stop",
    "name": "Evire",
    "network": "Sibra",
    "public_transport": "stop_position"
  }
},
{
  "type": "node",
  "id": 245406767,
  "lat": 45.9084335,
  "lon": 6.1457415,
  "tags": {
    "bus": "yes",
    "highway": "bus_stop",
    "name": "Cygnes",
    "network": "Sibra",
    "public_transport": "stop_position"
  }
},
{
  "type": "node",
  "id": 245406771,
  "lat": 45.9068303,
  "lon": 6.1464268,
  "tags": {
    "bus": "yes",
    "highway": "bus_stop",
    "name": "Albigny",
    "network": "Sibra",
    "public_transport": "stop_position"
  }
},
{
  "type": "node",
  "id": 245406783,
  "lat": 45.9054872,
  "lon": 6.1437112,
  "tags": {
    "bus": "yes",
    "highway": "bus_stop",
    "name": "Impérial",
    "network": "Sibra",
    "public_transport": "stop_position"
  }
},
{
  "type": "node",
  "id": 246815650,
  "lat": 45.9130164,
  "lon": 6.1491331,
  "tags": {
    "bus": "yes",
    "highway": "bus_stop",
    "name": "Vergers",
    "operator": "Sibra",
    "public_transport": "stop_position"
  }
},
{
  "type": "node",
  "id": 246818708,
  "lat": 45.9073183,
  "lon": 6.1520553,
  "tags": {
    "bus": "yes",
    "highway": "bus_stop",
    "name": "Écureuils",
    "operator": "Sibra",
    "public_transport": "stop_position"
  }
},
{
  "type": "node",
  "id": 246820742,
  "lat": 45.9099728,
  "lon": 6.1493183,
  "tags": {
    "bus": "yes",
    "highway": "bus_stop",
    "name": "Pré d'Avril",
    "network": "Sibra",
    "public_transport": "stop_position"
  }
},
{
  "type": "node",
  "id": 248915488,
  "lat": 45.9289222,
  "lon": 6.1628372,
  "tags": {
    "bus": "yes",
    "highway": "bus_stop",
    "name": "Pré Paillard",
    "network": "Sibra",
    "public_transport": "stop_position",
    "wheelchair": "yes"
  }
},
{
  "type": "node",
  "id": 248917450,
  "lat": 45.9247236,
  "lon": 6.1660207,
  "tags": {
    "bus": "yes",
    "highway": "bus_stop",
    "name": "Pré Félin",
    "network": "Sibra",
    "public_transport": "stop_position",
    "wheelchair": "no"
  }
},
{
  "type": "node",
  "id": 256325780,
  "lat": 45.9189225,
  "lon": 6.1182182,
  "tags": {
    "advertising": "yes",
    "bus": "yes",
    "highway": "bus_stop",
    "lit": "sunset-sunrise",
    "name": "Arcadium",
    "network": "Sibra",
    "public_transport": "stop_position"
  }
},
{
  "type": "node",
  "id": 256326373,
  "lat": 45.9124603,
  "lon": 6.1214574,
  "tags": {
    "bus": "yes",
    "highway": "bus_stop",
    "name": "MJC Romains",
    "network": "Sibra",
    "public_transport": "stop_position"
  }
},
{
  "type": "node",
  "id": 256326382,
  "lat": 45.9136432,
  "lon": 6.1207115,
  "tags": {
    "bus": "yes",
    "highway": "bus_stop",
    "name": "Maréchal Leclerc",
    "network": "Sibra",
    "public_transport": "stop_position"
  }
},
{
  "type": "node",
  "id": 256329348,
  "lat": 45.9226776,
  "lon": 6.1238506,
  "tags": {
    "advertising": "yes",
    "bus": "yes",
    "highway": "bus_stop",
    "lit": "sunset-sunrise",
    "name": "Genève Fier",
    "network": "Sibra",
    "public_transport": "stop_position"
  }
},
{
  "type": "node",
  "id": 256623170,
  "lat": 45.9297471,
  "lon": 6.1244899,
  "tags": {
    "bus": "yes",
    "highway": "bus_stop",
    "name": "La Varde",
    "network": "Sibra",
    "public_transport": "stop_position"
  }
},
{
  "type": "node",
  "id": 256786766,
  "lat": 45.9032754,
  "lon": 6.1211715,
  "tags": {
    "bus": "yes",
    "highway": "bus_stop",
    "name": "Bouvard",
    "operator": "Sibra",
    "public_transport": "stop_position"
  }
},
{
  "type": "node",
  "id": 257524599,
  "lat": 45.9058551,
  "lon": 6.1173827,
  "tags": {
    "bus": "yes",
    "highway": "bus_stop",
    "name": "Rue de Seyssel",
    "network": "Sibra",
    "public_transport": "stop_position"
  }
},
{
  "type": "node",
  "id": 259408463,
  "lat": 45.9094322,
  "lon": 6.1311676,
  "tags": {
    "bus": "yes",
    "highway": "bus_stop",
    "name": "Paul Guiton",
    "network": "Sibra",
    "public_transport": "stop_position"
  }
},
{
  "type": "node",
  "id": 262130208,
  "lat": 45.9148131,
  "lon": 6.1341961,
  "tags": {
    "advertising": "yes",
    "bench": "no",
    "bus": "yes",
    "highway": "bus_stop",
    "name": "Aravis",
    "network": "Sibra",
    "public_transport": "stop_position",
    "route_ref": "3;i;N",
    "shelter": "no",
    "tactile_paving": "no",
    "wheelchair": "yes"
  }
},
{
  "type": "node",
  "id": 266606375,
  "lat": 45.8989198,
  "lon": 6.1100409,
  "tags": {
    "bus": "yes",
    "highway": "bus_stop",
    "name": "Panorama",
    "network": "Sibra",
    "public_transport": "stop_position"
  }
},
{
  "type": "node",
  "id": 266606385,
  "lat": 45.9034784,
  "lon": 6.1035014,
  "tags": {
    "bus": "yes",
    "highway": "bus_stop",
    "name": "Chapelle",
    "network": "Sibra",
    "public_transport": "stop_position"
  }
},
{
  "type": "node",
  "id": 279107519,
  "lat": 45.8766631,
  "lon": 6.0894322,
  "tags": {
    "bus": "yes",
    "highway": "bus_stop",
    "name": "Val Semnoz",
    "network": "Sibra",
    "public_transport": "stop_position"
  }
},
{
  "type": "node",
  "id": 279107521,
  "lat": 45.8771158,
  "lon": 6.0897796,
  "tags": {
    "bus": "yes",
    "highway": "bus_stop",
    "name": "Val Semnoz",
    "network": "Sibra",
    "public_transport": "stop_position"
  }
},
{
  "type": "node",
  "id": 279108043,
  "lat": 45.8641659,
  "lon": 6.0866716,
  "tags": {
    "bus": "yes",
    "highway": "bus_stop",
    "name": "Vieugy",
    "network": "Sibra",
    "public_transport": "stop_position"
  }
},
{
  "type": "node",
  "id": 279110583,
  "lat": 45.8828369,
  "lon": 6.1083617,
  "tags": {
    "bus": "yes",
    "highway": "bus_stop",
    "name": "Pré Fornet",
    "network": "Sibra",
    "public_transport": "stop_position"
  }
},
{
  "type": "node",
  "id": 279110585,
  "lat": 45.8847348,
  "lon": 6.1089332,
  "tags": {
    "bus": "yes",
    "description": "Arrêt Scolaire",
    "highway": "bus_stop",
    "name": "Lycée Gordini",
    "public_transport": "stop_position"
  }
},
{
  "type": "node",
  "id": 279115952,
  "lat": 45.8869128,
  "lon": 6.1109362,
  "tags": {
    "bus": "yes",
    "highway": "bus_stop",
    "name": "Loverchy-Village",
    "network": "Sibra",
    "public_transport": "stop_position"
  }
},
{
  "type": "node",
  "id": 280016150,
  "lat": 45.8632511,
  "lon": 6.0869428,
  "tags": {
    "bus": "yes",
    "highway": "bus_stop",
    "name": "Vieugy",
    "network": "Sibra",
    "public_transport": "stop_position"
  }
},
{
  "type": "node",
  "id": 282348241,
  "lat": 45.8814553,
  "lon": 6.0898787,
  "tags": {
    "bus": "yes",
    "highway": "bus_stop",
    "name": "Jean Clerc",
    "network": "Sibra",
    "public_transport": "stop_position"
  }
},
{
  "type": "node",
  "id": 288341759,
  "lat": 45.8965694,
  "lon": 6.1267832,
  "tags": {
    "bus": "yes",
    "highway": "bus_stop",
    "name": "Clinique Générale",
    "operator": "Sibra",
    "public_transport": "stop_position",
    "source": "cadastre-dgi-fr source : Direction Générale des Impôts - Cadastre ; mise à jour : 2008"
  }
},
{
  "type": "node",
  "id": 288970105,
  "lat": 45.9024766,
  "lon": 6.1078345,
  "tags": {
    "bus": "yes",
    "highway": "bus_stop",
    "name": "Beauregard",
    "network": "Sibra",
    "public_transport": "stop_position"
  }
},
{
  "type": "node",
  "id": 292196396,
  "lat": 45.9199050,
  "lon": 6.1810977,
  "tags": {
    "bus": "yes",
    "highway": "bus_stop",
    "name": "Grands Esserts",
    "operator": "Sibra",
    "public_transport": "stop_position"
  }
},
{
  "type": "node",
  "id": 294116121,
  "lat": 45.9439012,
  "lon": 6.1276713,
  "tags": {
    "bus": "yes",
    "highway": "bus_stop",
    "name": "Z.I. Nord",
    "network": "Sibra",
    "public_transport": "stop_position"
  }
},
{
  "type": "node",
  "id": 295978510,
  "lat": 45.8823912,
  "lon": 6.0942728,
  "tags": {
    "bus": "yes",
    "highway": "bus_stop",
    "name": "Angoulême",
    "network": "Sibra",
    "public_transport": "stop_position"
  }
},
{
  "type": "node",
  "id": 299824270,
  "lat": 45.8904226,
  "lon": 6.1206967,
  "tags": {
    "bus": "yes",
    "highway": "bus_stop",
    "name": "IPAC - St Michel",
    "network": "Sibra",
    "public_transport": "stop_position"
  }
},
{
  "type": "node",
  "id": 299824274,
  "lat": 45.8874476,
  "lon": 6.1189623,
  "tags": {
    "bus": "yes",
    "highway": "bus_stop",
    "name": "Sibra",
    "network": "Sibra",
    "public_transport": "stop_position"
  }
},
{
  "type": "node",
  "id": 303750248,
  "lat": 45.8818823,
  "lon": 6.1146766,
  "tags": {
    "bus": "yes",
    "highway": "bus_stop",
    "name": "Vovray",
    "public_transport": "stop_position",
    "source": "cadastre-dgi-fr source : Direction Générale des Impôts - Cadastre. Mise à jour : 2009"
  }
},
{
  "type": "node",
  "id": 303750258,
  "lat": 45.8817585,
  "lon": 6.1154167,
  "tags": {
    "bus": "yes",
    "highway": "bus_stop",
    "name": "Vovray",
    "public_transport": "stop_position",
    "source": "cadastre-dgi-fr source : Direction Générale des Impôts - Cadastre. Mise à jour : 2009"
  }
},
{
  "type": "node",
  "id": 303750378,
  "lat": 45.8869155,
  "lon": 6.1117822,
  "tags": {
    "bus": "yes",
    "highway": "bus_stop",
    "name": "Loverchy-Village",
    "network": "Sibra",
    "public_transport": "stop_position"
  }
},
{
  "type": "node",
  "id": 338867690,
  "lat": 45.9254194,
  "lon": 6.1524700,
  "tags": {
    "bus": "yes",
    "highway": "bus_stop",
    "name": "Hautevue",
    "network": "Sibra",
    "public_transport": "stop_position",
    "wheelchair": "no"
  }
},
{
  "type": "node",
  "id": 338867692,
  "lat": 45.9251650,
  "lon": 6.1500289,
  "tags": {
    "bus": "yes",
    "highway": "bus_stop",
    "name": "Ponchy",
    "network": "Sibra",
    "public_transport": "stop_position",
    "wheelchair": "yes"
  }
},
{
  "type": "node",
  "id": 339013675,
  "lat": 45.8924827,
  "lon": 6.0927612,
  "tags": {
    "bus": "yes",
    "highway": "bus_stop",
    "name": "Saint-Exupéry",
    "operator": "Sibra",
    "public_transport": "stop_position",
    "source": "cadastre-dgi-fr source : Direction Générale des Impôts - Cadastre ; mise à jour : 2008"
  }
},
{
  "type": "node",
  "id": 339525140,
  "lat": 45.8937472,
  "lon": 6.1091145,
  "tags": {
    "bus": "yes",
    "highway": "bus_stop",
    "name": "Taillée",
    "network": "Sibra",
    "public_transport": "stop_position"
  }
},
{
  "type": "node",
  "id": 339529823,
  "lat": 45.8924772,
  "lon": 6.0960194,
  "tags": {
    "bus": "yes",
    "highway": "bus_stop",
    "name": "Guynemer",
    "operator": "Sibra",
    "public_transport": "stop_position",
    "source": "cadastre-dgi-fr source : Direction Générale des Impôts - Cadastre ; mise à jour : 2008"
  }
},
{
  "type": "node",
  "id": 339532579,
  "lat": 45.8850203,
  "lon": 6.1091284,
  "tags": {
    "bus": "yes",
    "highway": "bus_stop",
    "name": "L.P. Gordini",
    "network": "Sibra",
    "public_transport": "stop_position"
  }
},
{
  "type": "node",
  "id": 339532611,
  "lat": 45.8830052,
  "lon": 6.1084979,
  "tags": {
    "bus": "yes",
    "highway": "bus_stop",
    "name": "Pré Fornet",
    "network": "Sibra",
    "public_transport": "stop_position"
  }
},
{
  "type": "node",
  "id": 340274539,
  "lat": 45.9250542,
  "lon": 6.1506285,
  "tags": {
    "bus": "yes",
    "disused": "yes",
    "highway": "bus_stop",
    "name": "Ponchy",
    "network": "Sibra",
    "public_transport": "stop_position",
    "wheelchair": "no"
  }
},
{
  "type": "node",
  "id": 340274548,
  "lat": 45.9251961,
  "lon": 6.1503985,
  "tags": {
    "bus": "yes",
    "disused": "yes",
    "highway": "bus_stop",
    "name": "Ponchy",
    "network": "Sibra",
    "public_transport": "stop_position",
    "wheelchair": "no"
  }
},
{
  "type": "node",
  "id": 340445499,
  "lat": 45.9096042,
  "lon": 6.1118858,
  "tags": {
    "bus": "yes",
    "highway": "bus_stop",
    "lit": "sunset-sunrise",
    "name": "Germain Perréard",
    "network": "Sibra",
    "public_transport": "stop_position"
  }
},
{
  "type": "node",
  "id": 340445505,
  "lat": 45.9103902,
  "lon": 6.1129468,
  "tags": {
    "bus": "yes",
    "highway": "bus_stop",
    "name": "Germain Perréard",
    "network": "Sibra",
    "public_transport": "stop_position"
  }
},
{
  "type": "node",
  "id": 340455384,
  "lat": 45.9080901,
  "lon": 6.1030634,
  "tags": {
    "advertising": "yes",
    "bus": "yes",
    "highway": "bus_stop",
    "lit": "sunset-sunrise",
    "name": "Papeteries",
    "network": "Sibra",
    "public_transport": "stop_position"
  }
},
{
  "type": "node",
  "id": 340473732,
  "lat": 45.9007109,
  "lon": 6.0926584,
  "tags": {
    "bus": "yes",
    "highway": "bus_stop",
    "name": "Gevrier",
    "network": "Sibra",
    "public_transport": "stop_position"
  }
},
{
  "type": "node",
  "id": 340481362,
  "lat": 45.8947994,
  "lon": 6.1002432,
  "tags": {
    "bus": "yes",
    "highway": "bus_stop",
    "name": "LEP Carillons",
    "network": "Sibra",
    "public_transport": "stop_position"
  }
},
{
  "type": "node",
  "id": 340481387,
  "lat": 45.8951907,
  "lon": 6.0985852,
  "tags": {
    "advertising": "yes",
    "bus": "yes",
    "highway": "bus_stop",
    "name": "Capitaine Anjot",
    "network": "Sibra",
    "public_transport": "stop_position"
  }
},
{
  "type": "node",
  "id": 343493493,
  "lat": 45.9091897,
  "lon": 6.0965056,
  "tags": {
    "advertising": "yes",
    "bus": "yes",
    "highway": "bus_stop",
    "name": "Pont de Tasset",
    "network": "Sibra",
    "public_transport": "stop_position",
    "source": "cadastre-dgi-fr source : Direction Générale des Impôts - Cadastre. Mise à jour : 2009"
  }
},
{
  "type": "node",
  "id": 343526092,
  "lat": 45.9147869,
  "lon": 6.0976374,
  "tags": {
    "bus": "yes",
    "highway": "bus_stop",
    "name": "Cimetière Meythet",
    "public_transport": "stop_position"
  }
},
{
  "type": "node",
  "id": 343535038,
  "lat": 45.9110708,
  "lon": 6.0915724,
  "tags": {
    "bus": "yes",
    "highway": "bus_stop",
    "name": "Cotfa",
    "public_transport": "stop_position",
    "source": "cadastre-dgi-fr source : Direction Générale des Impôts - Cadastre. Mise à jour : 2009"
  }
},
{
  "type": "node",
  "id": 343562830,
  "lat": 45.9170240,
  "lon": 6.0954999,
  "tags": {
    "bus": "yes",
    "highway": "bus_stop",
    "name": "Chenonceau",
    "public_transport": "stop_position"
  }
},
{
  "type": "node",
  "id": 343562882,
  "lat": 45.9158943,
  "lon": 6.0922942,
  "tags": {
    "bus": "yes",
    "highway": "bus_stop",
    "name": "Meythet - Hôtel de Ville",
    "public_transport": "stop_position"
  }
},
{
  "type": "node",
  "id": 343562933,
  "lat": 45.9185627,
  "lon": 6.0942743,
  "tags": {
    "bus": "yes",
    "highway": "bus_stop",
    "name": "Horizons",
    "public_transport": "stop_position"
  }
},
{
  "type": "node",
  "id": 347024169,
  "lat": 45.8874162,
  "lon": 6.0908188,
  "tags": {
    "bus": "yes",
    "highway": "bus_stop",
    "name": "Combes",
    "operator": "Sibra",
    "public_transport": "stop_position",
    "source": "cadastre-dgi-fr source : Direction Générale des Impôts - Cadastre. Mise à jour : 2009"
  }
},
{
  "type": "node",
  "id": 347274954,
  "lat": 45.8942367,
  "lon": 6.1230316,
  "tags": {
    "bus": "yes",
    "highway": "bus_stop",
    "name": "Balmettes",
    "public_transport": "stop_position",
    "source": "cadastre-dgi-fr source : Direction Générale des Impôts - Cadastre ; mise à jour : 2008"
  }
},
{
  "type": "node",
  "id": 347658933,
  "lat": 45.8834464,
  "lon": 6.1058749,
  "tags": {
    "bus": "yes",
    "highway": "bus_stop",
    "name": "Regains",
    "network": "Sibra",
    "public_transport": "stop_position"
  }
},
{
  "type": "node",
  "id": 348078175,
  "lat": 45.8854558,
  "lon": 6.0886052,
  "tags": {
    "bus": "yes",
    "highway": "bus_stop",
    "name": "Complexe Sportif",
    "operator": "Sibra",
    "public_transport": "stop_position",
    "source": "cadastre-dgi-fr source : Direction Générale des Impôts - Cadastre. Mise à jour : 2009"
  }
},
{
  "type": "node",
  "id": 348078178,
  "lat": 45.8853022,
  "lon": 6.0885198,
  "tags": {
    "bus": "yes",
    "highway": "bus_stop",
    "name": "Complexe Sportif",
    "operator": "Sibra",
    "public_transport": "stop_position",
    "source": "cadastre-dgi-fr source : Direction Générale des Impôts - Cadastre. Mise à jour : 2009"
  }
},
{
  "type": "node",
  "id": 349095998,
  "lat": 45.8747067,
  "lon": 6.1023996,
  "tags": {
    "bus": "yes",
    "highway": "bus_stop",
    "name": "Sacconges",
    "operator": "Sibra",
    "public_transport": "stop_position",
    "source": "cadastre-dgi-fr source : Direction Générale des Impôts - Cadastre. Mise à jour : 2009"
  }
},
{
  "type": "node",
  "id": 349095999,
  "lat": 45.8746122,
  "lon": 6.1022864,
  "tags": {
    "bus": "yes",
    "highway": "bus_stop",
    "name": "Sacconges",
    "operator": "Sibra",
    "public_transport": "stop_position",
    "source": "cadastre-dgi-fr source : Direction Générale des Impôts - Cadastre. Mise à jour : 2009"
  }
},
{
  "type": "node",
  "id": 349107119,
  "lat": 45.8713763,
  "lon": 6.0857557,
  "tags": {
    "bus": "yes",
    "highway": "bus_stop",
    "name": "Château Vieux",
    "network": "Sibra",
    "public_transport": "stop_position"
  }
},
{
  "type": "node",
  "id": 349112210,
  "lat": 45.8751614,
  "lon": 6.0859210,
  "tags": {
    "bus": "yes",
    "highway": "bus_stop",
    "name": "Galerie Val Semnoz",
    "network": "Sibra",
    "public_transport": "stop_position"
  }
},
{
  "type": "node",
  "id": 350315059,
  "lat": 45.8626188,
  "lon": 6.0884066,
  "tags": {
    "bus": "yes",
    "highway": "bus_stop",
    "name": "Rioz Busson",
    "network": "Sibra",
    "public_transport": "stop_position"
  }
},
{
  "type": "node",
  "id": 350315065,
  "lat": 45.8623986,
  "lon": 6.0888447,
  "tags": {
    "bus": "yes",
    "highway": "bus_stop",
    "name": "Rioz Busson",
    "network": "Sibra",
    "public_transport": "stop_position"
  }
},
{
  "type": "node",
  "id": 352646037,
  "lat": 45.8594637,
  "lon": 6.0891218,
  "tags": {
    "bus": "yes",
    "highway": "bus_stop",
    "name": "Seynod Vieugy",
    "network": "Sibra",
    "public_transport": "stop_position"
  }
},
{
  "type": "node",
  "id": 352646038,
  "lat": 45.8592976,
  "lon": 6.0890582,
  "tags": {
    "bus": "yes",
    "highway": "bus_stop",
    "name": "Seynod Vieugy",
    "network": "Sibra",
    "public_transport": "stop_position"
  }
},
{
  "type": "node",
  "id": 352780363,
  "lat": 45.8319344,
  "lon": 6.0602133,
  "tags": {
    "bus": "yes",
    "highway": "bus_stop",
    "name": "Balmont Église",
    "operator": "Sibra",
    "public_transport": "stop_position",
    "source": "cadastre-dgi-fr source : Direction Générale des Impôts - Cadastre. Mise à jour : 2009"
  }
},
{
  "type": "node",
  "id": 352842818,
  "lat": 45.8806784,
  "lon": 6.0739536,
  "tags": {
    "bus": "yes",
    "highway": "bus_stop",
    "name": "Branchy",
    "operator": "Sibra",
    "public_transport": "stop_position",
    "source": "cadastre-dgi-fr source : Direction Générale des Impôts - Cadastre. Mise à jour : 2009"
  }
},
{
  "type": "node",
  "id": 352842860,
  "lat": 45.8824148,
  "lon": 6.0706179,
  "tags": {
    "bus": "yes",
    "highway": "bus_stop",
    "name": "Fléoles",
    "operator": "Sibra",
    "public_transport": "stop_position",
    "source": "cadastre-dgi-fr source : Direction Générale des Impôts - Cadastre. Mise à jour : 2009"
  }
},
{
  "type": "node",
  "id": 353288323,
  "lat": 45.9378618,
  "lon": 6.1239071,
  "tags": {
    "bus": "yes",
    "highway": "bus_stop",
    "name": "Grafenberg",
    "operator": "Sibra",
    "public_transport": "stop_position",
    "source": "cadastre-dgi-fr source : Direction Générale des Impôts - Cadastre. Mise à jour : 2009"
  }
},
{
  "type": "node",
  "id": 353389165,
  "lat": 45.9402641,
  "lon": 6.1274900,
  "tags": {
    "bus": "yes",
    "highway": "bus_stop",
    "name": "Vernes",
    "network": "Sibra",
    "public_transport": "stop_position"
  }
},
{
  "type": "node",
  "id": 353389173,
  "lat": 45.9413350,
  "lon": 6.1276926,
  "tags": {
    "bus": "yes",
    "highway": "bus_stop",
    "name": "Vernes",
    "network": "Sibra",
    "public_transport": "stop_position"
  }
},
{
  "type": "node",
  "id": 371652964,
  "lat": 45.9290943,
  "lon": 6.1211909,
  "tags": {
    "bus": "yes",
    "highway": "bus_stop",
    "name": "Vire Moulin",
    "network": "Sibra",
    "public_transport": "stop_position"
  }
},
{
  "type": "node",
  "id": 420395690,
  "lat": 45.9009304,
  "lon": 6.1213792,
  "tags": {
    "advertising": "yes",
    "bus": "yes",
    "highway": "bus_stop",
    "name": "Gare Quai Sud",
    "network": "Sibra",
    "note:route_ref": "Flixbus N1156",
    "public_transport": "stop_position",
    "route_ref": "3;6;7;15;N1156",
    "wheelchair": "yes"
  }
},
{
  "type": "node",
  "id": 421949165,
  "lat": 45.9030688,
  "lon": 6.1297296,
  "tags": {
    "advertising": "yes",
    "bench": "yes",
    "bus": "yes",
    "departures_board": "realtime",
    "highway": "bus_stop",
    "name": "Palais de Justice",
    "network": "Sibra",
    "public_transport": "stop_position",
    "route_ref": "3;4;5;7;14;i;L;M;N",
    "shelter": "yes",
    "source": "cadastre-dgi-fr source : Direction Générale des Impôts - Cadastre;mise à jour : 2008",
    "wheelchair": "yes"
  }
},
{
  "type": "node",
  "id": 421949193,
  "lat": 45.9041613,
  "lon": 6.1300630,
  "tags": {
    "advertising": "yes",
    "bus": "yes",
    "highway": "bus_stop",
    "name": "Paix",
    "network": "Sibra",
    "public_transport": "stop_position",
    "source": "cadastre-dgi-fr source : Direction Générale des Impôts - Cadastre;mise à jour : 2008"
  }
},
{
  "type": "node",
  "id": 428844263,
  "lat": 45.9110886,
  "lon": 6.1314582,
  "tags": {
    "bus": "yes",
    "highway": "bus_stop",
    "name": "Général de Gaulle",
    "network": "Sibra",
    "public_transport": "stop_position"
  }
},
{
  "type": "node",
  "id": 431833693,
  "lat": 45.8998051,
  "lon": 6.1282711,
  "tags": {
    "bus": "yes",
    "highway": "bus_stop",
    "name": "Hôtel de Ville",
    "network": "Sibra",
    "public_transport": "stop_position"
  }
},
{
  "type": "node",
  "id": 493376451,
  "lat": 45.8922811,
  "lon": 6.1184326,
  "tags": {
    "bus": "yes",
    "highway": "bus_stop",
    "name": "Loverchy Cité",
    "network": "Sibra",
    "public_transport": "stop_position"
  }
},
{
  "type": "node",
  "id": 493376460,
  "lat": 45.8907060,
  "lon": 6.1221133,
  "tags": {
    "bus": "yes",
    "highway": "bus_stop",
    "name": "Saint-Michel",
    "public_transport": "stop_position",
    "source": "cadastre-dgi-fr source : Direction Générale des Impôts - Cadastre ; mise à jour : 2008"
  }
},
{
  "type": "node",
  "id": 497687157,
  "lat": 45.8938847,
  "lon": 6.1276605,
  "tags": {
    "bus": "yes",
    "highway": "bus_stop",
    "name": "Saint-François",
    "operator": "Sibra",
    "public_transport": "stop_position",
    "source": "cadastre-dgi-fr source : Direction Générale des Impôts - Cadastre ; mise à jour : 2008"
  }
},
{
  "type": "node",
  "id": 631520681,
  "lat": 45.9696731,
  "lon": 6.0881618,
  "tags": {
    "bus": "yes",
    "highway": "bus_stop",
    "name": "Pringy Ferrières",
    "note": "Served at 12:53 and 19:07 mon/sat till june 19th 2015 in school days, from june 20th 2015 and in non school days served at 13:09 and 19:05",
    "operator": "Sibra",
    "public_transport": "stop_position"
  }
},
{
  "type": "node",
  "id": 633211752,
  "lat": 45.9441011,
  "lon": 6.1226487,
  "tags": {
    "bus": "yes",
    "highway": "bus_stop",
    "name": "Pringy Chef-Lieu",
    "network": "Sibra",
    "public_transport": "stop_position"
  }
},
{
  "type": "node",
  "id": 843970385,
  "lat": 45.9189095,
  "lon": 6.1268236,
  "tags": {
    "bus": "yes",
    "highway": "bus_stop",
    "name": "Plaine Edelweiss",
    "network": "Sibra",
    "public_transport": "stop_position"
  }
},
{
  "type": "node",
  "id": 843970388,
  "lat": 45.9123817,
  "lon": 6.1312548,
  "tags": {
    "advertising": "yes",
    "bus": "yes",
    "highway": "bus_stop",
    "name": "Plaine Ecole",
    "network": "Sibra",
    "public_transport": "stop_position"
  }
},
{
  "type": "node",
  "id": 843970390,
  "lat": 45.9152545,
  "lon": 6.1292982,
  "tags": {
    "bus": "yes",
    "highway": "bus_stop",
    "name": "Plaine Novel",
    "network": "Sibra",
    "public_transport": "stop_position"
  }
},
{
  "type": "node",
  "id": 843970392,
  "lat": 45.9090451,
  "lon": 6.1390862,
  "tags": {
    "advertising": "yes",
    "bench": "yes",
    "bus": "yes",
    "highway": "bus_stop",
    "lit": "sunset-sunrise",
    "name": "Salomons",
    "network": "Sibra",
    "public_transport": "stop_position",
    "route_ref": "3;i",
    "shelter": "yes",
    "wheelchair": "yes"
  }
},
{
  "type": "node",
  "id": 844074647,
  "lat": 45.8912069,
  "lon": 6.1393090,
  "tags": {
    "bus": "yes",
    "highway": "bus_stop",
    "name": "Colmyr",
    "public_transport": "stop_position"
  }
},
{
  "type": "node",
  "id": 844074730,
  "lat": 45.8973796,
  "lon": 6.1200842,
  "tags": {
    "bus": "yes",
    "highway": "bus_stop",
    "name": "Lycée Gabriel Fauré",
    "network": "Sibra",
    "public_transport": "stop_position"
  }
},
{
  "type": "node",
  "id": 844074739,
  "lat": 45.8929040,
  "lon": 6.1109585,
  "tags": {
    "bus": "yes",
    "highway": "bus_stop",
    "name": "Barral",
    "network": "Sibra",
    "public_transport": "stop_position"
  }
},
{
  "type": "node",
  "id": 844074819,
  "lat": 45.8970463,
  "lon": 6.1203922,
  "tags": {
    "bus": "yes",
    "highway": "bus_stop",
    "name": "Lycée Gabriel Fauré",
    "network": "Sibra",
    "public_transport": "stop_position"
  }
},
{
  "type": "node",
  "id": 844074838,
  "lat": 45.8933394,
  "lon": 6.1358956,
  "tags": {
    "bus": "yes",
    "highway": "bus_stop",
    "name": "Marquisats",
    "public_transport": "stop_position"
  }
},
{
  "type": "node",
  "id": 844074923,
  "lat": 45.8936586,
  "lon": 6.1035293,
  "tags": {
    "bus": "yes",
    "highway": "bus_stop",
    "name": "Carillons",
    "network": "Sibra",
    "public_transport": "stop_position"
  }
},
{
  "type": "node",
  "id": 844088032,
  "lat": 45.9000063,
  "lon": 6.1281384,
  "tags": {
    "bus": "yes",
    "highway": "bus_stop",
    "name": "Hôtel de Ville",
    "network": "Sibra",
    "public_transport": "stop_position"
  }
},
{
  "type": "node",
  "id": 844088042,
  "lat": 45.8872237,
  "lon": 6.1005841,
  "tags": {
    "bus": "yes",
    "highway": "bus_stop",
    "name": "Saint-Jean",
    "network": "Sibra",
    "public_transport": "stop_position"
  }
},
{
  "type": "node",
  "id": 844088044,
  "lat": 45.8961117,
  "lon": 6.1216524,
  "tags": {
    "bus": "yes",
    "highway": "bus_stop",
    "name": "Boschetti",
    "operator": "Sibra",
    "public_transport": "stop_position"
  }
},
{
  "type": "node",
  "id": 846256343,
  "lat": 45.9088350,
  "lon": 6.1391628,
  "tags": {
    "advertising": "yes",
    "bench": "yes",
    "bus": "yes",
    "highway": "bus_stop",
    "lit": "sunset-sunrise",
    "name": "Salomons",
    "network": "Sibra",
    "public_transport": "platform",
    "route_ref": "3",
    "shelter": "yes",
    "tactile_paving": "yes",
    "wheelchair": "yes"
  }
},
{
  "type": "node",
  "id": 924138585,
  "lat": 45.9171052,
  "lon": 6.1479586,
  "tags": {
    "bus": "yes",
    "highway": "bus_stop",
    "name": "La Salle",
    "network": "Sibra",
    "public_transport": "stop_position"
  }
},
{
  "type": "node",
  "id": 926361922,
  "lat": 45.9111909,
  "lon": 6.1080772,
  "tags": {
    "bus": "yes",
    "highway": "bus_stop",
    "name": "Les Terrasses",
    "network": "Sibra",
    "public_transport": "stop_position"
  }
},
{
  "type": "node",
  "id": 942489945,
  "lat": 45.8970735,
  "lon": 6.1031849,
  "tags": {
    "bus": "yes",
    "highway": "bus_stop",
    "name": "Perolles",
    "network": "Sibra",
    "public_transport": "stop_position"
  }
},
{
  "type": "node",
  "id": 955397618,
  "lat": 45.9028191,
  "lon": 6.0961005,
  "tags": {
    "bus": "yes",
    "highway": "bus_stop",
    "name": "Pérollière",
    "network": "Sibra",
    "public_transport": "stop_position"
  }
},
{
  "type": "node",
  "id": 987928560,
  "lat": 45.9165007,
  "lon": 6.1496100,
  "tags": {
    "bus": "yes",
    "highway": "bus_stop",
    "name": "Pesse",
    "network": "Sibra",
    "public_transport": "stop_position"
  }
},
{
  "type": "node",
  "id": 988566201,
  "lat": 45.9220389,
  "lon": 6.1677074,
  "tags": {
    "bus": "yes",
    "highway": "bus_stop",
    "name": "Bellevue",
    "operator": "Sibra",
    "public_transport": "stop_position"
  }
},
{
  "type": "node",
  "id": 999791983,
  "lat": 45.9550740,
  "lon": 6.1102395,
  "tags": {
    "bus": "yes",
    "highway": "bus_stop",
    "name": "Pringy Grande Ferme",
    "operator": "Sibra",
    "public_transport": "stop_position"
  }
},
{
  "type": "node",
  "id": 1230254628,
  "lat": 45.9077679,
  "lon": 6.1237950,
  "tags": {
    "advertising": "yes",
    "bus": "yes",
    "highway": "bus_stop",
    "lit": "sunset-sunrise",
    "name": "Galbert",
    "network": "Sibra",
    "public_transport": "stop_position"
  }
},
{
  "type": "node",
  "id": 1230256107,
  "lat": 45.9083196,
  "lon": 6.1238001,
  "tags": {
    "advertising": "yes",
    "bus": "yes",
    "highway": "bus_stop",
    "lit": "sunset-sunrise",
    "name": "Galbert",
    "network": "Sibra",
    "public_transport": "stop_position"
  }
},
{
  "type": "node",
  "id": 1230269492,
  "lat": 45.9394722,
  "lon": 6.1223664,
  "tags": {
    "bus": "yes",
    "highway": "bus_stop",
    "name": "Pringy Gare",
    "network": "Sibra",
    "public_transport": "stop_position"
  }
},
{
  "type": "node",
  "id": 1230269707,
  "lat": 45.9388080,
  "lon": 6.1221862,
  "tags": {
    "bus": "yes",
    "highway": "bus_stop",
    "name": "Pringy Gare",
    "network": "Sibra",
    "public_transport": "stop_position"
  }
},
{
  "type": "node",
  "id": 1230488297,
  "lat": 45.9457793,
  "lon": 6.1208844,
  "tags": {
    "highway": "bus_stop",
    "name": "Pringy Bourg",
    "shelter": "no"
  }
},
{
  "type": "node",
  "id": 1230489970,
  "lat": 45.9458166,
  "lon": 6.1206376,
  "tags": {
    "highway": "bus_stop",
    "name": "Pringy Bourg"
  }
},
{
  "type": "node",
  "id": 1282575033,
  "lat": 45.9228282,
  "lon": 6.1631471,
  "tags": {
    "bus": "yes",
    "highway": "bus_stop",
    "name": "Glaisins Hameau",
    "network": "Sibra",
    "public_transport": "stop_position",
    "wheelchair": "yes"
  }
},
{
  "type": "node",
  "id": 1282575061,
  "lat": 45.9227625,
  "lon": 6.1629518,
  "tags": {
    "bus": "yes",
    "highway": "bus_stop",
    "name": "Glaisins Hameau",
    "network": "Sibra",
    "public_transport": "stop_position",
    "wheelchair": "yes"
  }
},
{
  "type": "node",
  "id": 1483279684,
  "lat": 45.9248911,
  "lon": 6.1023955,
  "tags": {
    "bus": "yes",
    "highway": "bus_stop",
    "name": "Meythet - Côte Merle",
    "public_transport": "stop_position"
  }
},
{
  "type": "node",
  "id": 1791356258,
  "lat": 45.9063160,
  "lon": 6.1158585,
  "tags": {
    "bus": "yes",
    "highway": "bus_stop",
    "name": "Fleurs",
    "network": "Sibra",
    "public_transport": "stop_position"
  }
},
{
  "type": "node",
  "id": 1839569419,
  "lat": 45.8970293,
  "lon": 6.1314009,
  "tags": {
    "bus": "yes",
    "highway": "bus_stop",
    "name": "Piscine Marquisats",
    "public_transport": "stop_position"
  }
},
{
  "type": "node",
  "id": 2006687658,
  "lat": 45.9466636,
  "lon": 6.1224770,
  "tags": {
    "bus": "yes",
    "highway": "bus_stop",
    "name": "Pringy Mairie",
    "operator": "Sibra",
    "public_transport": "stop_position"
  }
},
{
  "type": "node",
  "id": 2317294993,
  "lat": 45.8855106,
  "lon": 6.1015344,
  "tags": {
    "bus": "yes",
    "highway": "bus_stop",
    "name": "Cordeliers",
    "network": "Sibra",
    "public_transport": "stop_position"
  }
},
{
  "type": "node",
  "id": 2317295001,
  "lat": 45.8820419,
  "lon": 6.0998137,
  "tags": {
    "bus": "yes",
    "highway": "bus_stop",
    "name": "Malaz Golemme",
    "network": "Sibra",
    "public_transport": "stop_position"
  }
},
{
  "type": "node",
  "id": 2317295012,
  "lat": 45.8825767,
  "lon": 6.1000362,
  "tags": {
    "bus": "yes",
    "highway": "bus_stop",
    "name": "Malaz Golemme",
    "network": "Sibra",
    "public_transport": "stop_position"
  }
},
{
  "type": "node",
  "id": 2317301310,
  "lat": 45.8798728,
  "lon": 6.0980443,
  "tags": {
    "bus": "yes",
    "highway": "bus_stop",
    "name": "Place du Semnoz",
    "network": "Sibra",
    "public_transport": "stop_position"
  }
},
{
  "type": "node",
  "id": 2317301311,
  "lat": 45.8795437,
  "lon": 6.0973902,
  "tags": {
    "bus": "yes",
    "highway": "bus_stop",
    "name": "Place du Semnoz",
    "network": "Sibra",
    "public_transport": "stop_position"
  }
},
{
  "type": "node",
  "id": 2317303902,
  "lat": 45.8788158,
  "lon": 6.0959503,
  "tags": {
    "bus": "yes",
    "highway": "bus_stop",
    "name": "Arcal'Oz",
    "network": "Sibra",
    "public_transport": "stop_position"
  }
},
{
  "type": "node",
  "id": 2317303913,
  "lat": 45.8780652,
  "lon": 6.0940110,
  "tags": {
    "bus": "yes",
    "highway": "bus_stop",
    "name": "Costa de Beauregard",
    "network": "Sibra",
    "public_transport": "stop_position"
  }
},
{
  "type": "node",
  "id": 2345411224,
  "lat": 45.9134524,
  "lon": 6.0938372,
  "tags": {
    "bus": "yes",
    "highway": "bus_stop",
    "name": "Meythet S.N.R.",
    "network": "Sibra",
    "public_transport": "stop_position"
  }
},
{
  "type": "node",
  "id": 2345411233,
  "lat": 45.9114260,
  "lon": 6.0953333,
  "tags": {
    "advertising": "yes",
    "bus": "yes",
    "highway": "bus_stop",
    "name": "Antoine Berthod",
    "network": "Sibra",
    "public_transport": "stop_position"
  }
},
{
  "type": "node",
  "id": 2345411250,
  "lat": 45.9118924,
  "lon": 6.0953383,
  "tags": {
    "bus": "yes",
    "highway": "bus_stop",
    "name": "Antoine Berthod",
    "network": "Sibra",
    "public_transport": "stop_position"
  }
},
{
  "type": "node",
  "id": 2405295186,
  "lat": 45.8873812,
  "lon": 6.0954159,
  "tags": {
    "bus": "yes",
    "highway": "bus_stop",
    "name": "Pré Rond",
    "operator": "Sibra",
    "public_transport": "stop_position"
  }
},
{
  "type": "node",
  "id": 2410982870,
  "lat": 45.9009855,
  "lon": 6.1216997,
  "tags": {
    "advertising": "yes",
    "bus": "yes",
    "highway": "bus_stop",
    "name": "Gare Quai Sud",
    "network": "Sibra",
    "operator": "Sibra",
    "public_transport": "stop_position",
    "wheelchair": "yes"
  }
},
{
  "type": "node",
  "id": 2410982872,
  "lat": 45.9010798,
  "lon": 6.1216645,
  "tags": {
    "advertising": "yes",
    "bus": "yes",
    "highway": "bus_stop",
    "name": "Gare Quai Sud",
    "network": "Sibra",
    "public_transport": "stop_position",
    "wheelchair": "yes"
  }
},
{
  "type": "node",
  "id": 2424594385,
  "lat": 45.8318906,
  "lon": 6.0599554,
  "tags": {
    "bus": "yes",
    "highway": "bus_stop",
    "name": "Balmont Eglise",
    "operator": "Sibra",
    "public_transport": "stop_position"
  }
},
{
  "type": "node",
  "id": 2618944522,
  "lat": 45.9011589,
  "lon": 6.1211639,
  "tags": {
    "advertising": "yes",
    "bus": "yes",
    "highway": "bus_stop",
    "name": "Gare Quai Ouest",
    "network": "Sibra",
    "public_transport": "stop_position",
    "wheelchair": "yes"
  }
},
{
  "type": "node",
  "id": 2618944523,
  "lat": 45.9012153,
  "lon": 6.1218231,
  "tags": {
    "advertising": "yes",
    "bus": "yes",
    "highway": "bus_stop",
    "name": "Gare Quai Est",
    "network": "Sibra",
    "public_transport": "stop_position",
    "wheelchair": "yes"
  }
},
{
  "type": "node",
  "id": 2618944525,
  "lat": 45.9013867,
  "lon": 6.1217652,
  "tags": {
    "advertising": "yes",
    "bus": "yes",
    "highway": "bus_stop",
    "name": "Gare Quai Est",
    "network": "Sibra",
    "public_transport": "stop_position",
    "wheelchair": "yes"
  }
},
{
  "type": "node",
  "id": 2618944526,
  "lat": 45.9014077,
  "lon": 6.1212414,
  "tags": {
    "advertising": "yes",
    "bus": "yes",
    "highway": "bus_stop",
    "name": "Gare Quai Nord",
    "network": "Sibra",
    "public_transport": "stop_position",
    "wheelchair": "yes"
  }
},
{
  "type": "node",
  "id": 2618944527,
  "lat": 45.9014833,
  "lon": 6.1216058,
  "tags": {
    "advertising": "yes",
    "bus": "yes",
    "highway": "bus_stop",
    "name": "Gare Quai Nord",
    "network": "Sibra",
    "public_transport": "stop_position",
    "wheelchair": "yes"
  }
},
{
  "type": "node",
  "id": 2960804114,
  "lat": 45.9002694,
  "lon": 6.0855238,
  "tags": {
    "bus": "yes",
    "highway": "bus_stop",
    "name": "Z.I. Romains",
    "network": "Sibra",
    "public_transport": "stop_position"
  }
},
{
  "type": "node",
  "id": 3077121593,
  "lat": 45.9272316,
  "lon": 6.1295190,
  "tags": {
    "bus": "yes",
    "highway": "bus_stop",
    "name": "Piou",
    "operator": "Sibra",
    "public_transport": "stop_position"
  }
},
{
  "type": "node",
  "id": 3089338295,
  "lat": 45.9258237,
  "lon": 6.1324107,
  "tags": {
    "bus": "yes",
    "highway": "bus_stop",
    "name": "Petit Brogny",
    "operator": "Sibra",
    "public_transport": "stop_position"
  }
},
{
  "type": "node",
  "id": 3089434245,
  "lat": 45.9193914,
  "lon": 6.1590707,
  "tags": {
    "bus": "yes",
    "highway": "bus_stop",
    "name": "Campus",
    "network": "Sibra",
    "public_transport": "stop_position"
  }
},
{
  "type": "node",
  "id": 3089434246,
  "lat": 45.9201491,
  "lon": 6.1475015,
  "tags": {
    "bus": "yes",
    "highway": "bus_stop",
    "name": "Chapelaines",
    "network": "Sibra",
    "public_transport": "stop_position"
  }
},
{
  "type": "node",
  "id": 3089434247,
  "lat": 45.9255587,
  "lon": 6.1388497,
  "tags": {
    "bus": "yes",
    "highway": "bus_stop",
    "name": "Frontenex",
    "operator": "Sibra",
    "public_transport": "stop_position"
  }
},
{
  "type": "node",
  "id": 3089434248,
  "lat": 45.9217544,
  "lon": 6.1766730,
  "tags": {
    "bus": "yes",
    "highway": "bus_stop",
    "name": "Gelinotte",
    "operator": "Sibra",
    "public_transport": "stop_position"
  }
},
{
  "type": "node",
  "id": 3089434250,
  "lat": 45.9206657,
  "lon": 6.1421251,
  "tags": {
    "bus": "yes",
    "highway": "bus_stop",
    "name": "La Cour",
    "operator": "Sibra",
    "public_transport": "stop_position"
  }
},
{
  "type": "node",
  "id": 3089434251,
  "lat": 45.9170067,
  "lon": 6.1478441,
  "tags": {
    "bus": "yes",
    "highway": "bus_stop",
    "name": "La Salle",
    "network": "Sibra",
    "public_transport": "stop_position"
  }
},
{
  "type": "node",
  "id": 3089434253,
  "lat": 45.9273700,
  "lon": 6.1267920,
  "tags": {
    "bus": "yes",
    "highway": "bus_stop",
    "name": "Le Pressoir",
    "operator": "Sibra",
    "public_transport": "stop_position"
  }
},
{
  "type": "node",
  "id": 3089434254,
  "lat": 45.9233817,
  "lon": 6.1403142,
  "tags": {
    "bus": "yes",
    "highway": "bus_stop",
    "name": "Nant",
    "operator": "Sibra",
    "public_transport": "stop_position"
  }
},
{
  "type": "node",
  "id": 3089434256,
  "lat": 45.9166038,
  "lon": 6.1500475,
  "tags": {
    "bus": "yes",
    "highway": "bus_stop",
    "name": "Pesse",
    "network": "Sibra",
    "public_transport": "stop_position"
  }
},
{
  "type": "node",
  "id": 3089434258,
  "lat": 45.9189582,
  "lon": 6.1572212,
  "tags": {
    "bus": "yes",
    "highway": "bus_stop",
    "name": "Restau U",
    "network": "Sibra",
    "public_transport": "stop_position"
  }
},
{
  "type": "node",
  "id": 3089434259,
  "lat": 45.9154292,
  "lon": 6.1470196,
  "tags": {
    "bus": "yes",
    "highway": "bus_stop",
    "name": "Vignières",
    "network": "Sibra",
    "public_transport": "stop_position"
  }
},
{
  "type": "node",
  "id": 3208596671,
  "lat": 45.9069413,
  "lon": 6.1311677,
  "tags": {
    "advertising": "yes",
    "bus": "yes",
    "highway": "bus_stop",
    "lit": "sunset-sunrise",
    "name": "Galeries Lafayette",
    "network": "Sibra",
    "public_transport": "stop_position"
  }
},
{
  "type": "node",
  "id": 3249955728,
  "lat": 45.9146126,
  "lon": 6.1188444,
  "tags": {
    "bus": "yes",
    "highway": "bus_stop",
    "name": "Parc des Sports",
    "network": "Sibra",
    "public_transport": "stop_position"
  }
},
{
  "type": "node",
  "id": 3250536637,
  "lat": 45.9270830,
  "lon": 6.1667334,
  "tags": {
    "bus": "yes",
    "highway": "bus_stop",
    "name": "Bouvières",
    "network": "Sibra",
    "public_transport": "stop_position",
    "wheelchair": "yes"
  }
},
{
  "type": "node",
  "id": 3250536638,
  "lat": 45.9272528,
  "lon": 6.1667516,
  "tags": {
    "bus": "yes",
    "highway": "bus_stop",
    "name": "Bouvières",
    "network": "Sibra",
    "public_transport": "stop_position",
    "wheelchair": "no"
  }
},
{
  "type": "node",
  "id": 3250536639,
  "lat": 45.9270178,
  "lon": 6.1650493,
  "tags": {
    "bus": "yes",
    "highway": "bus_stop",
    "name": "Pré de Challes",
    "network": "Sibra",
    "public_transport": "stop_position",
    "wheelchair": "yes"
  }
},
{
  "type": "node",
  "id": 3250551250,
  "lat": 45.9226151,
  "lon": 6.1647094,
  "tags": {
    "bus": "yes",
    "highway": "bus_stop",
    "name": "Entrée Parc",
    "network": "Sibra",
    "public_transport": "stop_position",
    "wheelchair": "yes"
  }
},
{
  "type": "node",
  "id": 3250551251,
  "lat": 45.9245537,
  "lon": 6.1659068,
  "tags": {
    "bus": "yes",
    "highway": "bus_stop",
    "name": "Pré Félin",
    "network": "Sibra",
    "public_transport": "stop_position",
    "wheelchair": "no"
  }
},
{
  "type": "node",
  "id": 3250591201,
  "lat": 45.9248965,
  "lon": 6.1557637,
  "tags": {
    "bus": "yes",
    "highway": "bus_stop",
    "name": "Espace Rencontre",
    "network": "Sibra",
    "public_transport": "stop_position",
    "wheelchair": "yes"
  }
},
{
  "type": "node",
  "id": 3250602038,
  "lat": 45.9247033,
  "lon": 6.1481861,
  "tags": {
    "bus": "yes",
    "highway": "bus_stop",
    "name": "Arc en Ciel",
    "network": "Sibra",
    "public_transport": "stop_position"
  }
},
{
  "type": "node",
  "id": 3250602039,
  "lat": 45.9248901,
  "lon": 6.1483641,
  "tags": {
    "bus": "yes",
    "highway": "bus_stop",
    "name": "Arc en Ciel",
    "network": "Sibra",
    "public_transport": "stop_position"
  }
},
{
  "type": "node",
  "id": 3250602040,
  "lat": 45.9211543,
  "lon": 6.1450222,
  "tags": {
    "bus": "yes",
    "highway": "bus_stop",
    "name": "Tilleuls",
    "network": "Sibra",
    "public_transport": "stop_position"
  }
},
{
  "type": "node",
  "id": 3250614138,
  "lat": 45.9203209,
  "lon": 6.1475398,
  "tags": {
    "bus": "yes",
    "highway": "bus_stop",
    "name": "Chapelaines",
    "network": "Sibra",
    "public_transport": "stop_position"
  }
},
{
  "type": "node",
  "id": 3250620077,
  "lat": 45.9146416,
  "lon": 6.1517954,
  "tags": {
    "bus": "yes",
    "highway": "bus_stop",
    "name": "Verboux",
    "network": "Sibra",
    "public_transport": "stop_position"
  }
},
{
  "type": "node",
  "id": 3250622467,
  "lat": 45.9126660,
  "lon": 6.1549482,
  "tags": {
    "bus": "yes",
    "highway": "bus_stop",
    "name": "C.E.S. Barattes",
    "network": "Sibra",
    "public_transport": "stop_position"
  }
},
{
  "type": "node",
  "id": 3250622468,
  "lat": 45.9128252,
  "lon": 6.1547654,
  "tags": {
    "bus": "yes",
    "highway": "bus_stop",
    "name": "C.E.S. Barattes",
    "network": "Sibra",
    "public_transport": "stop_position"
  }
},
{
  "type": "node",
  "id": 3250652094,
  "lat": 45.9086092,
  "lon": 6.1452585,
  "tags": {
    "bus": "yes",
    "highway": "bus_stop",
    "name": "Cygnes",
    "network": "Sibra",
    "public_transport": "stop_position"
  }
},
{
  "type": "node",
  "id": 3250652095,
  "lat": 45.9088935,
  "lon": 6.1459663,
  "tags": {
    "bus": "yes",
    "highway": "bus_stop",
    "name": "Cygnes",
    "network": "Sibra",
    "public_transport": "stop_position"
  }
},
{
  "type": "node",
  "id": 3250652096,
  "lat": 45.9079905,
  "lon": 6.1429339,
  "tags": {
    "bus": "yes",
    "highway": "bus_stop",
    "name": "Mavéria",
    "network": "Sibra",
    "public_transport": "stop_position"
  }
},
{
  "type": "node",
  "id": 3250652097,
  "lat": 45.9081512,
  "lon": 6.1434927,
  "tags": {
    "bus": "yes",
    "highway": "bus_stop",
    "name": "Mavéria",
    "network": "Sibra",
    "public_transport": "stop_position"
  }
},
{
  "type": "node",
  "id": 3250652098,
  "lat": 45.9098042,
  "lon": 6.1485231,
  "tags": {
    "bus": "yes",
    "highway": "bus_stop",
    "name": "Pré d'Avril",
    "network": "Sibra",
    "public_transport": "stop_position"
  }
},
{
  "type": "node",
  "id": 3250652099,
  "lat": 45.9111946,
  "lon": 6.1524007,
  "tags": {
    "bus": "yes",
    "highway": "bus_stop",
    "name": "Pré Longé",
    "network": "Sibra",
    "public_transport": "stop_position"
  }
},
{
  "type": "node",
  "id": 3250652100,
  "lat": 45.9112961,
  "lon": 6.1526241,
  "tags": {
    "bus": "yes",
    "highway": "bus_stop",
    "name": "Pré Longé",
    "network": "Sibra",
    "public_transport": "stop_position"
  }
},
{
  "type": "node",
  "id": 3250653021,
  "lat": 45.9056129,
  "lon": 6.1367307,
  "tags": {
    "advertising": "yes",
    "bus": "yes",
    "highway": "bus_stop",
    "name": "André Theuriet",
    "network": "Sibra",
    "public_transport": "stop_position"
  }
},
{
  "type": "node",
  "id": 3250653022,
  "lat": 45.9057735,
  "lon": 6.1370961,
  "tags": {
    "advertising": "yes",
    "bus": "yes",
    "highway": "bus_stop",
    "name": "André Theuriet",
    "network": "Sibra",
    "public_transport": "stop_position"
  }
},
{
  "type": "node",
  "id": 3250653023,
  "lat": 45.9068801,
  "lon": 6.1397169,
  "tags": {
    "advertising": "yes",
    "bus": "yes",
    "highway": "bus_stop",
    "lit": "sunset-sunrise",
    "name": "France Barattes",
    "network": "Sibra",
    "public_transport": "stop_position"
  }
},
{
  "type": "node",
  "id": 3250653024,
  "lat": 45.9070825,
  "lon": 6.1403533,
  "tags": {
    "advertising": "yes",
    "bus": "yes",
    "highway": "bus_stop",
    "lit": "sunset-sunrise",
    "name": "France Barattes",
    "network": "Sibra",
    "public_transport": "stop_position"
  }
},
{
  "type": "node",
  "id": 3250658541,
  "lat": 45.9045900,
  "lon": 6.1348491,
  "tags": {
    "bus": "yes",
    "highway": "bus_stop",
    "name": "Saint-Bernard de Menthon",
    "network": "Sibra",
    "public_transport": "stop_position"
  }
},
{
  "type": "node",
  "id": 3250658542,
  "lat": 45.9046987,
  "lon": 6.1350381,
  "tags": {
    "bus": "yes",
    "highway": "bus_stop",
    "name": "Saint-Bernard de Menthon",
    "network": "Sibra",
    "public_transport": "stop_position"
  }
},
{
  "type": "node",
  "id": 3250666861,
  "lat": 45.9051241,
  "lon": 6.1329638,
  "tags": {
    "advertising": "yes",
    "bus": "yes",
    "highway": "bus_stop",
    "name": "Parmelan",
    "network": "Sibra",
    "public_transport": "stop_position"
  }
},
{
  "type": "node",
  "id": 3250681811,
  "lat": 45.9019149,
  "lon": 6.1269408,
  "tags": {
    "advertising": "yes",
    "bus": "yes",
    "highway": "bus_stop",
    "name": "Bonlieu",
    "network": "Sibra",
    "public_transport": "stop_position"
  }
},
{
  "type": "node",
  "id": 3250681812,
  "lat": 45.9025778,
  "lon": 6.1273179,
  "tags": {
    "advertising": "yes",
    "bus": "yes",
    "highway": "bus_stop",
    "name": "Bonlieu",
    "network": "Sibra",
    "operator": "Sibra",
    "public_transport": "stop_position"
  }
},
{
  "type": "node",
  "id": 3250681813,
  "lat": 45.9021199,
  "lon": 6.1248027,
  "tags": {
    "bus": "yes",
    "highway": "bus_stop",
    "name": "Sommeiller",
    "network": "Sibra",
    "public_transport": "stop_position"
  }
},
{
  "type": "node",
  "id": 3250681814,
  "lat": 45.9014261,
  "lon": 6.1252690,
  "tags": {
    "bus": "yes",
    "highway": "bus_stop",
    "name": "Vaugelas",
    "network": "Sibra",
    "public_transport": "stop_position"
  }
},
{
  "type": "node",
  "id": 3250685289,
  "lat": 45.8991337,
  "lon": 6.1185233,
  "tags": {
    "bus": "yes",
    "highway": "bus_stop",
    "name": "Aléry Banque de France",
    "network": "Sibra",
    "public_transport": "stop_position"
  }
},
{
  "type": "node",
  "id": 3250685290,
  "lat": 45.8993162,
  "lon": 6.1187832,
  "tags": {
    "advertising": "yes",
    "bus": "yes",
    "highway": "bus_stop",
    "lit": "sunset-sunrise",
    "name": "Aléry Banque de France",
    "network": "Sibra",
    "public_transport": "stop_position"
  }
},
{
  "type": "node",
  "id": 3250723062,
  "lat": 45.9044727,
  "lon": 6.1087576,
  "tags": {
    "bus": "yes",
    "highway": "bus_stop",
    "name": "Chevesnes",
    "network": "Sibra",
    "public_transport": "stop_position"
  }
},
{
  "type": "node",
  "id": 3250723063,
  "lat": 45.9045631,
  "lon": 6.1084715,
  "tags": {
    "bus": "yes",
    "highway": "bus_stop",
    "name": "Chevesnes",
    "network": "Sibra",
    "public_transport": "stop_position"
  }
},
{
  "type": "node",
  "id": 3250723064,
  "lat": 45.9070413,
  "lon": 6.1097546,
  "tags": {
    "advertising": "yes",
    "bus": "yes",
    "highway": "bus_stop",
    "lit": "sunset-sunrise",
    "name": "Mosinges",
    "network": "Sibra",
    "public_transport": "stop_position"
  }
},
{
  "type": "node",
  "id": 3250723065,
  "lat": 45.9071620,
  "lon": 6.1093947,
  "tags": {
    "advertising": "yes",
    "bus": "yes",
    "highway": "bus_stop",
    "lit": "sunset-sunrise",
    "name": "Mosinges",
    "network": "Sibra",
    "public_transport": "stop_position"
  }
},
{
  "type": "node",
  "id": 3250725937,
  "lat": 45.9076592,
  "lon": 6.1065542,
  "tags": {
    "advertising": "yes",
    "bus": "yes",
    "highway": "bus_stop",
    "lit": "sunset-sunrise",
    "name": "Chorus",
    "network": "Sibra",
    "public_transport": "stop_position"
  }
},
{
  "type": "node",
  "id": 3250731219,
  "lat": 45.9081848,
  "lon": 6.1031038,
  "tags": {
    "advertising": "yes",
    "bus": "yes",
    "highway": "bus_stop",
    "lit": "sunset-sunrise",
    "name": "Papeteries",
    "network": "Sibra",
    "public_transport": "stop_position"
  }
},
{
  "type": "node",
  "id": 3250731220,
  "lat": 45.9085293,
  "lon": 6.0980467,
  "tags": {
    "advertising": "yes",
    "bus": "yes",
    "highway": "bus_stop",
    "name": "Pont de Tasset",
    "network": "Sibra",
    "public_transport": "stop_position"
  }
},
{
  "type": "node",
  "id": 3250784090,
  "lat": 45.9170850,
  "lon": 6.0879151,
  "tags": {
    "bus": "yes",
    "highway": "bus_stop",
    "name": "Chantebise",
    "network": "Sibra",
    "public_transport": "stop_position"
  }
},
{
  "type": "node",
  "id": 3250784091,
  "lat": 45.9145467,
  "lon": 6.0919357,
  "tags": {
    "bus": "yes",
    "highway": "bus_stop",
    "name": "Meythet Centre",
    "network": "Sibra",
    "public_transport": "stop_position"
  }
},
{
  "type": "node",
  "id": 3250784092,
  "lat": 45.9145952,
  "lon": 6.0919753,
  "tags": {
    "bus": "yes",
    "highway": "bus_stop",
    "name": "Meythet Centre",
    "network": "Sibra",
    "public_transport": "stop_position"
  }
},
{
  "type": "node",
  "id": 3250784093,
  "lat": 45.9137084,
  "lon": 6.0936022,
  "tags": {
    "bus": "yes",
    "highway": "bus_stop",
    "name": "Meythet S.N.R.",
    "network": "Sibra",
    "public_transport": "stop_position"
  }
},
{
  "type": "node",
  "id": 3250994933,
  "lat": 45.9216158,
  "lon": 6.1221308,
  "tags": {
    "advertising": "yes",
    "bus": "yes",
    "description": "Ligne 2",
    "highway": "bus_stop",
    "lit": "sunset-sunrise",
    "name": "Piscine Patinoire",
    "network": "Sibra",
    "public_transport": "stop_position"
  }
},
{
  "type": "node",
  "id": 3250994934,
  "lat": 45.9216340,
  "lon": 6.1220266,
  "tags": {
    "advertising": "yes",
    "bus": "yes",
    "description": "Ligne 8",
    "highway": "bus_stop",
    "lit": "sunset-sunrise",
    "name": "Piscine Patinoire",
    "network": "Sibra",
    "public_transport": "stop_position"
  }
},
{
  "type": "node",
  "id": 3250994935,
  "lat": 45.9216773,
  "lon": 6.1219266,
  "tags": {
    "advertising": "yes",
    "bus": "yes",
    "description": "Lignes 14, 17 et K",
    "highway": "bus_stop",
    "lit": "sunset-sunrise",
    "name": "Piscine Patinoire",
    "network": "Sibra",
    "public_transport": "stop_position"
  }
},
{
  "type": "node",
  "id": 3251010445,
  "lat": 45.9192649,
  "lon": 6.1186343,
  "tags": {
    "advertising": "no",
    "bus": "yes",
    "highway": "bus_stop",
    "name": "Arcadium",
    "network": "Sibra",
    "public_transport": "stop_position"
  }
},
{
  "type": "node",
  "id": 3251010446,
  "lat": 45.9205972,
  "lon": 6.1202672,
  "tags": {
    "bus": "yes",
    "highway": "bus_stop",
    "name": "Fier",
    "network": "Sibra",
    "public_transport": "stop_position"
  }
},
{
  "type": "node",
  "id": 3251010447,
  "lat": 45.9212586,
  "lon": 6.1210725,
  "tags": {
    "advertising": "yes",
    "bus": "yes",
    "highway": "bus_stop",
    "lit": "sunset-sunrise",
    "name": "Fier",
    "network": "Sibra",
    "public_transport": "stop_position"
  }
},
{
  "type": "node",
  "id": 3251016971,
  "lat": 45.9135119,
  "lon": 6.1209653,
  "tags": {
    "bus": "yes",
    "highway": "bus_stop",
    "name": "Maréchal Leclerc",
    "network": "Sibra",
    "public_transport": "stop_position"
  }
},
{
  "type": "node",
  "id": 3251016972,
  "lat": 45.9158855,
  "lon": 6.1163781,
  "tags": {
    "advertising": "yes",
    "bus": "yes",
    "highway": "bus_stop",
    "name": "Rulland",
    "network": "Sibra",
    "public_transport": "stop_position"
  }
},
{
  "type": "node",
  "id": 3251018697,
  "lat": 45.9122681,
  "lon": 6.1214836,
  "tags": {
    "bus": "yes",
    "highway": "bus_stop",
    "name": "MJC Romains",
    "network": "Sibra",
    "public_transport": "stop_position"
  }
},
{
  "type": "node",
  "id": 3251022085,
  "lat": 45.9101762,
  "lon": 6.1217784,
  "tags": {
    "bus": "yes",
    "highway": "bus_stop",
    "name": "Forum",
    "network": "Sibra",
    "public_transport": "stop_position"
  }
},
{
  "type": "node",
  "id": 3251022086,
  "lat": 45.9103858,
  "lon": 6.1217497,
  "tags": {
    "bus": "yes",
    "highway": "bus_stop",
    "name": "Forum",
    "network": "Sibra",
    "public_transport": "stop_position"
  }
},
{
  "type": "node",
  "id": 3251027023,
  "lat": 45.9077901,
  "lon": 6.1227564,
  "tags": {
    "advertising": "yes",
    "bus": "yes",
    "highway": "bus_stop",
    "lit": "sunset-sunrise",
    "name": "Place des Romains",
    "network": "Sibra",
    "public_transport": "stop_position"
  }
},
{
  "type": "node",
  "id": 3251027024,
  "lat": 45.9080922,
  "lon": 6.1215573,
  "tags": {
    "advertising": "yes",
    "bus": "yes",
    "highway": "bus_stop",
    "lit": "sunset-sunrise",
    "name": "Place des Romains",
    "network": "Sibra",
    "public_transport": "stop_position"
  }
},
{
  "type": "node",
  "id": 3251034683,
  "lat": 45.9041550,
  "lon": 6.1245312,
  "tags": {
    "advertising": "yes",
    "bus": "yes",
    "highway": "bus_stop",
    "lit": "sunset-sunrise",
    "name": "Courier",
    "network": "Sibra",
    "public_transport": "stop_position"
  }
},
{
  "type": "node",
  "id": 3251034684,
  "lat": 45.9027099,
  "lon": 6.1233431,
  "tags": {
    "advertising": "yes",
    "bus": "yes",
    "highway": "bus_stop",
    "name": "Paul Grimault",
    "network": "Sibra",
    "public_transport": "stop_position",
    "wheelchair": "yes"
  }
},
{
  "type": "node",
  "id": 3251042982,
  "lat": 45.9021333,
  "lon": 6.1308806,
  "tags": {
    "advertising": "yes",
    "bus": "yes",
    "highway": "bus_stop",
    "name": "Préfecture Pâquier",
    "network": "Sibra",
    "public_transport": "stop_position"
  }
},
{
  "type": "node",
  "id": 3251050374,
  "lat": 45.9108996,
  "lon": 6.1449019,
  "tags": {
    "bus": "yes",
    "highway": "bus_stop",
    "name": "Pommaries",
    "network": "Sibra",
    "public_transport": "stop_position"
  }
},
{
  "type": "node",
  "id": 3251050791,
  "lat": 45.9063381,
  "lon": 6.1459616,
  "tags": {
    "advertising": "yes",
    "bus": "yes",
    "highway": "bus_stop",
    "name": "Albigny",
    "network": "Sibra",
    "public_transport": "stop_position"
  }
},
{
  "type": "node",
  "id": 3251050792,
  "lat": 45.9088961,
  "lon": 6.1454760,
  "tags": {
    "bus": "yes",
    "highway": "bus_stop",
    "name": "Cygnes",
    "network": "Sibra",
    "public_transport": "stop_position"
  }
},
{
  "type": "node",
  "id": 3251086437,
  "lat": 45.9144156,
  "lon": 6.1449975,
  "tags": {
    "bus": "yes",
    "highway": "bus_stop",
    "name": "Buisson",
    "network": "Sibra",
    "public_transport": "stop_position"
  }
},
{
  "type": "node",
  "id": 3251086439,
  "lat": 45.9125286,
  "lon": 6.1435644,
  "tags": {
    "bus": "yes",
    "highway": "bus_stop",
    "name": "Carrés",
    "network": "Sibra",
    "public_transport": "stop_position"
  }
},
{
  "type": "node",
  "id": 3251086441,
  "lat": 45.9191303,
  "lon": 6.1578249,
  "tags": {
    "bus": "yes",
    "highway": "bus_stop",
    "name": "Restau U",
    "network": "Sibra",
    "public_transport": "stop_position"
  }
},
{
  "type": "node",
  "id": 3251086442,
  "lat": 45.9151466,
  "lon": 6.1472523,
  "tags": {
    "bus": "yes",
    "highway": "bus_stop",
    "name": "Vignières",
    "network": "Sibra",
    "public_transport": "stop_position"
  }
},
{
  "type": "node",
  "id": 3251146601,
  "lat": 45.9140709,
  "lon": 6.1238101,
  "tags": {
    "advertising": "yes",
    "bus": "yes",
    "highway": "bus_stop",
    "lit": "sunset-sunrise",
    "name": "Bel Air",
    "network": "Sibra",
    "public_transport": "stop_position"
  }
},
{
  "type": "node",
  "id": 3251146602,
  "lat": 45.9258519,
  "lon": 6.1238269,
  "tags": {
    "bus": "yes",
    "highway": "bus_stop",
    "name": "Colombière",
    "network": "Sibra",
    "public_transport": "stop_position"
  }
},
{
  "type": "node",
  "id": 3251146603,
  "lat": 45.9112875,
  "lon": 6.1238035,
  "tags": {
    "bus": "yes",
    "highway": "bus_stop",
    "lit": "sunset-sunrise",
    "name": "Église des Fins",
    "network": "Sibra",
    "public_transport": "stop_position"
  }
},
{
  "type": "node",
  "id": 3251146604,
  "lat": 45.9164236,
  "lon": 6.1238257,
  "tags": {
    "advertising": "yes",
    "bus": "yes",
    "highway": "bus_stop",
    "lit": "sunset-sunrise",
    "name": "Genève Vernet",
    "network": "Sibra",
    "public_transport": "stop_position"
  }
},
{
  "type": "node",
  "id": 3251146605,
  "lat": 45.9198256,
  "lon": 6.1238277,
  "tags": {
    "advertising": "yes",
    "bus": "yes",
    "highway": "bus_stop",
    "lit": "sunset-sunrise",
    "name": "Genève Bellevue",
    "network": "Sibra",
    "public_transport": "stop_position"
  }
},
{
  "type": "node",
  "id": 3251146608,
  "lat": 45.9288550,
  "lon": 6.1216200,
  "tags": {
    "bus": "yes",
    "highway": "bus_stop",
    "name": "Vire Moulin",
    "network": "Sibra",
    "public_transport": "stop_position"
  }
},
{
  "type": "node",
  "id": 3251749752,
  "lat": 45.9097803,
  "lon": 6.1237993,
  "tags": {
    "advertising": "yes",
    "bus": "yes",
    "highway": "bus_stop",
    "lit": "sunset-sunrise",
    "name": "Alpins",
    "network": "Sibra",
    "public_transport": "stop_position"
  }
},
{
  "type": "node",
  "id": 3251749753,
  "lat": 45.9100532,
  "lon": 6.1237959,
  "tags": {
    "advertising": "yes",
    "bus": "yes",
    "highway": "bus_stop",
    "lit": "sunset-sunrise",
    "name": "Alpins",
    "network": "Sibra",
    "public_transport": "stop_position"
  }
},
{
  "type": "node",
  "id": 3251749754,
  "lat": 45.9024249,
  "lon": 6.1077976,
  "tags": {
    "bus": "yes",
    "highway": "bus_stop",
    "name": "Beauregard",
    "network": "Sibra",
    "public_transport": "stop_position"
  }
},
{
  "type": "node",
  "id": 3251749755,
  "lat": 45.8977308,
  "lon": 6.1144307,
  "tags": {
    "bus": "yes",
    "highway": "bus_stop",
    "name": "Pont Neuf",
    "network": "Sibra",
    "public_transport": "stop_position"
  }
},
{
  "type": "node",
  "id": 3251749756,
  "lat": 45.8977461,
  "lon": 6.1147597,
  "tags": {
    "bus": "yes",
    "highway": "bus_stop",
    "name": "Pont Neuf",
    "network": "Sibra",
    "public_transport": "stop_position"
  }
},
{
  "type": "node",
  "id": 3251893115,
  "lat": 45.9034526,
  "lon": 6.1040264,
  "tags": {
    "bus": "yes",
    "highway": "bus_stop",
    "name": "Chapelle",
    "network": "Sibra",
    "public_transport": "stop_position"
  }
},
{
  "type": "node",
  "id": 3251893121,
  "lat": 45.9031629,
  "lon": 6.1037337,
  "tags": {
    "bus": "yes",
    "highway": "bus_stop",
    "name": "Chapelle",
    "network": "Sibra",
    "public_transport": "stop_position"
  }
},
{
  "type": "node",
  "id": 3251922042,
  "lat": 45.9040572,
  "lon": 6.0996083,
  "tags": {
    "bus": "yes",
    "highway": "bus_stop",
    "name": "Espace Vallon",
    "network": "Sibra",
    "public_transport": "stop_position"
  }
},
{
  "type": "node",
  "id": 3251924633,
  "lat": 45.9043751,
  "lon": 6.0975483,
  "tags": {
    "bus": "yes",
    "highway": "bus_stop",
    "name": "Renoir",
    "network": "Sibra",
    "public_transport": "stop_position"
  }
},
{
  "type": "node",
  "id": 3251931455,
  "lat": 45.9025376,
  "lon": 6.0960046,
  "tags": {
    "bus": "yes",
    "highway": "bus_stop",
    "name": "Pérollière",
    "network": "Sibra",
    "public_transport": "stop_position"
  }
},
{
  "type": "node",
  "id": 3251931738,
  "lat": 45.9006723,
  "lon": 6.0930512,
  "tags": {
    "bus": "yes",
    "highway": "bus_stop",
    "name": "Gevrier",
    "network": "Sibra",
    "public_transport": "stop_position"
  }
},
{
  "type": "node",
  "id": 3251937283,
  "lat": 45.9014885,
  "lon": 6.0900619,
  "tags": {
    "bus": "yes",
    "highway": "bus_stop",
    "name": "Pont Saint-François",
    "network": "Sibra",
    "public_transport": "stop_position"
  }
},
{
  "type": "node",
  "id": 3251937284,
  "lat": 45.9016381,
  "lon": 6.0894920,
  "tags": {
    "bus": "yes",
    "highway": "bus_stop",
    "name": "Pont Saint-François",
    "network": "Sibra",
    "public_transport": "stop_position"
  }
},
{
  "type": "node",
  "id": 3252341119,
  "lat": 45.9214254,
  "lon": 6.1536710,
  "tags": {
    "bus": "yes",
    "highway": "bus_stop",
    "name": "Charby",
    "network": "Sibra",
    "public_transport": "stop_position"
  }
},
{
  "type": "node",
  "id": 3252341120,
  "lat": 45.9220045,
  "lon": 6.1528071,
  "tags": {
    "bus": "yes",
    "highway": "bus_stop",
    "name": "Charby",
    "network": "Sibra",
    "public_transport": "stop_position"
  }
},
{
  "type": "node",
  "id": 3252393784,
  "lat": 45.9247737,
  "lon": 6.1460224,
  "tags": {
    "bus": "yes",
    "highway": "bus_stop",
    "name": "Croix-Batailleur",
    "network": "Sibra",
    "public_transport": "stop_position"
  }
},
{
  "type": "node",
  "id": 3252414117,
  "lat": 45.9241994,
  "lon": 6.1414892,
  "tags": {
    "bus": "yes",
    "highway": "bus_stop",
    "name": "Bossons",
    "network": "Sibra",
    "public_transport": "stop_position"
  }
},
{
  "type": "node",
  "id": 3252420565,
  "lat": 45.9229060,
  "lon": 6.1359169,
  "tags": {
    "bus": "yes",
    "highway": "bus_stop",
    "name": "Evire",
    "network": "Sibra",
    "public_transport": "stop_position"
  }
},
{
  "type": "node",
  "id": 3252424204,
  "lat": 45.9196917,
  "lon": 6.1312046,
  "tags": {
    "advertising": "yes",
    "bus": "yes",
    "highway": "bus_stop",
    "name": "France Maquis",
    "network": "Sibra",
    "public_transport": "stop_position"
  }
},
{
  "type": "node",
  "id": 3252424205,
  "lat": 45.9204617,
  "lon": 6.1313302,
  "tags": {
    "advertising": "yes",
    "bus": "yes",
    "highway": "bus_stop",
    "name": "France Maquis",
    "network": "Sibra",
    "public_transport": "stop_position"
  }
},
{
  "type": "node",
  "id": 3252443431,
  "lat": 45.9181054,
  "lon": 6.1286913,
  "tags": {
    "advertising": "yes",
    "bus": "yes",
    "highway": "bus_stop",
    "name": "Anémones",
    "network": "Sibra",
    "public_transport": "stop_position"
  }
},
{
  "type": "node",
  "id": 3252443432,
  "lat": 45.9211709,
  "lon": 6.1279960,
  "tags": {
    "advertising": "yes",
    "bus": "yes",
    "highway": "bus_stop",
    "name": "Léandre Vaillat",
    "network": "Sibra",
    "public_transport": "stop_position"
  }
},
{
  "type": "node",
  "id": 3252463039,
  "lat": 45.9056319,
  "lon": 6.1291982,
  "tags": {
    "bus": "yes",
    "highway": "bus_stop",
    "name": "Lycée Berthollet",
    "network": "Sibra",
    "public_transport": "stop_position"
  }
},
{
  "type": "node",
  "id": 3252463040,
  "lat": 45.9060707,
  "lon": 6.1296469,
  "tags": {
    "bus": "yes",
    "highway": "bus_stop",
    "name": "Lycée Berthollet",
    "network": "Sibra",
    "public_transport": "stop_position"
  }
},
{
  "type": "node",
  "id": 3252474520,
  "lat": 45.9046223,
  "lon": 6.1298120,
  "tags": {
    "bus": "yes",
    "highway": "bus_stop",
    "name": "Paix",
    "network": "Sibra",
    "public_transport": "stop_position"
  }
},
{
  "type": "node",
  "id": 3252480365,
  "lat": 45.8941196,
  "lon": 6.1184377,
  "tags": {
    "bus": "yes",
    "highway": "bus_stop",
    "name": "Croix Rouge",
    "network": "Sibra",
    "public_transport": "stop_position"
  }
},
{
  "type": "node",
  "id": 3252480366,
  "lat": 45.8945526,
  "lon": 6.1187909,
  "tags": {
    "bus": "yes",
    "highway": "bus_stop",
    "name": "Croix Rouge",
    "network": "Sibra",
    "public_transport": "stop_position"
  }
},
{
  "type": "node",
  "id": 3252484043,
  "lat": 45.8920868,
  "lon": 6.1188002,
  "tags": {
    "bus": "yes",
    "highway": "bus_stop",
    "name": "Loverchy Cité",
    "network": "Sibra",
    "public_transport": "stop_position"
  }
},
{
  "type": "node",
  "id": 3252488161,
  "lat": 45.8906135,
  "lon": 6.1207159,
  "tags": {
    "bus": "yes",
    "highway": "bus_stop",
    "name": "IPAC - St Michel",
    "network": "Sibra",
    "public_transport": "stop_position"
  }
},
{
  "type": "node",
  "id": 3252488162,
  "lat": 45.8880333,
  "lon": 6.1193558,
  "tags": {
    "bus": "yes",
    "highway": "bus_stop",
    "name": "Sibra",
    "network": "Sibra",
    "public_transport": "stop_position"
  }
},
{
  "type": "node",
  "id": 3252488163,
  "lat": 45.8865422,
  "lon": 6.1170364,
  "tags": {
    "bus": "yes",
    "highway": "bus_stop",
    "name": "Vieux Moulins",
    "network": "Sibra",
    "public_transport": "stop_position"
  }
},
{
  "type": "node",
  "id": 3252494048,
  "lat": 45.8869809,
  "lon": 6.1111665,
  "tags": {
    "bus": "yes",
    "highway": "bus_stop",
    "name": "Loverchy-Village",
    "network": "Sibra",
    "public_transport": "stop_position"
  }
},
{
  "type": "node",
  "id": 3252494049,
  "lat": 45.8891691,
  "lon": 6.1138601,
  "tags": {
    "bus": "yes",
    "highway": "bus_stop",
    "name": "Trois Fontaines",
    "network": "Sibra",
    "public_transport": "stop_position"
  }
},
{
  "type": "node",
  "id": 3252494050,
  "lat": 45.8895772,
  "lon": 6.1142917,
  "tags": {
    "bus": "yes",
    "highway": "bus_stop",
    "name": "Trois Fontaines",
    "network": "Sibra",
    "public_transport": "stop_position"
  }
},
{
  "type": "node",
  "id": 3252494947,
  "lat": 45.8855747,
  "lon": 6.1096049,
  "tags": {
    "bus": "yes",
    "highway": "bus_stop",
    "name": "L.P. Gordini",
    "network": "Sibra",
    "public_transport": "stop_position"
  }
},
{
  "type": "node",
  "id": 3252499382,
  "lat": 45.8848236,
  "lon": 6.1041042,
  "tags": {
    "bus": "yes",
    "highway": "bus_stop",
    "name": "Seynod Polynôme",
    "network": "Sibra",
    "public_transport": "stop_position"
  }
},
{
  "type": "node",
  "id": 3252499383,
  "lat": 45.8848314,
  "lon": 6.1042155,
  "tags": {
    "bus": "yes",
    "highway": "bus_stop",
    "name": "Seynod Polynôme",
    "network": "Sibra",
    "public_transport": "stop_position"
  }
},
{
  "type": "node",
  "id": 3252520819,
  "lat": 45.8861479,
  "lon": 6.0985255,
  "tags": {
    "bus": "yes",
    "highway": "bus_stop",
    "name": "Muraillons",
    "network": "Sibra",
    "public_transport": "stop_position"
  }
},
{
  "type": "node",
  "id": 3252520820,
  "lat": 45.8868350,
  "lon": 6.0986420,
  "tags": {
    "bus": "yes",
    "highway": "bus_stop",
    "name": "Muraillons",
    "network": "Sibra",
    "public_transport": "stop_position"
  }
},
{
  "type": "node",
  "id": 3252523737,
  "lat": 45.8844856,
  "lon": 6.0973752,
  "tags": {
    "bus": "yes",
    "highway": "bus_stop",
    "name": "Longiret",
    "network": "Sibra",
    "public_transport": "stop_position"
  }
},
{
  "type": "node",
  "id": 3252625714,
  "lat": 45.8826196,
  "lon": 6.0949059,
  "tags": {
    "bus": "yes",
    "highway": "bus_stop",
    "name": "Angoulême",
    "network": "Sibra",
    "public_transport": "stop_position"
  }
},
{
  "type": "node",
  "id": 3252625715,
  "lat": 45.8792689,
  "lon": 6.0863135,
  "tags": {
    "bus": "yes",
    "highway": "bus_stop",
    "name": "Seynod Neigeos",
    "network": "Sibra",
    "public_transport": "stop_position"
  }
},
{
  "type": "node",
  "id": 3252625724,
  "lat": 45.8794350,
  "lon": 6.0866404,
  "tags": {
    "bus": "yes",
    "highway": "bus_stop",
    "name": "Seynod Neigeos",
    "network": "Sibra",
    "public_transport": "stop_position"
  }
},
{
  "type": "node",
  "id": 3253333676,
  "lat": 45.8850005,
  "lon": 6.1012320,
  "tags": {
    "bus": "yes",
    "highway": "bus_stop",
    "name": "Cordeliers",
    "network": "Sibra",
    "public_transport": "stop_position"
  }
},
{
  "type": "node",
  "id": 3253333677,
  "lat": 45.8779472,
  "lon": 6.0930289,
  "tags": {
    "bus": "yes",
    "highway": "bus_stop",
    "name": "Costa de Beauregard",
    "network": "Sibra",
    "public_transport": "stop_position"
  }
},
{
  "type": "node",
  "id": 3253349046,
  "lat": 45.8744410,
  "lon": 6.0847825,
  "tags": {
    "bus": "yes",
    "highway": "bus_stop",
    "name": "Seynod Périaz",
    "network": "Sibra",
    "public_transport": "stop_position"
  }
},
{
  "type": "node",
  "id": 3253349047,
  "lat": 45.8744969,
  "lon": 6.0847498,
  "tags": {
    "bus": "yes",
    "highway": "bus_stop",
    "name": "Seynod Périaz",
    "network": "Sibra",
    "public_transport": "stop_position"
  }
},
{
  "type": "node",
  "id": 3253363258,
  "lat": 45.8882975,
  "lon": 6.0999544,
  "tags": {
    "bus": "yes",
    "highway": "bus_stop",
    "name": "Marché",
    "network": "Sibra",
    "public_transport": "stop_position"
  }
},
{
  "type": "node",
  "id": 3253363259,
  "lat": 45.8884537,
  "lon": 6.1002119,
  "tags": {
    "bus": "yes",
    "highway": "bus_stop",
    "name": "Marché",
    "network": "Sibra",
    "public_transport": "stop_position"
  }
},
{
  "type": "node",
  "id": 3253816293,
  "lat": 45.8907445,
  "lon": 6.1013953,
  "tags": {
    "bus": "yes",
    "highway": "bus_stop",
    "name": "Cep",
    "network": "Sibra",
    "public_transport": "stop_position"
  }
},
{
  "type": "node",
  "id": 3253816294,
  "lat": 45.8909451,
  "lon": 6.1014063,
  "tags": {
    "bus": "yes",
    "highway": "bus_stop",
    "name": "Cep",
    "network": "Sibra",
    "public_transport": "stop_position"
  }
},
{
  "type": "node",
  "id": 3253816295,
  "lat": 45.8926495,
  "lon": 6.1015291,
  "tags": {
    "bus": "yes",
    "highway": "bus_stop",
    "name": "Église des Bressis",
    "network": "Sibra",
    "public_transport": "stop_position"
  }
},
{
  "type": "node",
  "id": 3253816296,
  "lat": 45.8928742,
  "lon": 6.1015487,
  "tags": {
    "bus": "yes",
    "highway": "bus_stop",
    "name": "Église des Bressis",
    "network": "Sibra",
    "public_transport": "stop_position"
  }
},
{
  "type": "node",
  "id": 3253825034,
  "lat": 45.8940310,
  "lon": 6.1059318,
  "tags": {
    "bus": "yes",
    "highway": "bus_stop",
    "name": "Camarines",
    "network": "Sibra",
    "public_transport": "stop_position"
  }
},
{
  "type": "node",
  "id": 3253825035,
  "lat": 45.8941154,
  "lon": 6.1064558,
  "tags": {
    "bus": "yes",
    "highway": "bus_stop",
    "name": "Camarines",
    "network": "Sibra",
    "public_transport": "stop_position"
  }
},
{
  "type": "node",
  "id": 3253825037,
  "lat": 45.8935732,
  "lon": 6.1092874,
  "tags": {
    "bus": "yes",
    "highway": "bus_stop",
    "name": "Taillée",
    "network": "Sibra",
    "public_transport": "stop_position"
  }
},
{
  "type": "node",
  "id": 3253825578,
  "lat": 45.9073505,
  "lon": 6.1351709,
  "tags": {
    "advertising": "yes",
    "bench": "yes",
    "bus": "yes",
    "highway": "bus_stop",
    "lit": "sunset-sunrise",
    "name": "Henri Dunant",
    "network": "Sibra",
    "public_transport": "platform",
    "route_ref": "3, 1",
    "shelter": "yes",
    "wheelchair": "yes"
  }
},
{
  "type": "node",
  "id": 3253835787,
  "lat": 45.9131175,
  "lon": 6.1351728,
  "tags": {
    "bench": "yes",
    "bin": "yes",
    "bus": "yes",
    "departures_board": "timetable",
    "highway": "bus_stop",
    "lit": "yes",
    "name": "France Mont-Blanc",
    "operator": "Sibra",
    "public_transport": "stop_position",
    "route_ref": "3",
    "shelter": "Platform",
    "tactile_paving": "yes",
    "wheelchair": "yes"
  }
},
{
  "type": "node",
  "id": 3253835788,
  "lat": 45.9099335,
  "lon": 6.1381080,
  "tags": {
    "bench": "yes",
    "bus": "yes",
    "highway": "bus_stop",
    "name": "France Thônes",
    "network": "Sibra",
    "public_transport": "platform",
    "route_ref": "3",
    "shelter": "yes",
    "wheelchair": "yes"
  }
},
{
  "type": "node",
  "id": 3253849234,
  "lat": 45.9162228,
  "lon": 6.1334817,
  "tags": {
    "bench": "no",
    "bus": "yes",
    "departures_board": "timetable",
    "highway": "bus_stop",
    "name": "Annapurna",
    "network": "Sibra",
    "operator": "Sibra",
    "public_transport": "stop_position",
    "route_ref": "i;N",
    "shelter": "no",
    "tactile_paving": "no"
  }
},
{
  "type": "node",
  "id": 3253849235,
  "lat": 45.9170271,
  "lon": 6.1363564,
  "tags": {
    "bench": "yes",
    "bus": "yes",
    "highway": "bus_stop",
    "name": "Arcalod",
    "network": "Sibra",
    "public_transport": "platform",
    "route_ref": "3",
    "shelter": "yes",
    "wheelchair": "yes"
  }
},
{
  "type": "node",
  "id": 3253849236,
  "lat": 45.9157282,
  "lon": 6.1374830,
  "tags": {
    "bus": "yes",
    "highway": "bus_stop",
    "name": "Colline Mont-Blanc",
    "network": "Sibra",
    "public_transport": "stop_position"
  }
},
{
  "type": "node",
  "id": 3254274529,
  "lat": 45.9360593,
  "lon": 6.1230460,
  "tags": {
    "bus": "yes",
    "highway": "bus_stop",
    "name": "La Salle Pringy",
    "network": "Sibra",
    "public_transport": "stop_position"
  }
},
{
  "type": "node",
  "id": 3254299299,
  "lat": 45.9214782,
  "lon": 6.0984823,
  "tags": {
    "bus": "yes",
    "highway": "bus_stop",
    "name": "Lacroix",
    "public_transport": "stop_position"
  }
},
{
  "type": "node",
  "id": 3254299300,
  "lat": 45.9216638,
  "lon": 6.0987963,
  "tags": {
    "bus": "yes",
    "highway": "bus_stop",
    "name": "Lacroix",
    "public_transport": "stop_position"
  }
},
{
  "type": "node",
  "id": 3254308873,
  "lat": 45.9177969,
  "lon": 6.0933186,
  "tags": {
    "bus": "yes",
    "highway": "bus_stop",
    "name": "Horizons",
    "public_transport": "stop_position"
  }
},
{
  "type": "node",
  "id": 3254308874,
  "lat": 45.9200571,
  "lon": 6.0964534,
  "tags": {
    "bus": "yes",
    "highway": "bus_stop",
    "name": "Vieux Meythet",
    "public_transport": "stop_position"
  }
},
{
  "type": "node",
  "id": 3254324051,
  "lat": 45.9145087,
  "lon": 6.0973712,
  "tags": {
    "bus": "yes",
    "highway": "bus_stop",
    "name": "Cimetière Meythet",
    "public_transport": "stop_position"
  }
},
{
  "type": "node",
  "id": 3254340038,
  "lat": 45.9155517,
  "lon": 6.1040186,
  "tags": {
    "bus": "yes",
    "highway": "bus_stop",
    "name": "Alta Viéran",
    "public_transport": "stop_position"
  }
},
{
  "type": "node",
  "id": 3254340039,
  "lat": 45.9167174,
  "lon": 6.1046313,
  "tags": {
    "bus": "yes",
    "highway": "bus_stop",
    "name": "Alta Viéran",
    "public_transport": "stop_position"
  }
},
{
  "type": "node",
  "id": 3254340040,
  "lat": 45.9143726,
  "lon": 6.1006549,
  "tags": {
    "bus": "yes",
    "highway": "bus_stop",
    "name": "Garennes",
    "public_transport": "stop_position"
  }
},
{
  "type": "node",
  "id": 3254340041,
  "lat": 45.9147024,
  "lon": 6.1019627,
  "tags": {
    "bus": "yes",
    "highway": "bus_stop",
    "name": "Garennes",
    "public_transport": "stop_position"
  }
},
{
  "type": "node",
  "id": 3254350493,
  "lat": 45.9121858,
  "lon": 6.1130579,
  "tags": {
    "bus": "yes",
    "highway": "bus_stop",
    "name": "Iles",
    "network": "Sibra",
    "public_transport": "stop_position"
  }
},
{
  "type": "node",
  "id": 3254350494,
  "lat": 45.9116454,
  "lon": 6.1080877,
  "tags": {
    "bus": "yes",
    "highway": "bus_stop",
    "name": "Les Terrasses",
    "network": "Sibra",
    "public_transport": "stop_position"
  }
},
{
  "type": "node",
  "id": 3254354242,
  "lat": 45.9082073,
  "lon": 6.1172677,
  "tags": {
    "bus": "yes",
    "highway": "bus_stop",
    "name": "Aimé Levet",
    "network": "Sibra",
    "public_transport": "stop_position"
  }
},
{
  "type": "node",
  "id": 3254354243,
  "lat": 45.9084997,
  "lon": 6.1174799,
  "tags": {
    "bus": "yes",
    "highway": "bus_stop",
    "name": "Aimé Levet",
    "network": "Sibra",
    "public_transport": "stop_position"
  }
},
{
  "type": "node",
  "id": 3254354244,
  "lat": 45.9106706,
  "lon": 6.1152157,
  "tags": {
    "bus": "yes",
    "highway": "bus_stop",
    "name": "Grand Annecy",
    "network": "Sibra",
    "public_transport": "stop_position"
  }
},
{
  "type": "node",
  "id": 3254354245,
  "lat": 45.9109591,
  "lon": 6.1147377,
  "tags": {
    "bus": "yes",
    "highway": "bus_stop",
    "name": "Grand Annecy",
    "network": "Sibra",
    "public_transport": "stop_position"
  }
},
{
  "type": "node",
  "id": 3254363912,
  "lat": 45.9053592,
  "lon": 6.1203837,
  "tags": {
    "bus": "yes",
    "highway": "bus_stop",
    "name": "Capucins",
    "network": "Sibra",
    "public_transport": "stop_position"
  }
},
{
  "type": "node",
  "id": 3254363913,
  "lat": 45.9057677,
  "lon": 6.1179326,
  "tags": {
    "bus": "yes",
    "highway": "bus_stop",
    "name": "Rue de Seyssel",
    "network": "Sibra",
    "public_transport": "stop_position"
  }
},
{
  "type": "node",
  "id": 3254383084,
  "lat": 45.8965675,
  "lon": 6.1320303,
  "tags": {
    "bus": "yes",
    "highway": "bus_stop",
    "name": "Piscine Marquisats",
    "public_transport": "stop_position"
  }
},
{
  "type": "node",
  "id": 3254853978,
  "lat": 45.8915669,
  "lon": 6.1069316,
  "tags": {
    "bus": "yes",
    "highway": "bus_stop",
    "name": "Seynod Bois Gentil",
    "operator": "Sibra",
    "public_transport": "stop_position"
  }
},
{
  "type": "node",
  "id": 3254855096,
  "lat": 45.8907583,
  "lon": 6.1124169,
  "tags": {
    "bus": "yes",
    "highway": "bus_stop",
    "name": "Val Vert",
    "operator": "Sibra",
    "public_transport": "stop_position"
  }
},
{
  "type": "node",
  "id": 3254857934,
  "lat": 45.8845849,
  "lon": 6.1182573,
  "tags": {
    "bus": "yes",
    "highway": "bus_stop",
    "name": "Bouverie",
    "public_transport": "stop_position"
  }
},
{
  "type": "node",
  "id": 3254858803,
  "lat": 45.8820392,
  "lon": 6.1188339,
  "tags": {
    "bus": "yes",
    "highway": "bus_stop",
    "name": "Césière",
    "public_transport": "stop_position"
  }
},
{
  "type": "node",
  "id": 3254872261,
  "lat": 45.8905363,
  "lon": 6.1226243,
  "tags": {
    "bus": "yes",
    "highway": "bus_stop",
    "name": "Saint-Michel",
    "public_transport": "stop_position"
  }
},
{
  "type": "node",
  "id": 3255025505,
  "lat": 45.8946009,
  "lon": 6.1278516,
  "tags": {
    "bus": "yes",
    "highway": "bus_stop",
    "name": "Paradis",
    "operator": "Sibra",
    "public_transport": "stop_position"
  }
},
{
  "type": "node",
  "id": 3255025506,
  "lat": 45.8960139,
  "lon": 6.1305594,
  "tags": {
    "bus": "yes",
    "highway": "bus_stop",
    "name": "Trésum",
    "network": "Sibra",
    "public_transport": "stop_position"
  }
},
{
  "type": "node",
  "id": 3255377965,
  "lat": 45.9055519,
  "lon": 6.0983255,
  "tags": {
    "bus": "yes",
    "highway": "bus_stop",
    "name": "Hauteville",
    "network": "Sibra",
    "public_transport": "stop_position"
  }
},
{
  "type": "node",
  "id": 3255377966,
  "lat": 45.9119629,
  "lon": 6.1138149,
  "tags": {
    "bus": "yes",
    "highway": "bus_stop",
    "name": "Iles",
    "network": "Sibra",
    "public_transport": "stop_position"
  }
},
{
  "type": "node",
  "id": 3255377967,
  "lat": 45.9122063,
  "lon": 6.1137224,
  "tags": {
    "bus": "yes",
    "highway": "bus_stop",
    "name": "Iles",
    "network": "Sibra",
    "public_transport": "stop_position"
  }
},
{
  "type": "node",
  "id": 3255377968,
  "lat": 45.9157412,
  "lon": 6.1156661,
  "tags": {
    "bus": "yes",
    "highway": "bus_stop",
    "name": "Rulland",
    "network": "Sibra",
    "public_transport": "stop_position"
  }
},
{
  "type": "node",
  "id": 3255378059,
  "lat": 45.9015228,
  "lon": 6.1020982,
  "tags": {
    "bus": "yes",
    "highway": "bus_stop",
    "name": "Millemoux",
    "network": "Sibra",
    "public_transport": "stop_position"
  }
},
{
  "type": "node",
  "id": 3255378060,
  "lat": 45.9017429,
  "lon": 6.1020325,
  "tags": {
    "bus": "yes",
    "highway": "bus_stop",
    "name": "Millemoux",
    "network": "Sibra",
    "public_transport": "stop_position"
  }
},
{
  "type": "node",
  "id": 3255387574,
  "lat": 45.8966772,
  "lon": 6.1024600,
  "tags": {
    "bus": "yes",
    "highway": "bus_stop",
    "name": "Perolles",
    "network": "Sibra",
    "public_transport": "stop_position"
  }
},
{
  "type": "node",
  "id": 3255395561,
  "lat": 45.8969239,
  "lon": 6.0967457,
  "tags": {
    "bus": "yes",
    "highway": "bus_stop",
    "name": "Lycée Baudelaire",
    "network": "Sibra",
    "public_transport": "stop_position"
  }
},
{
  "type": "node",
  "id": 3255395562,
  "lat": 45.8953401,
  "lon": 6.0895536,
  "tags": {
    "bus": "yes",
    "highway": "bus_stop",
    "name": "Vulpillière",
    "network": "Sibra",
    "public_transport": "stop_position"
  }
},
{
  "type": "node",
  "id": 3255419961,
  "lat": 45.8919997,
  "lon": 6.0873988,
  "tags": {
    "bus": "yes",
    "highway": "bus_stop",
    "name": "Nanfray",
    "network": "Sibra",
    "public_transport": "stop_position"
  }
},
{
  "type": "node",
  "id": 3255419962,
  "lat": 45.8922041,
  "lon": 6.0875863,
  "tags": {
    "bus": "yes",
    "highway": "bus_stop",
    "name": "Nanfray",
    "network": "Sibra",
    "public_transport": "stop_position"
  }
},
{
  "type": "node",
  "id": 3255421249,
  "lat": 45.8897364,
  "lon": 6.0819125,
  "tags": {
    "bus": "yes",
    "highway": "bus_stop",
    "name": "Ajoncs",
    "network": "Sibra",
    "public_transport": "stop_position"
  }
},
{
  "type": "node",
  "id": 3255421250,
  "lat": 45.8900703,
  "lon": 6.0833678,
  "tags": {
    "bus": "yes",
    "highway": "bus_stop",
    "name": "Ajoncs",
    "network": "Sibra",
    "public_transport": "stop_position"
  }
},
{
  "type": "node",
  "id": 3255421251,
  "lat": 45.8883970,
  "lon": 6.0755105,
  "tags": {
    "bus": "yes",
    "highway": "bus_stop",
    "name": "Z.I. Césardes",
    "network": "Sibra",
    "public_transport": "stop_position"
  }
},
{
  "type": "node",
  "id": 3255421252,
  "lat": 45.8887106,
  "lon": 6.0764533,
  "tags": {
    "bus": "yes",
    "highway": "bus_stop",
    "name": "Z.I. Césardes",
    "network": "Sibra",
    "public_transport": "stop_position"
  }
},
{
  "type": "node",
  "id": 3255595397,
  "lat": 45.9297620,
  "lon": 6.1238078,
  "tags": {
    "bus": "yes",
    "highway": "bus_stop",
    "name": "La Varde",
    "network": "Sibra",
    "public_transport": "stop_position"
  }
},
{
  "type": "node",
  "id": 3255595398,
  "lat": 45.9298809,
  "lon": 6.1244170,
  "tags": {
    "bus": "yes",
    "highway": "bus_stop",
    "name": "La Varde",
    "network": "Sibra",
    "public_transport": "stop_position"
  }
},
{
  "type": "node",
  "id": 3255595399,
  "lat": 45.9307944,
  "lon": 6.1248859,
  "tags": {
    "bus": "yes",
    "highway": "bus_stop",
    "name": "La Varde",
    "network": "Sibra",
    "public_transport": "stop_position"
  }
},
{
  "type": "node",
  "id": 3255612264,
  "lat": 45.9340425,
  "lon": 6.1275261,
  "tags": {
    "bus": "yes",
    "highway": "bus_stop",
    "name": "Pont de Brogny",
    "network": "Sibra",
    "public_transport": "stop_position"
  }
},
{
  "type": "node",
  "id": 3256563183,
  "lat": 45.9031855,
  "lon": 6.1213352,
  "tags": {
    "bus": "yes",
    "highway": "bus_stop",
    "name": "Bouvard",
    "operator": "Sibra",
    "public_transport": "stop_position"
  }
},
{
  "type": "node",
  "id": 3256563184,
  "lat": 45.9045828,
  "lon": 6.1153918,
  "tags": {
    "bus": "yes",
    "highway": "bus_stop",
    "name": "Hirondelles",
    "operator": "Sibra",
    "public_transport": "stop_position"
  }
},
{
  "type": "node",
  "id": 3256563185,
  "lat": 45.9047847,
  "lon": 6.1151972,
  "tags": {
    "bus": "yes",
    "highway": "bus_stop",
    "name": "Hirondelles",
    "operator": "Sibra",
    "public_transport": "stop_position"
  }
},
{
  "type": "node",
  "id": 3256563186,
  "lat": 45.9029192,
  "lon": 6.1182012,
  "tags": {
    "bus": "yes",
    "highway": "bus_stop",
    "name": "SNR",
    "operator": "Sibra",
    "public_transport": "stop_position"
  }
},
{
  "type": "node",
  "id": 3256563187,
  "lat": 45.9033448,
  "lon": 6.1177573,
  "tags": {
    "bus": "yes",
    "highway": "bus_stop",
    "name": "SNR",
    "operator": "Sibra",
    "public_transport": "stop_position"
  }
},
{
  "type": "node",
  "id": 3256563188,
  "lat": 45.9063619,
  "lon": 6.1140196,
  "tags": {
    "advertising": "no",
    "bus": "yes",
    "highway": "bus_stop",
    "name": "4 Chemins",
    "network": "Sibra",
    "public_transport": "stop_position"
  }
},
{
  "type": "node",
  "id": 3256563189,
  "lat": 45.9064575,
  "lon": 6.1137131,
  "tags": {
    "advertising": "yes",
    "bus": "yes",
    "highway": "bus_stop",
    "name": "4 Chemins",
    "network": "Sibra",
    "public_transport": "stop_position"
  }
},
{
  "type": "node",
  "id": 3256572256,
  "lat": 45.9125406,
  "lon": 6.0896351,
  "tags": {
    "bus": "yes",
    "highway": "bus_stop",
    "name": "François Vernex",
    "public_transport": "stop_position"
  }
},
{
  "type": "node",
  "id": 3256576054,
  "lat": 45.9140582,
  "lon": 6.0909171,
  "tags": {
    "bus": "yes",
    "highway": "bus_stop",
    "name": "Grillons",
    "public_transport": "stop_position"
  }
},
{
  "type": "node",
  "id": 3256576055,
  "lat": 45.9142597,
  "lon": 6.0910673,
  "tags": {
    "bus": "yes",
    "highway": "bus_stop",
    "name": "Grillons",
    "public_transport": "stop_position"
  }
},
{
  "type": "node",
  "id": 3256970606,
  "lat": 45.9230445,
  "lon": 6.0892209,
  "tags": {
    "bus": "yes",
    "highway": "bus_stop",
    "name": "Les Grandes Teppes",
    "public_transport": "stop_position"
  }
},
{
  "type": "node",
  "id": 3256970607,
  "lat": 45.9232914,
  "lon": 6.0892698,
  "tags": {
    "bus": "yes",
    "highway": "bus_stop",
    "name": "Les Grandes Teppes",
    "network": "Sibra",
    "public_transport": "stop_position"
  }
},
{
  "type": "node",
  "id": 3256970608,
  "lat": 45.9207865,
  "lon": 6.0895955,
  "tags": {
    "bus": "yes",
    "highway": "bus_stop",
    "name": "Sur les Plans",
    "public_transport": "stop_position"
  }
},
{
  "type": "node",
  "id": 3260277357,
  "lat": 45.8810721,
  "lon": 6.1076575,
  "tags": {
    "bus": "yes",
    "highway": "bus_stop",
    "name": "Pré Fornet",
    "network": "Sibra",
    "public_transport": "stop_position"
  }
},
{
  "type": "node",
  "id": 3260306406,
  "lat": 45.8784245,
  "lon": 6.1054440,
  "tags": {
    "bus": "yes",
    "highway": "bus_stop",
    "name": "Malaz",
    "operator": "Sibra",
    "public_transport": "stop_position"
  }
},
{
  "type": "node",
  "id": 3260310923,
  "lat": 45.8709056,
  "lon": 6.0985976,
  "tags": {
    "bus": "yes",
    "highway": "bus_stop",
    "name": "Culaz",
    "operator": "Sibra",
    "public_transport": "stop_position"
  }
},
{
  "type": "node",
  "id": 3260310924,
  "lat": 45.8710176,
  "lon": 6.0986013,
  "tags": {
    "bus": "yes",
    "highway": "bus_stop",
    "name": "Culaz",
    "operator": "Sibra",
    "public_transport": "stop_position"
  }
},
{
  "type": "node",
  "id": 3260325646,
  "lat": 45.8668734,
  "lon": 6.0945089,
  "tags": {
    "bus": "yes",
    "highway": "bus_stop",
    "name": "Route de Vergloz",
    "operator": "Sibra",
    "public_transport": "stop_position"
  }
},
{
  "type": "node",
  "id": 3260325647,
  "lat": 45.8672115,
  "lon": 6.0949537,
  "tags": {
    "bus": "yes",
    "highway": "bus_stop",
    "name": "Route de Vergloz",
    "operator": "Sibra",
    "public_transport": "stop_position"
  }
},
{
  "type": "node",
  "id": 3260331636,
  "lat": 45.8647120,
  "lon": 6.0900288,
  "tags": {
    "bus": "yes",
    "highway": "bus_stop",
    "name": "Pesset",
    "operator": "Sibra",
    "public_transport": "stop_position"
  }
},
{
  "type": "node",
  "id": 3260331637,
  "lat": 45.8648787,
  "lon": 6.0903778,
  "tags": {
    "bus": "yes",
    "highway": "bus_stop",
    "name": "Pesset",
    "operator": "Sibra",
    "public_transport": "stop_position"
  }
},
{
  "type": "node",
  "id": 3260340298,
  "lat": 45.8624802,
  "lon": 6.0835295,
  "tags": {
    "bus": "yes",
    "highway": "bus_stop",
    "name": "Vieugy Eglise",
    "operator": "Sibra",
    "public_transport": "stop_position"
  }
},
{
  "type": "node",
  "id": 3260340299,
  "lat": 45.8625858,
  "lon": 6.0838511,
  "tags": {
    "bus": "yes",
    "highway": "bus_stop",
    "name": "Vieugy Eglise",
    "operator": "Sibra",
    "public_transport": "stop_position"
  }
},
{
  "type": "node",
  "id": 3260387196,
  "lat": 45.8571364,
  "lon": 6.0892358,
  "tags": {
    "bus": "yes",
    "highway": "bus_stop",
    "name": "L'Eau Vive",
    "network": "Sibra",
    "public_transport": "stop_position"
  }
},
{
  "type": "node",
  "id": 3260387197,
  "lat": 45.8577270,
  "lon": 6.0892209,
  "tags": {
    "bus": "yes",
    "highway": "bus_stop",
    "name": "L'Eau Vive",
    "network": "Sibra",
    "public_transport": "stop_position"
  }
},
{
  "type": "node",
  "id": 3261739077,
  "lat": 45.8595686,
  "lon": 6.0791301,
  "tags": {
    "bus": "yes",
    "highway": "bus_stop",
    "name": "Chez Blot",
    "operator": "Sibra",
    "public_transport": "stop_position"
  }
},
{
  "type": "node",
  "id": 3261739078,
  "lat": 45.8597474,
  "lon": 6.0793802,
  "tags": {
    "bus": "yes",
    "highway": "bus_stop",
    "name": "Chez Blot",
    "operator": "Sibra",
    "public_transport": "stop_position"
  }
},
{
  "type": "node",
  "id": 3261776311,
  "lat": 45.8321490,
  "lon": 6.0567658,
  "tags": {
    "bus": "yes",
    "highway": "bus_stop",
    "name": "Balmont",
    "operator": "Sibra",
    "public_transport": "stop_position"
  }
},
{
  "type": "node",
  "id": 3261776312,
  "lat": 45.8409034,
  "lon": 6.0595805,
  "tags": {
    "bus": "yes",
    "highway": "bus_stop",
    "name": "Chaux",
    "operator": "Sibra",
    "public_transport": "stop_position"
  }
},
{
  "type": "node",
  "id": 3261776313,
  "lat": 45.8411032,
  "lon": 6.0591644,
  "tags": {
    "bus": "yes",
    "highway": "bus_stop",
    "name": "Chaux",
    "operator": "Sibra",
    "public_transport": "stop_position"
  }
},
{
  "type": "node",
  "id": 3261776314,
  "lat": 45.8425903,
  "lon": 6.0604362,
  "tags": {
    "bus": "yes",
    "highway": "bus_stop",
    "name": "Genévrier",
    "operator": "Sibra",
    "public_transport": "stop_position"
  }
},
{
  "type": "node",
  "id": 3261776315,
  "lat": 45.8555290,
  "lon": 6.0720175,
  "tags": {
    "bus": "yes",
    "highway": "bus_stop",
    "name": "Mathonex",
    "operator": "Sibra",
    "public_transport": "stop_position"
  }
},
{
  "type": "node",
  "id": 3261776316,
  "lat": 45.8354728,
  "lon": 6.0657719,
  "tags": {
    "bus": "yes",
    "highway": "bus_stop",
    "name": "Meclaz",
    "operator": "Sibra",
    "public_transport": "stop_position"
  }
},
{
  "type": "node",
  "id": 3262943711,
  "lat": 45.8925173,
  "lon": 6.1264527,
  "tags": {
    "bus": "yes",
    "highway": "bus_stop",
    "name": "La Basilique",
    "operator": "Sibra",
    "public_transport": "stop_position"
  }
},
{
  "type": "node",
  "id": 3262943712,
  "lat": 45.9057915,
  "lon": 6.1268366,
  "tags": {
    "bus": "yes",
    "description": "Arrêt Scolaire",
    "highway": "bus_stop",
    "name": "Lycée Berthollet",
    "public_transport": "stop_position"
  }
},
{
  "type": "node",
  "id": 3262943714,
  "lat": 45.8906938,
  "lon": 6.1279252,
  "tags": {
    "bus": "yes",
    "highway": "bus_stop",
    "name": "Visitation",
    "operator": "Sibra",
    "public_transport": "stop_position"
  }
},
{
  "type": "node",
  "id": 3263047821,
  "lat": 45.9187161,
  "lon": 6.1322021,
  "tags": {
    "bus": "yes",
    "highway": "bus_stop",
    "name": "Louis Armand",
    "network": "Sibra",
    "public_transport": "stop_position"
  }
},
{
  "type": "node",
  "id": 3263686960,
  "lat": 45.9218802,
  "lon": 6.1684012,
  "tags": {
    "bus": "yes",
    "highway": "bus_stop",
    "name": "Bellevue",
    "operator": "Sibra",
    "public_transport": "stop_position"
  }
},
{
  "type": "node",
  "id": 3263687961,
  "lat": 45.9225859,
  "lon": 6.1659984,
  "tags": {
    "bus": "yes",
    "highway": "bus_stop",
    "name": "Entrée Parc",
    "network": "Sibra",
    "public_transport": "stop_position",
    "wheelchair": "yes"
  }
},
{
  "type": "node",
  "id": 3263687962,
  "lat": 45.9208979,
  "lon": 6.1720686,
  "tags": {
    "bus": "yes",
    "highway": "bus_stop",
    "name": "Lanches",
    "operator": "Sibra",
    "public_transport": "stop_position"
  }
},
{
  "type": "node",
  "id": 3263687963,
  "lat": 45.9209581,
  "lon": 6.1718433,
  "tags": {
    "bus": "yes",
    "highway": "bus_stop",
    "name": "Lanches",
    "operator": "Sibra",
    "public_transport": "stop_position"
  }
},
{
  "type": "node",
  "id": 3263687967,
  "lat": 45.9195111,
  "lon": 6.1754590,
  "tags": {
    "bus": "yes",
    "description": "Ligne de bus supprimée",
    "highway": "bus_stop",
    "name": "Sur les Bois",
    "operator": "Sibra",
    "public_transport": "stop_position"
  }
},
{
  "type": "node",
  "id": 3264053730,
  "lat": 45.9058024,
  "lon": 6.1586630,
  "tags": {
    "bus": "yes",
    "highway": "bus_stop",
    "name": "Petit Port Chavoires",
    "operator": "Sibra",
    "public_transport": "stop_position"
  }
},
{
  "type": "node",
  "id": 3264053731,
  "lat": 45.9062303,
  "lon": 6.1556817,
  "tags": {
    "bus": "yes",
    "highway": "bus_stop",
    "name": "Pré Vernet",
    "operator": "Sibra",
    "public_transport": "stop_position"
  }
},
{
  "type": "node",
  "id": 3264053732,
  "lat": 45.9063784,
  "lon": 6.1552254,
  "tags": {
    "bus": "yes",
    "highway": "bus_stop",
    "name": "Pré Vernet",
    "operator": "Sibra",
    "public_transport": "stop_position"
  }
},
{
  "type": "node",
  "id": 3264067173,
  "lat": 45.9065568,
  "lon": 6.1607722,
  "tags": {
    "bus": "yes",
    "highway": "bus_stop",
    "name": "Chasseurs",
    "operator": "Sibra",
    "public_transport": "stop_position"
  }
},
{
  "type": "node",
  "id": 3264067174,
  "lat": 45.9087933,
  "lon": 6.1609159,
  "tags": {
    "bus": "yes",
    "highway": "bus_stop",
    "name": "Grottes",
    "operator": "Sibra",
    "public_transport": "stop_position"
  }
},
{
  "type": "node",
  "id": 3264067175,
  "lat": 45.9089145,
  "lon": 6.1609038,
  "tags": {
    "bus": "yes",
    "highway": "bus_stop",
    "name": "Grottes",
    "operator": "Sibra",
    "public_transport": "stop_position"
  }
},
{
  "type": "node",
  "id": 3264099538,
  "lat": 45.9131724,
  "lon": 6.1586712,
  "tags": {
    "bus": "yes",
    "highway": "bus_stop",
    "name": "Barallaz",
    "operator": "Sibra",
    "public_transport": "stop_position"
  }
},
{
  "type": "node",
  "id": 3264099539,
  "lat": 45.9131872,
  "lon": 6.1580264,
  "tags": {
    "bus": "yes",
    "highway": "bus_stop",
    "name": "Barallaz",
    "operator": "Sibra",
    "public_transport": "stop_position"
  }
},
{
  "type": "node",
  "id": 3264099540,
  "lat": 45.9117371,
  "lon": 6.1598716,
  "tags": {
    "bus": "yes",
    "highway": "bus_stop",
    "name": "Pont de Thé",
    "operator": "Sibra",
    "public_transport": "stop_position"
  }
},
{
  "type": "node",
  "id": 3264131927,
  "lat": 45.9168195,
  "lon": 6.1397206,
  "tags": {
    "bus": "yes",
    "highway": "bus_stop",
    "name": "Clarines-Abbaye",
    "operator": "Sibra",
    "public_transport": "stop_position"
  }
},
{
  "type": "node",
  "id": 3264131928,
  "lat": 45.9116090,
  "lon": 6.1473926,
  "tags": {
    "bus": "yes",
    "highway": "bus_stop",
    "name": "Frêtes",
    "operator": "Sibra",
    "public_transport": "stop_position"
  }
},