{
  "version": 0.6,
  "generator": "Overpass API 0.7.57 93a4d346",
  "osm3s": {
    "timestamp_osm_base": "2022-02-13T13:29:38Z",
    "timestamp_areas_base": "2022-02-13T06:31:57Z",
    "copyright": "The data included in this document is from www.openstreetmap.org. The data is made available under ODbL."
  },
  "elements": [

{
  "type": "node",
  "id": 551468182,
  "lat": 49.5045454,
  "lon": 0.1426572,
  "tags": {
    "bench": "yes",
    "check_date:tactile_paving": "2021-07-07",
    "covered": "no",
    "highway": "bus_stop",
    "lit": "yes",
    "name": "Liberté",
    "shelter": "yes",
    "tactile_paving": "no",
    "wheelchair": "yes"
  }
},
{
  "type": "node",
  "id": 551468195,
  "lat": 49.5058992,
  "lon": 0.1434014,
  "tags": {
    "bench": "yes",
    "bus": "yes",
    "departures_board": "timetable",
    "highway": "bus_stop",
    "lit": "yes",
    "name": "Sainte-Cécile",
    "public_transport": "platform",
    "shelter": "yes",
    "tactile_paving": "yes",
    "wheelchair": "yes"
  }
},
{
  "type": "node",
  "id": 551468210,
  "lat": 49.5057676,
  "lon": 0.1430812,
  "tags": {
    "bench": "yes",
    "bus": "yes",
    "departures_board": "timetable",
    "highway": "bus_stop",
    "lit": "yes",
    "name": "Sainte-Cécile",
    "public_transport": "platform",
    "shelter": "yes",
    "tactile_paving": "yes",
    "wheelchair": "yes"
  }
},
{
  "type": "node",
  "id": 551495556,
  "lat": 49.5038313,
  "lon": 0.1256083,
  "tags": {
    "bench": "yes",
    "bin": "yes",
    "covered": "no",
    "highway": "bus_stop",
    "lit": "yes",
    "name": "Tourneville",
    "shelter": "yes",
    "tactile_paving": "no",
    "wheelchair": "yes"
  }
},
{
  "type": "node",
  "id": 551495629,
  "lat": 49.5045055,
  "lon": 0.1479937,
  "tags": {
    "bench": "yes",
    "check_date:tactile_paving": "2021-07-07",
    "covered": "no",
    "highway": "bus_stop",
    "lit": "yes",
    "name": "S. Allende",
    "shelter": "yes",
    "tactile_paving": "no",
    "wheelchair": "yes"
  }
},
{
  "type": "node",
  "id": 551495637,
  "lat": 49.5043162,
  "lon": 0.1346393,
  "tags": {
    "bench": "yes",
    "bin": "yes",
    "bus": "yes",
    "check_date:tactile_paving": "2021-07-07",
    "covered": "no",
    "highway": "bus_stop",
    "lit": "yes",
    "name": "Sainte-Marie",
    "public_transport": "platform",
    "route_ref": "10",
    "shelter": "yes",
    "tactile_paving": "no",
    "wheelchair": "yes"
  }
},
{
  "type": "node",
  "id": 704705453,
  "lat": 49.5269218,
  "lon": 0.1307387,
  "tags": {
    "bench": "no",
    "bus": "yes",
    "departures_board": "timetable",
    "highway": "bus_stop",
    "name": "Févretot",
    "network": "Bus",
    "operator": "Lia",
    "public_transport": "platform",
    "shelter": "no",
    "tactile_paving": "no",
    "wheelchair": "no"
  }
},
{
  "type": "node",
  "id": 920496688,
  "lat": 49.5046754,
  "lon": 0.1424699,
  "tags": {
    "bench": "yes",
    "covered": "no",
    "highway": "bus_stop",
    "name": "Liberté",
    "shelter": "yes",
    "tactile_paving": "no",
    "wheelchair": "yes"
  }
},
{
  "type": "node",
  "id": 925560320,
  "lat": 49.5042023,
  "lon": 0.1575841,
  "tags": {
    "bench": "no",
    "check_date:tactile_paving": "2021-07-09",
    "covered": "no",
    "highway": "bus_stop",
    "lit": "no",
    "name": "Bois Cody",
    "shelter": "no",
    "source": "cadastre-dgi-fr source : Direction Générale des Impôts - Cadastre. Mise à jour : 2010",
    "tactile_paving": "no"
  }
},
{
  "type": "node",
  "id": 925560331,
  "lat": 49.5043601,
  "lon": 0.1576866,
  "tags": {
    "bench": "yes",
    "covered": "no",
    "highway": "bus_stop",
    "lit": "yes",
    "name": "Bois Cody",
    "shelter": "yes",
    "source": "cadastre-dgi-fr source : Direction Générale des Impôts - Cadastre. Mise à jour : 2010",
    "tactile_paving": "no",
    "wheelchair": "yes"
  }
},
{
  "type": "node",
  "id": 1016547192,
  "lat": 49.5058911,
  "lon": 0.0959815,
  "tags": {
    "bench": "yes",
    "bus": "yes",
    "departures_board": "timetable",
    "highway": "bus_stop",
    "name": "Jardins suspendu",
    "public_transport": "platform",
    "shelter": "yes",
    "tactile_paving": "yes",
    "wheelchair": "yes"
  }
},
{
  "type": "node",
  "id": 1016547195,
  "lat": 49.5059046,
  "lon": 0.0958354,
  "tags": {
    "bench": "yes",
    "bus": "yes",
    "departures_board": "timetable",
    "highway": "bus_stop",
    "name": "Jardins suspendu",
    "public_transport": "platform",
    "shelter": "yes",
    "tactile_paving": "yes",
    "wheelchair": "yes"
  }
},
{
  "type": "node",
  "id": 1020120300,
  "lat": 49.5017369,
  "lon": 0.0870874,
  "tags": {
    "bench": "yes",
    "bus": "yes",
    "departures_board": "timetable",
    "highway": "bus_stop",
    "name": "Albert 1er",
    "public_transport": "platform",
    "shelter": "yes",
    "tactile_paving": "yes",
    "wheelchair": "yes"
  }
},
{
  "type": "node",
  "id": 1156351359,
  "lat": 49.5054924,
  "lon": 0.1694781,
  "tags": {
    "bench": "no",
    "bus": "yes",
    "covered": "no",
    "departures_board": "timetable",
    "highway": "bus_stop",
    "lit": "no",
    "name": "E. Quinet",
    "public_transport": "platform",
    "shelter": "no",
    "tactile_paving": "no",
    "wheelchair": "no"
  }
},
{
  "type": "node",
  "id": 1156351366,
  "lat": 49.5056615,
  "lon": 0.1698539,
  "tags": {
    "bench": "no",
    "bus": "yes",
    "covered": "no",
    "departures_board": "timetable",
    "highway": "bus_stop",
    "lit": "no",
    "name": "E. Quinet",
    "public_transport": "platform",
    "shelter": "no",
    "tactile_paving": "no",
    "wheelchair": "no"
  }
},
{
  "type": "node",
  "id": 1230633602,
  "lat": 49.5175890,
  "lon": 0.1231268,
  "tags": {
    "bench": "no",
    "bus": "yes",
    "departures_board": "timetable",
    "highway": "bus_stop",
    "lit": "no",
    "name": "Hétraie",
    "public_transport": "platform",
    "shelter": "no",
    "tactile_paving": "no",
    "wheelchair": "no"
  }
},
{
  "type": "node",
  "id": 1242180660,
  "lat": 49.5162263,
  "lon": 0.1291789,
  "tags": {
    "bench": "yes",
    "bus": "yes",
    "departures_board": "timetable",
    "highway": "bus_stop",
    "lit": "yes",
    "name": "Montgeon",
    "public_transport": "platform",
    "shelter": "yes",
    "tactile_paving": "no",
    "wheelchair": "no"
  }
},
{
  "type": "node",
  "id": 1279413674,
  "lat": 49.5058046,
  "lon": 0.1145230,
  "tags": {
    "bench": "yes",
    "bus": "yes",
    "departures_board": "timetable",
    "highway": "bus_stop",
    "lit": "yes",
    "name": "R. Salengro",
    "public_transport": "platform",
    "shelter": "yes",
    "tactile_paving": "yes",
    "wheelchair": "yes"
  }
},
{
  "type": "node",
  "id": 1279413678,
  "lat": 49.5040425,
  "lon": 0.1296128,
  "tags": {
    "bench": "no",
    "bin": "no",
    "bus": "yes",
    "check_date:bench": "2021-10-02",
    "covered": "no",
    "highway": "bus_stop",
    "name": "Mac Orlan",
    "public_transport": "platform",
    "shelter": "no",
    "tactile_paving": "no",
    "wheelchair": "no"
  }
},
{
  "type": "node",
  "id": 1293930300,
  "lat": 49.5151369,
  "lon": 0.1141894,
  "tags": {
    "bench": "yes",
    "bus": "yes",
    "departures_board": "timetable",
    "highway": "bus_stop",
    "lit": "yes",
    "name": "P. Véronèse",
    "public_transport": "platform",
    "shelter": "yes",
    "tactile_paving": "no",
    "wheelchair": "no"
  }
},
{
  "type": "node",
  "id": 1629511232,
  "lat": 49.4839503,
  "lon": 0.1308896,
  "tags": {
    "bench": "no",
    "bus": "yes",
    "covered": "no",
    "departures_board": "timetable",
    "highway": "bus_stop",
    "name": "Grands Bassins",
    "public_transport": "platform",
    "shelter": "no",
    "source": "cadastre-dgi-fr source : Direction Générale des Impôts - Cadastre. Mise à jour : 2012",
    "tactile_paving": "yes"
  }
},
{
  "type": "node",
  "id": 1629511244,
  "lat": 49.4840505,
  "lon": 0.1304107,
  "tags": {
    "bench": "yes",
    "bus": "yes",
    "covered": "no",
    "highway": "bus_stop",
    "name": "L. Carlier",
    "public_transport": "platform",
    "shelter": "yes",
    "source": "cadastre-dgi-fr source : Direction Générale des Impôts - Cadastre. Mise à jour : 2012",
    "tactile_paving": "yes"
  }
},
{
  "type": "node",
  "id": 1691945544,
  "lat": 49.4913177,
  "lon": 0.1319852,
  "tags": {
    "bench": "yes",
    "bus": "yes",
    "covered": "no",
    "highway": "bus_stop",
    "name": "Docks Vauban",
    "public_transport": "platform",
    "shelter": "yes",
    "tactile_paving": "yes",
    "wheelchair": "yes"
  }
},
{
  "type": "node",
  "id": 1691945554,
  "lat": 49.4913865,
  "lon": 0.1316881,
  "tags": {
    "bench": "yes",
    "bus": "yes",
    "covered": "no",
    "highway": "bus_stop",
    "name": "Docks Vauban",
    "public_transport": "platform",
    "shelter": "yes",
    "tactile_paving": "yes",
    "wheelchair": "yes"
  }
},
{
  "type": "node",
  "id": 1691945573,
  "lat": 49.4871947,
  "lon": 0.1260665,
  "tags": {
    "bench": "yes",
    "bus": "yes",
    "covered": "no",
    "highway": "bus_stop",
    "name": "Poste de Secours Adpse",
    "public_transport": "platform",
    "shelter": "yes",
    "tactile_paving": "yes",
    "wheelchair": "yes"
  }
},
{
  "type": "node",
  "id": 1817606942,
  "lat": 49.4955865,
  "lon": 0.0946541,
  "tags": {
    "bench": "yes",
    "bus": "yes",
    "departures_board": "timetable",
    "highway": "bus_stop",
    "name": "S. de Champlain",
    "public_transport": "platform",
    "shelter": "yes",
    "tactile_paving": "yes",
    "wheelchair": "yes"
  }
},
{
  "type": "node",
  "id": 1867517608,
  "lat": 49.4886246,
  "lon": 0.1111412,
  "tags": {
    "bus": "yes",
    "highway": "bus_stop",
    "name": "Notre-Dame",
    "public_transport": "platform"
  }
},
{
  "type": "node",
  "id": 1870089668,
  "lat": 49.5126221,
  "lon": 0.0896471,
  "tags": {
    "bench": "yes",
    "bus": "yes",
    "departures_board": "timetable",
    "highway": "bus_stop",
    "lit": "yes",
    "name": "J. Bourgogne",
    "public_transport": "platform",
    "shelter": "yes",
    "tactile_paving": "yes",
    "wheelchair": "yes"
  }
},
{
  "type": "node",
  "id": 1870090850,
  "lat": 49.5147645,
  "lon": 0.0910941,
  "tags": {
    "bench": "yes",
    "bus": "yes",
    "departures_board": "timetable",
    "highway": "bus_stop",
    "lit": "yes",
    "name": "T. Gautier",
    "public_transport": "platform",
    "shelter": "yes",
    "tactile_paving": "yes",
    "wheelchair": "yes"
  }
},
{
  "type": "node",
  "id": 1870091921,
  "lat": 49.5161941,
  "lon": 0.0921889,
  "tags": {
    "bench": "yes",
    "bus": "yes",
    "departures_board": "timetable",
    "highway": "bus_stop",
    "lit": "yes",
    "name": "C. Marot",
    "public_transport": "platform",
    "shelter": "yes",
    "tactile_paving": "yes",
    "wheelchair": "yes"
  }
},
{
  "type": "node",
  "id": 2074640657,
  "lat": 49.5291337,
  "lon": 0.1033780,
  "tags": {
    "bench": "yes",
    "bus": "yes",
    "departures_board": "timetable",
    "highway": "bus_stop",
    "name": "Le Havre : Grand hameau",
    "public_transport": "platform",
    "shelter": "no",
    "tactile_paving": "yes",
    "wheelchair": "no"
  }
},
{
  "type": "node",
  "id": 2075837681,
  "lat": 49.5216390,
  "lon": 0.0739646,
  "tags": {
    "bench": "yes",
    "bus": "yes",
    "departures_board": "timetable",
    "highway": "bus_stop",
    "lit": "yes",
    "name": "Dollemard",
    "public_transport": "platform",
    "shelter": "yes",
    "tactile_paving": "yes"
  }
},
{
  "type": "node",
  "id": 2076239869,
  "lat": 49.5115765,
  "lon": 0.0904616,
  "tags": {
    "bench": "no",
    "bus": "yes",
    "departures_board": "timetable",
    "highway": "bus_stop",
    "name": "Dr Maire",
    "public_transport": "platform",
    "shelter": "no",
    "tactile_paving": "yes",
    "wheelchair": "yes"
  }
},
{
  "type": "node",
  "id": 2113408881,
  "lat": 49.4889808,
  "lon": 0.1250059,
  "tags": {
    "bench": "yes",
    "bin": "no",
    "bus": "yes",
    "covered": "no",
    "highway": "bus_stop",
    "lit": "no",
    "name": "P. Vatine",
    "public_transport": "platform",
    "shelter": "yes",
    "tactile_paving": "yes",
    "wheelchair": "yes"
  }
},
{
  "type": "node",
  "id": 2119986166,
  "lat": 49.5010205,
  "lon": 0.1801705,
  "tags": {
    "bench": "yes",
    "bus": "yes",
    "check_date:tactile_paving": "2021-06-30",
    "covered": "no",
    "highway": "bus_stop",
    "name": "Soquence",
    "public_transport": "platform",
    "shelter": "yes",
    "tactile_paving": "no",
    "wheelchair": "yes"
  }
},
{
  "type": "node",
  "id": 2138728691,
  "lat": 49.5195200,
  "lon": 0.1095440,
  "tags": {
    "bus": "yes",
    "highway": "bus_stop",
    "public_transport": "platform"
  }
},
{
  "type": "node",
  "id": 2468577738,
  "lat": 49.5044497,
  "lon": 0.1537406,
  "tags": {
    "bench": "yes",
    "covered": "no",
    "highway": "bus_stop",
    "name": "Tour Robinson",
    "shelter": "yes",
    "source": "Bing",
    "tactile_paving": "no",
    "wheelchair": "yes"
  }
},
{
  "type": "node",
  "id": 2468577778,
  "lat": 49.5043344,
  "lon": 0.1537022,
  "tags": {
    "bench": "yes",
    "covered": "no",
    "highway": "bus_stop",
    "name": "Tour Robinson",
    "shelter": "yes",
    "source": "Bing",
    "tactile_paving": "no"
  }
},
{
  "type": "node",
  "id": 2690920472,
  "lat": 49.5169227,
  "lon": 0.1005564,
  "tags": {
    "bench": "yes",
    "bus": "yes",
    "highway": "bus_stop",
    "lit": "yes",
    "name": "Place Faride",
    "public_transport": "platform",
    "shelter": "yes",
    "tactile_paving": "no"
  }
},
{
  "type": "node",
  "id": 4052509596,
  "lat": 49.4876351,
  "lon": 0.1122439,
  "tags": {
    "bench": "no",
    "bus": "yes",
    "covered": "no",
    "departures_board": "timetable",
    "highway": "bus_stop",
    "name": "Saint François",
    "public_transport": "platform",
    "shelter": "no",
    "tactile_paving": "yes",
    "wheelchair": "yes"
  }
},
{
  "type": "node",
  "id": 4052509597,
  "lat": 49.4875368,
  "lon": 0.1097554,
  "tags": {
    "bench": "no",
    "bus": "yes",
    "covered": "no",
    "departures_board": "timetable",
    "highway": "bus_stop",
    "name": "Videcoq",
    "public_transport": "platform",
    "shelter": "no",
    "tactile_paving": "no",
    "wheelchair": "no"
  }
},
{
  "type": "node",
  "id": 4052509598,
  "lat": 49.4875383,
  "lon": 0.1095781,
  "tags": {
    "bench": "no",
    "bus": "yes",
    "covered": "no",
    "departures_board": "timetable",
    "highway": "bus_stop",
    "name": "Videcoq",
    "public_transport": "platform",
    "shelter": "no",
    "tactile_paving": "yes",
    "wheelchair": "yes"
  }
},
{
  "type": "node",
  "id": 4052509599,
  "lat": 49.4873425,
  "lon": 0.1076723,
  "tags": {
    "bench": "no",
    "bus": "yes",
    "covered": "no",
    "departures_board": "timetable",
    "highway": "bus_stop",
    "name": "Cathédrale",
    "public_transport": "platform",
    "tactile_paving": "yes",
    "wheelchair": "yes"
  }
},
{
  "type": "node",
  "id": 4052509600,
  "lat": 49.4872720,
  "lon": 0.1081657,
  "tags": {
    "bench": "no",
    "bus": "yes",
    "covered": "yes",
    "departures_board": "timetable",
    "highway": "bus_stop",
    "name": "Cathédrale",
    "public_transport": "platform",
    "shelter": "no",
    "tactile_paving": "yes",
    "wheelchair": "yes"
  }
},
{
  "type": "node",
  "id": 4061268929,
  "lat": 49.4867831,
  "lon": 0.1024684,
  "tags": {
    "bench": "no",
    "covered": "no",
    "highway": "bus_stop",
    "network": "LiA",
    "operator": "CODAH",
    "public_transport": "platform",
    "shelter": "no"
  }
},
{
  "type": "node",
  "id": 4551581641,
  "lat": 49.5131599,
  "lon": 0.1298845,
  "tags": {
    "bench": "no",
    "bus": "yes",
    "check_date:tactile_paving": "2020-11-12",
    "covered": "no",
    "departures_board": "timetable",
    "highway": "bus_stop",
    "lit": "no",
    "name": "A. Delaune",
    "public_transport": "platform",
    "shelter": "no",
    "tactile_paving": "no",
    "wheelchair": "no"
  }
},
{
  "type": "node",
  "id": 4551581642,
  "lat": 49.5142338,
  "lon": 0.1299053,
  "tags": {
    "bench": "yes",
    "bus": "yes",
    "covered": "no",
    "departures_board": "timetable",
    "highway": "bus_stop",
    "lit": "yes",
    "name": "A. Delaune",
    "public_transport": "platform",
    "shelter": "yes",
    "tactile_paving": "no",
    "wheelchair": "no"
  }
},
{
  "type": "node",
  "id": 4551591663,
  "lat": 49.5116904,
  "lon": 0.1288857,
  "tags": {
    "bench": "no",
    "bus": "yes",
    "covered": "no",
    "departures_board": "timetable",
    "highway": "bus_stop",
    "lit": "no",
    "name": "Mare au Clerc",
    "public_transport": "platform",
    "shelter": "no",
    "tactile_paving": "no",
    "wheelchair": "yes"
  }
},
{
  "type": "node",
  "id": 4552502993,
  "lat": 49.4888335,
  "lon": 0.1249660,
  "tags": {
    "bench": "no",
    "bin": "no",
    "bus": "yes",
    "check_date:bench": "2021-05-22",
    "covered": "no",
    "highway": "bus_stop",
    "lit": "no",
    "name": "P. Vatine",
    "public_transport": "platform",
    "shelter": "no",
    "tactile_paving": "yes",
    "wheelchair": "yes"
  }
},
{
  "type": "node",
  "id": 4552508789,
  "lat": 49.4871295,
  "lon": 0.1259243,
  "tags": {
    "bench": "no",
    "bus": "yes",
    "covered": "no",
    "highway": "bus_stop",
    "name": "Bains des Docks",
    "public_transport": "platform",
    "shelter": "no",
    "tactile_paving": "no",
    "wheelchair": "yes"
  }
},
{
  "type": "node",
  "id": 4552527685,
  "lat": 49.4843132,
  "lon": 0.1274108,
  "tags": {
    "bench": "no",
    "covered": "no",
    "highway": "bus_stop",
    "name": "Bellot",
    "shelter": "no",
    "tactile_paving": "no",
    "wheelchair": "yes"
  }
},
{
  "type": "node",
  "id": 4552527686,
  "lat": 49.4841368,
  "lon": 0.1279516,
  "tags": {
    "bench": "no",
    "covered": "no",
    "highway": "bus_stop",
    "name": "Bellot",
    "shelter": "no",
    "tactile_paving": "no",
    "wheelchair": "yes"
  }
},
{
  "type": "node",
  "id": 4552539472,
  "lat": 49.4851356,
  "lon": 0.1355778,
  "tags": {
    "bench": "yes",
    "bus": "yes",
    "covered": "no",
    "departures_board": "timetable",
    "highway": "bus_stop",
    "name": "Saint-Nicolas",
    "public_transport": "platform",
    "shelter": "yes",
    "tactile_paving": "yes",
    "wheelchair": "yes"
  }
},
{
  "type": "node",
  "id": 4552551148,
  "lat": 49.4830992,
  "lon": 0.1388460,
  "tags": {
    "bench": "no",
    "covered": "no",
    "highway": "bus_stop",
    "name": "L. Nolent",
    "shelter": "no",
    "tactile_paving": "yes",
    "wheelchair": "yes"
  }
},
{
  "type": "node",
  "id": 4552551149,
  "lat": 49.4834183,
  "lon": 0.1389031,
  "tags": {
    "bench": "no",
    "bus": "yes",
    "covered": "no",
    "highway": "bus_stop",
    "name": "L. Nolent",
    "public_transport": "platform",
    "shelter": "no",
    "tactile_paving": "no",
    "wheelchair": "yes"
  }
},
{
  "type": "node",
  "id": 4554192547,
  "lat": 49.4785808,
  "lon": 0.1415083,
  "tags": {
    "bench": "no",
    "covered": "no",
    "highway": "bus_stop",
    "name": "C. Desmoulins",
    "shelter": "no",
    "tactile_paving": "no",
    "wheelchair": "yes"
  }
},
{
  "type": "node",
  "id": 4554192548,
  "lat": 49.4785959,
  "lon": 0.1412356,
  "tags": {
    "bench": "no",
    "covered": "no",
    "highway": "bus_stop",
    "name": "C. Desmoulins",
    "shelter": "no",
    "tactile_paving": "no"
  }
},
{
  "type": "node",
  "id": 4554202096,
  "lat": 49.4783461,
  "lon": 0.1497517,
  "tags": {
    "bench": "no",
    "covered": "no",
    "highway": "bus_stop",
    "name": "G. Cuvier",
    "shelter": "no",
    "tactile_paving": "no",
    "wheelchair": "no"
  }
},
{
  "type": "node",
  "id": 4554202097,
  "lat": 49.4784698,
  "lon": 0.1495961,
  "tags": {
    "bench": "no",
    "covered": "no",
    "highway": "bus_stop",
    "name": "G. Cuvier",
    "shelter": "no",
    "tactile_paving": "no",
    "wheelchair": "no"
  }
},
{
  "type": "node",
  "id": 4554205033,
  "lat": 49.4800960,
  "lon": 0.1632029,
  "tags": {
    "bench": "yes",
    "covered": "no",
    "highway": "bus_stop",
    "name": "N. -D. des Neiges",
    "shelter": "yes",
    "tactile_paving": "no",
    "wheelchair": "yes"
  }
},
{
  "type": "node",
  "id": 4554208277,
  "lat": 49.4789380,
  "lon": 0.1564126,
  "tags": {
    "bench": "yes",
    "covered": "no",
    "highway": "bus_stop",
    "name": "Les Neiges",
    "shelter": "yes",
    "tactile_paving": "no",
    "wheelchair": "yes"
  }
},
{
  "type": "node",
  "id": 4554209590,
  "lat": 49.4793015,
  "lon": 0.1552919,
  "tags": {
    "bench": "no",
    "covered": "no",
    "highway": "bus_stop",
    "name": "Les Neiges",
    "shelter": "no",
    "tactile_paving": "no",
    "wheelchair": "yes"
  }
},
{
  "type": "node",
  "id": 4554212191,
  "lat": 49.4789404,
  "lon": 0.1600308,
  "tags": {
    "bench": "no",
    "covered": "no",
    "highway": "bus_stop",
    "name": "L. Lévy",
    "shelter": "no",
    "tactile_paving": "no",
    "wheelchair": "yes"
  }
},
{
  "type": "node",
  "id": 4554212192,
  "lat": 49.4790226,
  "lon": 0.1596181,
  "tags": {
    "bench": "no",
    "covered": "no",
    "highway": "bus_stop",
    "name": "L. Lévy",
    "shelter": "no",
    "tactile_paving": "no",
    "wheelchair": "yes"
  }
},
{
  "type": "node",
  "id": 4554219044,
  "lat": 49.4813471,
  "lon": 0.1624454,
  "tags": {
    "bench": "no",
    "covered": "no",
    "highway": "bus_stop",
    "name": "Chateaubriand",
    "shelter": "no",
    "tactile_paving": "no",
    "wheelchair": "yes"
  }
},
{
  "type": "node",
  "id": 4554219045,
  "lat": 49.4817586,
  "lon": 0.1625561,
  "tags": {
    "bench": "yes",
    "covered": "no",
    "highway": "bus_stop",
    "name": "Chateaubriand",
    "shelter": "yes",
    "tactile_paving": "yes",
    "wheelchair": "yes"
  }
},
{
  "type": "node",
  "id": 4554223303,
  "lat": 49.4838203,
  "lon": 0.1645195,
  "tags": {
    "bench": "no",
    "covered": "no",
    "highway": "bus_stop",
    "name": "16e Port",
    "shelter": "no",
    "tactile_paving": "no",
    "wheelchair": "yes"
  }
},
{
  "type": "node",
  "id": 4554223304,
  "lat": 49.4838736,
  "lon": 0.1648013,
  "tags": {
    "bench": "no",
    "covered": "no",
    "highway": "bus_stop",
    "name": "16e Port",
    "shelter": "no",
    "tactile_paving": "no",
    "wheelchair": "yes"
  }
},
{
  "type": "node",
  "id": 4554224148,
  "lat": 49.4869815,
  "lon": 0.1630933,
  "tags": {
    "bench": "no",
    "covered": "no",
    "highway": "bus_stop",
    "name": "Pont VI",
    "shelter": "no",
    "tactile_paving": "no",
    "wheelchair": "no"
  }
},
{
  "type": "node",
  "id": 4554224149,
  "lat": 49.4868767,
  "lon": 0.1632854,
  "tags": {
    "bench": "no",
    "covered": "no",
    "highway": "bus_stop",
    "name": "Pont VI",
    "shelter": "no",
    "tactile_paving": "no",
    "wheelchair": "yes"
  }
},
{
  "type": "node",
  "id": 4554225247,
  "lat": 49.4898716,
  "lon": 0.1565178,
  "tags": {
    "bench": "yes",
    "bus": "yes",
    "covered": "no",
    "departures_board": "timetable",
    "highway": "bus_stop",
    "name": "A. Agasse",
    "public_transport": "platform",
    "shelter": "yes",
    "tactile_paving": "yes",
    "wheelchair": "yes"
  }
},
{
  "type": "node",
  "id": 4554225248,
  "lat": 49.4901198,
  "lon": 0.1581258,
  "tags": {
    "bench": "no",
    "bus": "yes",
    "covered": "no",
    "departures_board": "yes",
    "highway": "bus_stop",
    "name": "R. Viviani",
    "public_transport": "platform",
    "shelter": "no",
    "tactile_paving": "no",
    "wheelchair": "no"
  }
},
{
  "type": "node",
  "id": 4554228255,
  "lat": 49.4893668,
  "lon": 0.1546437,
  "tags": {
    "bench": "no",
    "bus": "yes",
    "covered": "no",
    "departures_board": "timetable",
    "highway": "bus_stop",
    "name": "A. Agasse",
    "public_transport": "platform",
    "shelter": "no",
    "tactile_paving": "yes",
    "wheelchair": "yes"
  }
},
{
  "type": "node",
  "id": 4554229933,
  "lat": 49.4887001,
  "lon": 0.1513039,
  "tags": {
    "bench": "yes",
    "bus": "yes",
    "covered": "no",
    "departures_board": "timetable",
    "highway": "bus_stop",
    "name": "Desmarais",
    "public_transport": "platform",
    "shelter": "yes",
    "tactile_paving": "no",
    "wheelchair": "no"
  }
},
{
  "type": "node",
  "id": 4554229934,
  "lat": 49.4886165,
  "lon": 0.1512195,
  "tags": {
    "bench": "yes",
    "bus": "yes",
    "covered": "no",
    "departures_board": "yes",
    "highway": "bus_stop",
    "name": "Desmarais",
    "public_transport": "platform",
    "shelter": "no",
    "tactile_paving": "yes",
    "wheelchair": "yes"
  }
},
{
  "type": "node",
  "id": 4554243788,
  "lat": 49.4907216,
  "lon": 0.1491710,
  "tags": {
    "bench": "no",
    "bus": "yes",
    "covered": "no",
    "departures_board": "timetable",
    "highway": "bus_stop",
    "name": "L. Richard",
    "public_transport": "platform",
    "shelter": "no",
    "tactile_paving": "no",
    "wheelchair": "no"
  }
},
{
  "type": "node",
  "id": 4554246716,
  "lat": 49.4931472,
  "lon": 0.1502553,
  "tags": {
    "bench": "yes",
    "bus": "yes",
    "covered": "no",
    "departures_board": "timetable",
    "highway": "bus_stop",
    "name": "F. de Grâce",
    "public_transport": "platform",
    "shelter": "yes",
    "tactile_paving": "yes",
    "wheelchair": "yes"
  }
},
{
  "type": "node",
  "id": 4554246717,
  "lat": 49.4928984,
  "lon": 0.1497404,
  "tags": {
    "bench": "yes",
    "bus": "yes",
    "covered": "no",
    "departures_board": "timetable",
    "highway": "bus_stop",
    "name": "F. de Grâce",
    "public_transport": "platform",
    "shelter": "yes",
    "tactile_paving": "yes",
    "wheelchair": "yes"
  }
},
{
  "type": "node",
  "id": 4554248809,
  "lat": 49.4942545,
  "lon": 0.1535157,
  "tags": {
    "bench": "yes",
    "bin": "yes",
    "bus": "yes",
    "covered": "no",
    "departures_board": "timetable",
    "highway": "bus_stop",
    "name": "Vallée Béreult",
    "public_transport": "platform",
    "shelter": "yes",
    "tactile_paving": "no",
    "wheelchair": "no"
  }
},
{
  "type": "node",
  "id": 4554248811,
  "lat": 49.4942463,
  "lon": 0.1532579,
  "tags": {
    "bench": "yes",
    "bin": "no",
    "bus": "yes",
    "covered": "no",
    "departures_board": "timetable",
    "highway": "bus_stop",
    "name": "Vallée Béreult",
    "public_transport": "platform",
    "shelter": "yes",
    "tactile_paving": "yes",
    "wheelchair": "yes"
  }
},
{
  "type": "node",
  "id": 4554250839,
  "lat": 49.4961753,
  "lon": 0.1569920,
  "tags": {
    "bench": "yes",
    "bus": "yes",
    "covered": "no",
    "departures_board": "timetable",
    "highway": "bus_stop",
    "name": "J. Delamare",
    "public_transport": "platform",
    "shelter": "yes",
    "tactile_paving": "yes",
    "wheelchair": "yes"
  }
},
{
  "type": "node",
  "id": 4554250840,
  "lat": 49.4963582,
  "lon": 0.1574348,
  "tags": {
    "bench": "yes",
    "bus": "yes",
    "covered": "no",
    "departures_board": "timetable",
    "highway": "bus_stop",
    "name": "J. Delamare",
    "public_transport": "platform",
    "shelter": "yes",
    "tactile_paving": "yes",
    "wheelchair": "yes"
  }
},
{
  "type": "node",
  "id": 4554253516,
  "lat": 49.4981515,
  "lon": 0.1609858,
  "tags": {
    "bench": "yes",
    "bus": "yes",
    "covered": "no",
    "departures_board": "timetable",
    "highway": "bus_stop",
    "name": "A. Blanqui",
    "public_transport": "platform",
    "shelter": "yes",
    "tactile_paving": "yes",
    "wheelchair": "yes"
  }
},
{
  "type": "node",
  "id": 4554253517,
  "lat": 49.4980744,
  "lon": 0.1612004,
  "tags": {
    "bench": "no",
    "bus": "yes",
    "covered": "no",
    "departures_board": "timetable",
    "highway": "bus_stop",
    "name": "A. Blanqui",
    "public_transport": "platform",
    "shelter": "no",
    "tactile_paving": "yes",
    "wheelchair": "yes"
  }
},
{
  "type": "node",
  "id": 4554256026,
  "lat": 49.5005634,
  "lon": 0.1623653,
  "tags": {
    "bench": "yes",
    "bus": "yes",
    "covered": "no",
    "departures_board": "timetable",
    "highway": "bus_stop",
    "name": "Graville",
    "public_transport": "platform",
    "shelter": "yes",
    "tactile_paving": "yes",
    "wheelchair": "yes"
  }
},
{
  "type": "node",
  "id": 4554256027,
  "lat": 49.5010060,
  "lon": 0.1622925,
  "tags": {
    "bench": "yes",
    "bus": "yes",
    "covered": "no",
    "departures_board": "timetable",
    "highway": "bus_stop",
    "name": "Graville",
    "public_transport": "platform",
    "shelter": "yes",
    "tactile_paving": "yes",
    "wheelchair": "yes"
  }
},
{
  "type": "node",
  "id": 4554256028,
  "lat": 49.5011563,
  "lon": 0.1625476,
  "tags": {
    "bench": "yes",
    "bus": "yes",
    "covered": "no",
    "departures_board": "timetable",
    "highway": "bus_stop",
    "name": "Graville A",
    "public_transport": "platform",
    "shelter": "yes",
    "tactile_paving": "yes",
    "wheelchair": "yes"
  }
},
{
  "type": "node",
  "id": 4554260064,
  "lat": 49.5022961,
  "lon": 0.1623983,
  "tags": {
    "bench": "yes",
    "bin": "yes",
    "bus": "yes",
    "covered": "no",
    "departures_board": "realtime",
    "highway": "bus_stop",
    "name": "Pl. Graville",
    "public_transport": "platform",
    "shelter": "yes",
    "tactile_paving": "yes",
    "wheelchair": "yes"
  }
},
{
  "type": "node",
  "id": 4554260065,
  "lat": 49.5024118,
  "lon": 0.1631059,
  "tags": {
    "bench": "yes",
    "bin": "yes",
    "bus": "yes",
    "covered": "no",
    "departures_board": "realtime",
    "highway": "bus_stop",
    "name": "Pl. Graville",
    "public_transport": "platform",
    "shelter": "yes",
    "tactile_paving": "yes",
    "wheelchair": "yes"
  }
},
{
  "type": "node",
  "id": 4554261739,
  "lat": 49.5018296,
  "lon": 0.1662885,
  "tags": {
    "bench": "yes",
    "covered": "no",
    "highway": "bus_stop",
    "name": "L. Lagrange",
    "shelter": "yes",
    "tactile_paving": "yes",
    "wheelchair": "yes"
  }
},
{
  "type": "node",
  "id": 4554261740,
  "lat": 49.5017630,
  "lon": 0.1658342,
  "tags": {
    "bench": "no",
    "covered": "no",
    "highway": "bus_stop",
    "name": "L. Lagrange",
    "shelter": "no",
    "tactile_paving": "no",
    "wheelchair": "no"
  }
},
{
  "type": "node",
  "id": 4554269901,
  "lat": 49.5012864,
  "lon": 0.1722257,
  "tags": {
    "bench": "no",
    "check_date:tactile_paving": "2021-06-30",
    "covered": "no",
    "highway": "bus_stop",
    "lit": "no",
    "name": "J. Deschaseaux",
    "shelter": "no",
    "tactile_paving": "no",
    "wheelchair": "yes"
  }
},
{
  "type": "node",
  "id": 4554269902,
  "lat": 49.5012505,
  "lon": 0.1730041,
  "tags": {
    "bench": "no",
    "check_date:tactile_paving": "2021-06-30",
    "covered": "no",
    "highway": "bus_stop",
    "lit": "no",
    "name": "J. Deschaseaux",
    "shelter": "no",
    "tactile_paving": "no",
    "wheelchair": "yes"
  }
},
{
  "type": "node",
  "id": 4554273180,
  "lat": 49.5014625,
  "lon": 0.1753286,
  "tags": {
    "bench": "no",
    "bus": "yes",
    "covered": "no",
    "highway": "bus_stop",
    "name": "Chapelle",
    "public_transport": "platform",
    "shelter": "no",
    "tactile_paving": "no",
    "wheelchair": "no"
  }
},
{
  "type": "node",
  "id": 4554273182,
  "lat": 49.5013287,
  "lon": 0.1759612,
  "tags": {
    "bench": "yes",
    "check_date:tactile_paving": "2021-06-30",
    "covered": "no",
    "highway": "bus_stop",
    "lit": "no",
    "name": "Chapelle",
    "shelter": "yes",
    "tactile_paving": "no",
    "wheelchair": "yes"
  }
},
{
  "type": "node",
  "id": 4556251310,
  "lat": 49.5038075,
  "lon": 0.1270574,
  "tags": {
    "bench": "yes",
    "bin": "yes",
    "bus": "yes",
    "check_date:bench": "2021-10-02",
    "covered": "no",
    "highway": "bus_stop",
    "name": "Tourneville",
    "public_transport": "platform",
    "shelter": "yes",
    "tactile_paving": "no",
    "wheelchair": "yes"
  }
},
{
  "type": "node",
  "id": 4556254750,
  "lat": 49.5042118,
  "lon": 0.1298637,
  "tags": {
    "bench": "yes",
    "bus": "yes",
    "covered": "no",
    "highway": "bus_stop",
    "name": "Mac Orlan",
    "public_transport": "platform",
    "shelter": "no",
    "tactile_paving": "yes",
    "wheelchair": "no"
  }
},
{
  "type": "node",
  "id": 4556258201,
  "lat": 49.5044381,
  "lon": 0.1355666,
  "tags": {
    "bench": "yes",
    "bin": "yes",
    "bus": "yes",
    "covered": "no",
    "highway": "bus_stop",
    "lit": "yes",
    "name": "Sainte-Marie",
    "public_transport": "platform",
    "route_ref": "10",
    "shelter": "yes",
    "tactile_paving": "no",
    "wheelchair": "yes"
  }
},
{
  "type": "node",
  "id": 4556264260,
  "lat": 49.5043537,
  "lon": 0.1478506,
  "tags": {
    "bench": "yes",
    "covered": "no",
    "highway": "bus_stop",
    "name": "S. Allende",
    "shelter": "yes",
    "tactile_paving": "no",
    "wheelchair": "yes"
  }
},
{
  "type": "node",
  "id": 4556297578,
  "lat": 49.5036180,
  "lon": 0.1602717,
  "tags": {
    "bench": "no",
    "bus": "yes",
    "covered": "no",
    "departures_board": "timetable",
    "highway": "bus_stop",
    "name": "Bois Cody",
    "public_transport": "platform",
    "shelter": "no",
    "tactile_paving": "no",
    "wheelchair": "no"
  }
},
{
  "type": "node",
  "id": 4556297579,
  "lat": 49.5035987,
  "lon": 0.1609406,
  "tags": {
    "bench": "no",
    "bus": "yes",
    "covered": "no",
    "departures_board": "timetable",
    "highway": "bus_stop",
    "name": "Bois Cody",
    "public_transport": "platform",
    "shelter": "no",
    "tactile_paving": "no",
    "wheelchair": "no"
  }
},
{
  "type": "node",
  "id": 4556303494,
  "lat": 49.5046359,
  "lon": 0.1644363,
  "tags": {
    "bench": "yes",
    "covered": "no",
    "highway": "bus_stop",
    "lit": "yes",
    "name": "Sainte-Honorine",
    "shelter": "yes",
    "tactile_paving": "no",
    "wheelchair": "yes"
  }
},
{
  "type": "node",
  "id": 4556303496,
  "lat": 49.5046466,
  "lon": 0.1654147,
  "tags": {
    "bench": "no",
    "check_date:tactile_paving": "2021-07-09",
    "covered": "no",
    "highway": "bus_stop",
    "lit": "no",
    "name": "Sainte-Honorine",
    "shelter": "no",
    "tactile_paving": "no",
    "wheelchair": "yes"
  }
},
{
  "type": "node",
  "id": 4556314471,
  "lat": 49.5043668,
  "lon": 0.1652961,
  "tags": {
    "bench": "no",
    "bus": "yes",
    "covered": "no",
    "departures_board": "timetable",
    "highway": "bus_stop",
    "name": "Abbaye de Graville",
    "public_transport": "platform",
    "shelter": "no",
    "tactile_paving": "no",
    "wheelchair": "no"
  }
},
{
  "type": "node",
  "id": 4556320436,
  "lat": 49.5068055,
  "lon": 0.1730582,
  "tags": {
    "bench": "no",
    "bus": "yes",
    "covered": "no",
    "departures_board": "timetable",
    "highway": "bus_stop",
    "lit": "no",
    "name": "Lt Clérivet",
    "public_transport": "platform",
    "shelter": "no",
    "tactile_paving": "yes",
    "wheelchair": "yes"
  }
},
{
  "type": "node",
  "id": 4556320437,
  "lat": 49.5068125,
  "lon": 0.1734663,
  "tags": {
    "bench": "no",
    "bus": "yes",
    "covered": "no",
    "departures_board": "timetable",
    "highway": "bus_stop",
    "lit": "no",
    "name": "Lt Clérivet",
    "public_transport": "platform",
    "shelter": "no",
    "tactile_paving": "yes",
    "wheelchair": "yes"
  }
},
{
  "type": "node",
  "id": 4556323160,
  "lat": 49.5070080,
  "lon": 0.1775105,
  "tags": {
    "bench": "yes",
    "check_date:tactile_paving": "2021-07-02",
    "covered": "no",
    "highway": "bus_stop",
    "lit": "yes",
    "name": "Arromanches",
    "shelter": "yes",
    "tactile_paving": "no",
    "wheelchair": "yes"
  }
},
{
  "type": "node",
  "id": 4556323163,
  "lat": 49.5069790,
  "lon": 0.1783263,
  "tags": {
    "bench": "no",
    "check_date:tactile_paving": "2021-07-02",
    "covered": "no",
    "highway": "bus_stop",
    "lit": "no",
    "name": "Arromanches",
    "shelter": "no",
    "tactile_paving": "no",
    "wheelchair": "yes"
  }
},
{
  "type": "node",
  "id": 4556328248,
  "lat": 49.5072240,
  "lon": 0.1801414,
  "tags": {
    "bench": "no",
    "check_date:tactile_paving": "2021-07-04",
    "covered": "no",
    "highway": "bus_stop",
    "lit": "no",
    "name": "Pré Fleuri",
    "shelter": "no",
    "tactile_paving": "no",
    "wheelchair": "yes"
  }
},
{
  "type": "node",
  "id": 4556328249,
  "lat": 49.5071923,
  "lon": 0.1809377,
  "tags": {
    "bench": "no",
    "check_date:tactile_paving": "2021-07-04",
    "covered": "no",
    "highway": "bus_stop",
    "lit": "no",
    "name": "Pré Fleuri",
    "shelter": "no",
    "tactile_paving": "no",
    "wheelchair": "yes"
  }
},
{
  "type": "node",
  "id": 4747518124,
  "lat": 49.5095860,
  "lon": 0.1745242,
  "tags": {
    "bench": "yes",
    "bus": "yes",
    "departures_board": "timetable",
    "highway": "bus_stop",
    "lit": "yes",
    "name": "Mt Le Comte",
    "public_transport": "platform",
    "shelter": "yes",
    "tactile_paving": "no",
    "wheelchair": "no"
  }
},
{
  "type": "node",
  "id": 4747518125,
  "lat": 49.5089457,
  "lon": 0.1747910,
  "tags": {
    "bench": "no",
    "bus": "yes",
    "departures_board": "timetable",
    "highway": "bus_stop",
    "lit": "no",
    "name": "Mt Le Comte",
    "public_transport": "platform",
    "shelter": "no",
    "tactile_paving": "no",
    "wheelchair": "no"
  }
},
{
  "type": "node",
  "id": 5160607708,
  "lat": 49.5246175,
  "lon": 0.1233702,
  "tags": {
    "bench": "no",
    "highway": "bus_stop",
    "lit": "no",
    "name": "G. Verdi",
    "public_transport": "platform",
    "shelter": "no",
    "tactile_paving": "no"
  }
},
{
  "type": "node",
  "id": 5160651445,
  "lat": 49.5277462,
  "lon": 0.1107889,
  "tags": {
    "bench": "yes",
    "bus": "yes",
    "departures_board": "timetable",
    "highway": "bus_stop",
    "lit": "yes",
    "name": "J. Charcot",
    "network": "Bus",
    "operator": "Lia",
    "public_transport": "platform",
    "shelter": "yes",
    "tactile_paving": "no",
    "wheelchair": "no"
  }
},
{
  "type": "node",
  "id": 5160653833,
  "lat": 49.5294827,
  "lon": 0.1105424,
  "tags": {
    "bench": "yes",
    "bus": "yes",
    "highway": "bus_stop",
    "lit": "yes",
    "name": "Hippocrate",
    "network": "LiA",
    "public_transport": "platform",
    "shelter": "yes",
    "tactile_paving": "no"
  }
},
{
  "type": "node",
  "id": 5163332702,
  "lat": 49.5216253,
  "lon": 0.1173404,
  "tags": {
    "bench": "no",
    "bus": "yes",
    "departures_board": "timetable",
    "highway": "bus_stop",
    "lit": "no",
    "name": "L. Marconi",
    "network": "LiA",
    "public_transport": "platform",
    "shelter": "no",
    "tactile_paving": "no",
    "wheelchair": "no"
  }
},
{
  "type": "node",
  "id": 5236812290,
  "lat": 49.5170150,
  "lon": 0.0917534,
  "tags": {
    "bench": "yes",
    "highway": "bus_stop",
    "lit": "yes",
    "name": "A. Samain",
    "shelter": "yes",
    "tactile_paving": "yes"
  }
},
{
  "type": "node",
  "id": 5236867376,
  "lat": 49.5175182,
  "lon": 0.0893499,
  "tags": {
    "bench": "yes",
    "highway": "bus_stop",
    "lit": "yes",
    "name": "E. Labiche",
    "shelter": "yes",
    "tactile_paving": "yes"
  }
},
{
  "type": "node",
  "id": 5296230086,
  "lat": 49.5146856,
  "lon": 0.1145839,
  "tags": {
    "bench": "no",
    "bus": "yes",
    "departures_board": "timetable",
    "highway": "bus_stop",
    "lit": "no",
    "name": "P. Véronèse",
    "public_transport": "platform",
    "shelter": "no",
    "tactile_paving": "no",
    "wheelchair": "no"
  }
},
{
  "type": "node",
  "id": 5337648067,
  "lat": 49.5316192,
  "lon": 0.1130699,
  "tags": {
    "bench": "yes",
    "check_date:shelter": "2020-12-06",
    "highway": "bus_stop",
    "name": "Hameau des Corneilles",
    "shelter": "yes",
    "tactile_paving": "no",
    "wheelchair": "no"
  }
},
{
  "type": "node",
  "id": 5337648068,
  "lat": 49.5317817,
  "lon": 0.1142741,
  "tags": {
    "bench": "no",
    "check_date:shelter": "2020-12-06",
    "check_date:tactile_paving": "2020-12-06",
    "highway": "bus_stop",
    "lit": "no",
    "name": "Hameau des Corneilles",
    "shelter": "no",
    "tactile_paving": "no",
    "wheelchair": "no"
  }
},
{
  "type": "node",
  "id": 5337648069,
  "lat": 49.5303525,
  "lon": 0.1158090,
  "tags": {
    "bench": "no",
    "bus": "yes",
    "check_date:shelter": "2020-12-06",
    "check_date:tactile_paving": "2020-12-06",
    "highway": "bus_stop",
    "lit": "no",
    "name": "M. Bellonte",
    "public_transport": "platform",
    "shelter": "no",
    "tactile_paving": "no",
    "wheelchair": "no"
  }
},
{
  "type": "node",
  "id": 5520447527,
  "lat": 49.4922150,
  "lon": 0.1294427,
  "tags": {
    "bench": "yes",
    "bus": "yes",
    "departures_board": "timetable",
    "highway": "bus_stop",
    "lit": "yes",
    "name": "Colbert",
    "public_transport": "platform",
    "shelter": "yes",
    "tactile_paving": "yes",
    "wheelchair": "yes"
  }
},
{
  "type": "node",
  "id": 5535624587,
  "lat": 49.4980149,
  "lon": 0.1715656,
  "tags": {
    "bus": "yes",
    "highway": "bus_stop",
    "public_transport": "platform"
  }
},
{
  "type": "node",
  "id": 5535624588,
  "lat": 49.4980793,
  "lon": 0.1717781,
  "tags": {
    "bus": "yes",
    "highway": "bus_stop",
    "public_transport": "platform"
  }
},
{
  "type": "node",
  "id": 5569823833,
  "lat": 49.4939775,
  "lon": 0.1113019,
  "tags": {
    "bench": "yes",
    "bus": "yes",
    "departures_board": "timetable",
    "highway": "bus_stop",
    "lit": "yes",
    "name": "Sous-Préfecture",
    "public_transport": "platform",
    "shelter": "yes",
    "surface": "asphalt",
    "tactile_paving": "yes",
    "wheelchair": "yes"
  }
},
{
  "type": "node",
  "id": 5768434484,
  "lat": 49.5083540,
  "lon": 0.1799693,
  "tags": {
    "bench": "no",
    "bus": "yes",
    "highway": "bus_stop",
    "lit": "no",
    "name": "Pré fleuri",
    "public_transport": "platform",
    "shelter": "no",
    "tactile_paving": "yes"
  }
},
{
  "type": "node",
  "id": 5768434489,
  "lat": 49.5085455,
  "lon": 0.1798239,
  "tags": {
    "bench": "no",
    "bus": "yes",
    "highway": "bus_stop",
    "lit": "no",
    "name": "Pré fleuri",
    "public_transport": "platform",
    "shelter": "no",
    "tactile_paving": "yes"
  }
},
{
  "type": "node",
  "id": 6030727792,
  "lat": 49.5250242,
  "lon": 0.1065714,
  "tags": {
    "bench": "no",
    "bus": "yes",
    "highway": "bus_stop",
    "lit": "no",
    "name": "Montréal",
    "public_transport": "platform",
    "shelter": "no",
    "tactile_paving": "no"
  }
},
{
  "type": "node",
  "id": 6030727793,
  "lat": 49.5205936,
  "lon": 0.1103119,
  "tags": {
    "bench": "no",
    "bus": "yes",
    "highway": "bus_stop",
    "name": "Grand Cap",
    "network": "LiA",
    "network:wikidata": "Q2990054",
    "network:wikipedia": "fr:Transdev Le Havre",
    "public_transport": "platform",
    "shelter": "no",
    "tactile_paving": "no"
  }
},
{
  "type": "node",
  "id": 6030727794,
  "lat": 49.5206975,
  "lon": 0.1104625,
  "tags": {
    "bench": "no",
    "bus": "yes",
    "highway": "bus_stop",
    "name": "Grand Cap",
    "network": "LiA",
    "network:wikidata": "Q2990054",
    "network:wikipedia": "fr:Transdev Le Havre",
    "public_transport": "platform",
    "shelter": "no",
    "tactile_paving": "no"
  }
},
{
  "type": "node",
  "id": 6030738862,
  "lat": 49.5208683,
  "lon": 0.1148653,
  "tags": {
    "bench": "yes",
    "bus": "yes",
    "covered": "no",
    "departures_board": "timetable",
    "highway": "bus_stop",
    "lit": "yes",
    "name": "Mt Gaillard",
    "public_transport": "platform",
    "shelter": "yes",
    "tactile_paving": "no",
    "wheelchair": "yes"
  }
},
{
  "type": "node",
  "id": 6030738863,
  "lat": 49.5210121,
  "lon": 0.1149441,
  "tags": {
    "bench": "yes",
    "bus": "yes",
    "covered": "no",
    "departures_board": "timetable",
    "highway": "bus_stop",
    "lit": "yes",
    "name": "Mt Gaillard",
    "public_transport": "platform",
    "shelter": "yes",
    "tactile_paving": "yes",
    "wheelchair": "yes"
  }
},
{
  "type": "node",
  "id": 6030738866,
  "lat": 49.5223338,
  "lon": 0.1194765,
  "tags": {
    "bench": "no",
    "bus": "yes",
    "departures_board": "timetable",
    "highway": "bus_stop",
    "lit": "no",
    "name": "L. Marconi",
    "public_transport": "platform",
    "shelter": "no",
    "tactile_paving": "no",
    "wheelchair": "no"
  }
},
{
  "type": "node",
  "id": 6030738871,
  "lat": 49.5249363,
  "lon": 0.1238336,
  "tags": {
    "bench": "no",
    "bus": "yes",
    "highway": "bus_stop",
    "lit": "no",
    "name": "G. Verdi",
    "public_transport": "platform",
    "shelter": "no",
    "tactile_paving": "no"
  }
},
{
  "type": "node",
  "id": 6116196490,
  "lat": 49.5202555,
  "lon": 0.0873624,
  "tags": {
    "bench": "yes",
    "bus": "yes",
    "departures_board": "timetable",
    "highway": "bus_stop",
    "name": "L. Blériot",
    "public_transport": "platform",
    "shelter": "yes",
    "tactile_paving": "yes",
    "wheelchair": "yes"
  }
},
{
  "type": "node",
  "id": 6128019239,
  "lat": 49.4970851,
  "lon": 0.1101820,
  "tags": {
    "bench": "yes",
    "bus": "yes",
    "departures_board": "timetable",
    "highway": "bus_stop",
    "name": "Pl. Thiers",
    "public_transport": "platform",
    "shelter": "yes",
    "tactile_paving": "yes",
    "wheelchair": "yes"
  }
},
{
  "type": "node",
  "id": 6128019240,
  "lat": 49.4963300,
  "lon": 0.1099873,
  "tags": {
    "bench": "yes",
    "bus": "yes",
    "departures_board": "timetable",
    "highway": "bus_stop",
    "lit": "yes",
    "name": "Pl. Thiers",
    "public_transport": "platform",
    "shelter": "yes",
    "tactile_paving": "yes",
    "wheelchair": "yes"
  }
},
{
  "type": "node",
  "id": 6128083035,
  "lat": 49.5084954,
  "lon": 0.1381438,
  "tags": {
    "bench": "yes",
    "bin": "yes",
    "bus": "yes",
    "departures_board": "timetable",
    "highway": "bus_stop",
    "lit": "yes",
    "name": "Place Jenner",
    "public_transport": "platform",
    "shelter": "yes",
    "tactile_paving": "yes"
  }
},
{
  "type": "node",
  "id": 6218543252,
  "lat": 49.5251414,
  "lon": 0.1066436,
  "tags": {
    "bench": "no",
    "bus": "yes",
    "highway": "bus_stop",
    "lit": "no",
    "name": "Montréal",
    "network": "LiA",
    "public_transport": "platform",
    "shelter": "no",
    "tactile_paving": "no"
  }
},
{
  "type": "node",
  "id": 6426572426,
  "lat": 49.5103610,
  "lon": 0.1034837,
  "tags": {
    "bench": "no",
    "bus": "yes",
    "departures_board": "timetable",
    "highway": "bus_stop",
    "lit": "no",
    "name": "C. Oursel",
    "public_transport": "platform",
    "shelter": "no",
    "tactile_paving": "no",
    "wheelchair": "no"
  }
},
{
  "type": "node",
  "id": 6611888846,
  "lat": 49.4920235,
  "lon": 0.1259257,
  "tags": {
    "bench": "yes",
    "bin": "yes",
    "bus": "yes",
    "departures_board": "timetable",
    "description": "Lignes 20, 39, 50.",
    "highway": "bus_stop",
    "name": "Le Havre : Gares",
    "operator": "Région Normandie",
    "public_transport": "platform",
    "shelter": "yes"
  }
},
{
  "type": "node",
  "id": 6611888847,
  "lat": 49.4921391,
  "lon": 0.1258777,
  "tags": {
    "bench": "yes",
    "bin": "yes",
    "bus": "yes",
    "departures_board": "timetable",
    "description": "Ligne 20.",
    "highway": "bus_stop",
    "network": "Nomad Car Seine-Maritime",
    "operator": "Région Normandie",
    "public_transport": "platform",
    "shelter": "yes"
  }
},
{
  "type": "node",
  "id": 6763928566,
  "lat": 49.5080487,
  "lon": 0.1456829,
  "tags": {
    "bench": "yes",
    "bus": "yes",
    "departures_board": "timetable",
    "highway": "bus_stop",
    "lit": "yes",
    "name": "Frileuse",
    "public_transport": "platform",
    "shelter": "yes",
    "tactile_paving": "no"
  }
},
{
  "type": "node",
  "id": 6763928567,
  "lat": 49.5084272,
  "lon": 0.1459245,
  "tags": {
    "bench": "yes",
    "bus": "yes",
    "departures_board": "timetable",
    "highway": "bus_stop",
    "lit": "yes",
    "name": "Frileuse",
    "public_transport": "platform",
    "shelter": "yes",
    "tactile_paving": "no"
  }
},
{
  "type": "node",
  "id": 6769578037,
  "lat": 49.5055056,
  "lon": 0.1166970,
  "tags": {
    "bench": "yes",
    "bus": "yes",
    "departures_board": "yes",
    "highway": "bus_stop",
    "name": "Bayonvilliers",
    "network": "LiA",
    "network:wikidata": "Q2990054",
    "network:wikipedia": "fr:Transdev Le Havre",
    "operator": "Le Havre Seine Métropole",
    "public_transport": "platform",
    "shelter": "yes",
    "tactile_paving": "yes",
    "wheelchair": "yes"
  }
},
{
  "type": "node",
  "id": 6769578038,
  "lat": 49.5055935,
  "lon": 0.1169076,
  "tags": {
    "bench": "no",
    "bus": "yes",
    "departures_board": "timetable",
    "highway": "bus_stop",
    "lit": "no",
    "name": "Bayonvilliers",
    "network": "LiA",
    "network:wikidata": "Q2990054",
    "network:wikipedia": "fr:Transdev Le Havre",
    "operator": "Le Havre Seine Métropole",
    "public_transport": "platform",
    "shelter": "no",
    "tactile_paving": "yes",
    "wheelchair": "yes"
  }
},
{
  "type": "node",
  "id": 6809767729,
  "lat": 49.5058526,
  "lon": 0.1814100,
  "tags": {
    "bench": "yes",
    "bus": "yes",
    "highway": "bus_stop",
    "lit": "yes",
    "name": "Caucriauville",
    "network": "lignes 7 et 17",
    "public_transport": "platform",
    "shelter": "yes",
    "tactile_paving": "yes"
  }
},
{
  "type": "node",
  "id": 6917890481,
  "lat": 49.5026927,
  "lon": 0.1193713,
  "tags": {
    "bus": "yes",
    "departures_board": "timetable",
    "highway": "bus_stop",
    "public_transport": "platform",
    "shelter": "yes"
  }
},
{
  "type": "node",
  "id": 7142957406,
  "lat": 49.4877100,
  "lon": 0.1888092,
  "tags": {
    "bus": "yes",
    "highway": "bus_stop",
    "public_transport": "platform"
  }
},
{
  "type": "node",
  "id": 7251689248,
  "lat": 49.4794918,
  "lon": 0.1332208,
  "tags": {
    "bus": "yes",
    "highway": "bus_stop",
    "public_transport": "platform"
  }
},
{
  "type": "node",
  "id": 7388894117,
  "lat": 49.5203963,
  "lon": 0.0864958,
  "tags": {
    "bench": "no",
    "bus": "yes",
    "departures_board": "timetable",
    "highway": "bus_stop",
    "name": "L. Blériot",
    "public_transport": "platform",
    "shelter": "no",
    "tactile_paving": "no",
    "wheelchair": "no"
  }
},
{
  "type": "node",
  "id": 7611557975,
  "lat": 49.4822118,
  "lon": 0.1606089,
  "tags": {
    "bus": "yes",
    "highway": "bus_stop",
    "public_transport": "platform"
  }
},
{
  "type": "node",
  "id": 7611557978,
  "lat": 49.4827031,
  "lon": 0.1616574,
  "tags": {
    "bus": "yes",
    "highway": "bus_stop",
    "public_transport": "platform"
  }
},
{
  "type": "node",
  "id": 7815587314,
  "lat": 49.4848004,
  "lon": 0.1173099,
  "tags": {
    "bus": "yes",
    "highway": "bus_stop",
    "public_transport": "platform"
  }
},
{
  "type": "node",
  "id": 7815587315,
  "lat": 49.4814108,
  "lon": 0.1078725,
  "tags": {
    "bus": "yes",
    "highway": "bus_stop",
    "public_transport": "platform"
  }
},
{
  "type": "node",
  "id": 8016549905,
  "lat": 49.5024418,
  "lon": 0.1685537,
  "tags": {
    "bench": "yes",
    "bin": "yes",
    "bus": "yes",
    "departures_board": "realtime",
    "highway": "bus_stop",
    "name": "J. Deschaseaux",
    "public_transport": "platform",
    "shelter": "yes",
    "tactile_paving": "yes",
    "wheelchair": "yes"
  }
},
{
  "type": "node",
  "id": 8016657428,
  "lat": 49.4981263,
  "lon": 0.1458029,
  "tags": {
    "bus": "yes",
    "highway": "bus_stop",
    "public_transport": "platform",
    "shelter": "yes"
  }
},
{
  "type": "node",
  "id": 8016657441,
  "lat": 49.4973480,
  "lon": 0.1320147,
  "tags": {
    "bus": "yes",
    "highway": "bus_stop",
    "public_transport": "platform",
    "shelter": "yes"
  }
},
{
  "type": "node",
  "id": 8016657447,
  "lat": 49.4974706,
  "lon": 0.1324794,
  "tags": {
    "bus": "yes",
    "highway": "bus_stop",
    "public_transport": "platform"
  }
},
{
  "type": "node",
  "id": 8016747011,
  "lat": 49.4984872,
  "lon": 0.1491619,
  "tags": {
    "bench": "yes",
    "bin": "yes",
    "bus": "yes",
    "highway": "bus_stop",
    "name": "J. Jaurès",
    "public_transport": "platform",
    "shelter": "yes",
    "tactile_paving": "yes"
  }
},
{
  "type": "node",
  "id": 8017118405,
  "lat": 49.4924452,
  "lon": 0.0965293,
  "tags": {
    "bus": "yes",
    "highway": "bus_stop",
    "public_transport": "platform"
  }
},
{
  "type": "node",
  "id": 8017254930,
  "lat": 49.5311905,
  "lon": 0.0936713,
  "tags": {
    "bench": "yes",
    "bin": "no",
    "bus": "yes",
    "highway": "bus_stop",
    "name": "Aéroport",
    "public_transport": "platform",
    "shelter": "yes"
  }
},
{
  "type": "node",
  "id": 8017285775,
  "lat": 49.4881050,
  "lon": 0.1073810,
  "tags": {
    "bench": "yes",
    "bus": "yes",
    "covered": "no",
    "departures_board": "timetable",
    "highway": "bus_stop",
    "name": "Muséum",
    "public_transport": "platform",
    "shelter": "no",
    "tactile_paving": "yes",
    "wheelchair": "yes"
  }
},
{
  "type": "node",
  "id": 8017285776,
  "lat": 49.4882474,
  "lon": 0.1075346,
  "tags": {
    "bench": "yes",
    "bus": "yes",
    "covered": "no",
    "departures_board": "timetable",
    "highway": "bus_stop",
    "name": "Muséum",
    "public_transport": "platform",
    "shelter": "no",
    "tactile_paving": "yes",
    "wheelchair": "yes"
  }
},
{
  "type": "node",
  "id": 8018587560,
  "lat": 49.5009956,
  "lon": 0.1448310,
  "tags": {
    "bus": "yes",
    "highway": "bus_stop",
    "name": "Montmorency",
    "public_transport": "platform",
    "shelter": "yes"
  }
},
{
  "type": "node",
  "id": 8018587579,
  "lat": 49.5006569,
  "lon": 0.1403456,
  "tags": {
    "bench": "yes",
    "bin": "no",
    "bus": "yes",
    "departures_board": "realtime",
    "highway": "bus_stop",
    "name": "Observatoire",
    "public_transport": "platform",
    "shelter": "yes",
    "tactile_paving": "yes",
    "wheelchair": "yes"
  }
},
{
  "type": "node",
  "id": 8018589194,
  "lat": 49.5005246,
  "lon": 0.1397535,
  "tags": {
    "bench": "yes",
    "bin": "no",
    "bus": "yes",
    "departures_board": "realtime",
    "highway": "bus_stop",
    "name": "Observatoire",
    "public_transport": "platform",
    "shelter": "yes",
    "tactile_paving": "yes",
    "wheelchair": "yes"
  }
},
{
  "type": "node",
  "id": 8018620741,
  "lat": 49.5000728,
  "lon": 0.1304383,
  "tags": {
    "bench": "yes",
    "bin": "yes",
    "bus": "yes",
    "departures_board": "timetable",
    "highway": "bus_stop",
    "lit": "yes",
    "name": "Rond-Point",
    "public_transport": "platform",
    "shelter": "yes",
    "tactile_paving": "yes",
    "wheelchair": "yes"
  }
},
{
  "type": "node",
  "id": 8096614091,
  "lat": 49.5293910,
  "lon": 0.1108531,
  "tags": {
    "bench": "no",
    "bus": "yes",
    "highway": "bus_stop",
    "lit": "no",
    "name": "Hippocrate",
    "network": "LiA",
    "public_transport": "platform",
    "shelter": "no",
    "tactile_paving": "no"
  }
},
{
  "type": "node",
  "id": 8096651081,
  "lat": 49.5293423,
  "lon": 0.1032505,
  "tags": {
    "bench": "yes",
    "bus": "yes",
    "departures_board": "timetable",
    "highway": "bus_stop",
    "name": "Le Havre : Grand Hameau",
    "public_transport": "platform",
    "shelter": "yes",
    "tactile_paving": "yes",
    "wheelchair": "yes"
  }
},
{
  "type": "node",
  "id": 8096730666,
  "lat": 49.4948878,
  "lon": 0.1060280,
  "tags": {
    "bench": "yes",
    "bus": "yes",
    "departures_board": "timetable",
    "highway": "bus_stop",
    "lit": "yes",
    "name": "Hôtel de la Communauté",
    "network": "Bus",
    "operator": "Lia",
    "public_transport": "platform",
    "shelter": "yes",
    "tactile_paving": "yes",
    "wheelchair": "yes"
  }
},
{
  "type": "node",
  "id": 8096730667,
  "lat": 49.4950409,
  "lon": 0.1049313,
  "tags": {
    "bench": "no",
    "bus": "yes",
    "departures_board": "timetable",
    "highway": "bus_stop",
    "name": "Hôtel de la communauté",
    "network": "Bus",
    "operator": "Lia",
    "public_transport": "platform",
    "shelter": "no",
    "tactile_paving": "yes",
    "wheelchair": "yes"
  }
},
{
  "type": "node",
  "id": 8145448947,
  "lat": 49.5216175,
  "lon": 0.1606809,
  "tags": {
    "bench": "yes",
    "bus": "yes",
    "departures_board": "timetable",
    "highway": "bus_stop",
    "lit": "yes",
    "name": "Rouelles",
    "public_transport": "platform",
    "shelter": "no",
    "tactile_paving": "no",
    "wheelchair": "no"
  }
},
{
  "type": "node",
  "id": 8145448952,
  "lat": 49.5205589,
  "lon": 0.1595303,
  "tags": {
    "bench": "yes",
    "bus": "yes",
    "departures_board": "timetable",
    "highway": "bus_stop",
    "lit": "yes",
    "name": "Rouelles",
    "public_transport": "platform",
    "shelter": "yes",
    "tactile_paving": "no",
    "wheelchair": "no"
  }
},
{
  "type": "node",
  "id": 8145461527,
  "lat": 49.5181683,
  "lon": 0.1577415,
  "tags": {
    "bench": "yes",
    "bus": "yes",
    "departures_board": "timetable",
    "highway": "bus_stop",
    "lit": "no",
    "name": "C. de Gaulle",
    "public_transport": "platform",
    "shelter": "no",
    "tactile_paving": "yes",
    "wheelchair": "yes"
  }
},
{
  "type": "node",
  "id": 8145461528,
  "lat": 49.5184427,
  "lon": 0.1577121,
  "tags": {
    "bench": "yes",
    "bus": "yes",
    "departures_board": "timetable",
    "highway": "bus_stop",
    "lit": "no",
    "name": "C. de Gaulle",
    "public_transport": "platform",
    "shelter": "no",
    "tactile_paving": "yes",
    "wheelchair": "yes"
  }
},
{
  "type": "node",
  "id": 8145461529,
  "lat": 49.5154386,
  "lon": 0.1545175,
  "tags": {
    "bench": "yes",
    "bus": "yes",
    "departures_board": "timetable",
    "highway": "bus_stop",
    "lit": "yes",
    "name": "Socrate",
    "public_transport": "platform",
    "shelter": "yes",
    "tactile_paving": "no",
    "wheelchair": "no"
  }
},
{
  "type": "node",
  "id": 8145461530,
  "lat": 49.5152927,
  "lon": 0.1545404,
  "tags": {
    "bench": "yes",
    "bus": "yes",
    "departures_board": "timetable",
    "highway": "bus_stop",
    "lit": "yes",
    "name": "Socrate",
    "public_transport": "platform",
    "shelter": "yes",
    "tactile_paving": "no",
    "wheelchair": "no"
  }
},
{
  "type": "node",
  "id": 8145533517,
  "lat": 49.5120610,
  "lon": 0.1501115,
  "tags": {
    "bench": "yes",
    "bus": "yes",
    "departures_board": "timetable",
    "highway": "bus_stop",
    "lit": "yes",
    "name": "Hallates",
    "public_transport": "platform",
    "shelter": "yes",
    "tactile_paving": "no",
    "wheelchair": "no"
  }
},
{
  "type": "node",
  "id": 8145533518,
  "lat": 49.5118778,
  "lon": 0.1499876,
  "tags": {
    "bench": "yes",
    "bus": "yes",
    "departures_board": "timetable",
    "highway": "bus_stop",
    "lit": "yes",
    "name": "Hallates",
    "public_transport": "platform",
    "shelter": "yes",
    "tactile_paving": "no",
    "wheelchair": "no"
  }
},
{
  "type": "node",
  "id": 8145533519,
  "lat": 49.5109286,
  "lon": 0.1488436,
  "tags": {
    "bench": "yes",
    "bus": "yes",
    "departures_board": "timetable",
    "highway": "bus_stop",
    "lit": "yes",
    "name": "Platanes",
    "public_transport": "platform",
    "shelter": "yes",
    "tactile_paving": "no",
    "wheelchair": "no"
  }
},
{
  "type": "node",
  "id": 8145533520,
  "lat": 49.5103000,
  "lon": 0.1480105,
  "tags": {
    "bench": "yes",
    "bus": "yes",
    "departures_board": "timetable",
    "highway": "bus_stop",
    "lit": "yes",
    "name": "Platanes",
    "public_transport": "platform",
    "shelter": "yes",
    "tactile_paving": "no",
    "wheelchair": "no"
  }
},
{
  "type": "node",
  "id": 8146495445,
  "lat": 49.5075733,
  "lon": 0.1392892,
  "tags": {
    "bench": "no",
    "bus": "yes",
    "departures_board": "timetable",
    "highway": "bus_stop",
    "lit": "no",
    "name": "P. Dumont",
    "public_transport": "platform",
    "shelter": "no",
    "tactile_paving": "yes"
  }
},
{
  "type": "node",
  "id": 8146495446,
  "lat": 49.5073991,
  "lon": 0.1395535,
  "tags": {
    "bench": "no",
    "bus": "yes",
    "departures_board": "timetable",
    "highway": "bus_stop",
    "lit": "no",
    "name": "P. Dumont",
    "public_transport": "platform",
    "shelter": "no",
    "tactile_paving": "yes"
  }
},
{
  "type": "node",
  "id": 8146495448,
  "lat": 49.5079854,
  "lon": 0.1375934,
  "tags": {
    "bench": "yes",
    "bus": "yes",
    "departures_board": "timetable",
    "highway": "bus_stop",
    "lit": "no",
    "name": "Acacias",
    "public_transport": "platform",
    "shelter": "no",
    "tactile_paving": "no"
  }
},
{
  "type": "node",
  "id": 8146495449,
  "lat": 49.5077408,
  "lon": 0.1325533,
  "tags": {
    "bench": "yes",
    "bus": "yes",
    "departures_board": "timetable",
    "highway": "bus_stop",
    "lit": "yes",
    "name": "Patinoire",
    "public_transport": "platform",
    "shelter": "yes",
    "tactile_paving": "no"
  }
},
{
  "type": "node",
  "id": 8146495450,
  "lat": 49.5077167,
  "lon": 0.1328763,
  "tags": {
    "bench": "yes",
    "bus": "yes",
    "departures_board": "timetable",
    "highway": "bus_stop",
    "lit": "no",
    "name": "Patinoire",
    "public_transport": "platform",
    "shelter": "no",
    "tactile_paving": "no"
  }
},
{
  "type": "node",
  "id": 8146565565,
  "lat": 49.5071726,
  "lon": 0.1291741,
  "tags": {
    "bench": "yes",
    "bus": "yes",
    "departures_board": "timetable",
    "highway": "bus_stop",
    "lit": "yes",
    "name": "E. Meyer",
    "public_transport": "platform",
    "shelter": "yes",
    "tactile_paving": "yes",
    "wheelchair": "yes"
  }
},
{
  "type": "node",
  "id": 8146565566,
  "lat": 49.5070905,
  "lon": 0.1291702,
  "tags": {
    "bench": "yes",
    "bus": "yes",
    "departures_board": "timetable",
    "highway": "bus_stop",
    "lit": "yes",
    "name": "E. Meyer",
    "public_transport": "platform",
    "shelter": "yes",
    "tactile_paving": "yes",
    "wheelchair": "yes"
  }
},
{
  "type": "node",
  "id": 8146565567,
  "lat": 49.5072291,
  "lon": 0.1231720,
  "tags": {
    "bench": "no",
    "bus": "yes",
    "departures_board": "timetable",
    "highway": "bus_stop",
    "lit": "no",
    "name": "Vornier",
    "public_transport": "platform",
    "shelter": "no",
    "tactile_paving": "no"
  }
},
{
  "type": "node",
  "id": 8146565568,
  "lat": 49.5071494,
  "lon": 0.1234428,
  "tags": {
    "bench": "no",
    "bus": "yes",
    "departures_board": "timetable",
    "highway": "bus_stop",
    "lit": "no",
    "name": "Vornier",
    "public_transport": "platform",
    "shelter": "no",
    "tactile_paving": "yes",
    "wheelchair": "yes"
  }
},
{
  "type": "node",
  "id": 8146565570,
  "lat": 49.5067711,
  "lon": 0.1197659,
  "tags": {
    "bench": "yes",
    "bus": "yes",
    "departures_board": "timetable",
    "highway": "bus_stop",
    "lit": "yes",
    "name": "Val Soleil",
    "public_transport": "platform",
    "shelter": "no",
    "tactile_paving": "yes",
    "wheelchair": "yes"
  }
},
{
  "type": "node",
  "id": 8146565571,
  "lat": 49.5066417,
  "lon": 0.1196739,
  "tags": {
    "bench": "yes",
    "bus": "yes",
    "departures_board": "timetable",
    "highway": "bus_stop",
    "lit": "yes",
    "name": "Val Soleil",
    "public_transport": "platform",
    "shelter": "yes",
    "tactile_paving": "yes",
    "wheelchair": "yes"
  }
},
{
  "type": "node",
  "id": 8146588048,
  "lat": 49.5060728,
  "lon": 0.1175923,
  "tags": {
    "bench": "yes",
    "bus": "yes",
    "departures_board": "timetable",
    "highway": "bus_stop",
    "lit": "yes",
    "name": "Bayonvilliers",
    "public_transport": "platform",
    "shelter": "yes",
    "tactile_paving": "yes",
    "wheelchair": "yes"
  }
},
{
  "type": "node",
  "id": 8146588049,
  "lat": 49.5036362,
  "lon": 0.1175591,
  "tags": {
    "bench": "no",
    "bus": "yes",
    "departures_board": "timetable",
    "highway": "bus_stop",
    "lit": "no",
    "name": "Cronstadt",
    "public_transport": "platform",
    "shelter": "no",
    "tactile_paving": "yes",
    "wheelchair": "yes"
  }
},
{
  "type": "node",
  "id": 8146588050,
  "lat": 49.5029011,
  "lon": 0.1176945,
  "tags": {
    "bench": "no",
    "bus": "yes",
    "departures_board": "timetable",
    "highway": "bus_stop",
    "lit": "no",
    "name": "Cronstadt",
    "public_transport": "platform",
    "shelter": "no",
    "tactile_paving": "yes",
    "wheelchair": "yes"
  }
},
{
  "type": "node",
  "id": 8146600441,
  "lat": 49.5017442,
  "lon": 0.1167193,
  "tags": {
    "bench": "yes",
    "bus": "yes",
    "departures_board": "timetable",
    "highway": "bus_stop",
    "lit": "yes",
    "name": "G. Lafaurie",
    "public_transport": "platform",
    "shelter": "yes",
    "tactile_paving": "yes",
    "wheelchair": "yes"
  }
},
{
  "type": "node",
  "id": 8146600442,
  "lat": 49.5015831,
  "lon": 0.1149895,
  "tags": {
    "bench": "yes",
    "bus": "yes",
    "departures_board": "timetable",
    "highway": "bus_stop",
    "name": "G. Lafaurie",
    "public_transport": "platform",
    "shelter": "yes",
    "tactile_paving": "yes",
    "wheelchair": "yes"
  }
},
{
  "type": "node",
  "id": 8146678270,
  "lat": 49.4984313,
  "lon": 0.1075020,
  "tags": {
    "bench": "yes",
    "bus": "yes",
    "departures_board": "timetable",
    "highway": "bus_stop",
    "name": "Ingouville",
    "public_transport": "platform",
    "shelter": "yes",
    "tactile_paving": "no",
    "wheelchair": "no"
  }
},
{
  "type": "node",
  "id": 8146678271,
  "lat": 49.4983155,
  "lon": 0.1075279,
  "tags": {
    "bench": "no",
    "bus": "yes",
    "departures_board": "timetable",
    "highway": "bus_stop",
    "name": "Ingouville",
    "public_transport": "platform",
    "shelter": "no",
    "tactile_paving": "no",
    "wheelchair": "no"
  }
},
{
  "type": "node",
  "id": 8153752398,
  "lat": 49.4944248,
  "lon": 0.1094686,
  "tags": {
    "bench": "yes",
    "bin": "yes",
    "bus": "yes",
    "departures_board": "realtime",
    "highway": "bus_stop",
    "lit": "no",
    "name": "Hôtel de Ville",
    "network": "Bus",
    "operator": "Lia",
    "public_transport": "platform",
    "shelter": "yes",
    "tactile_paving": "yes",
    "wheelchair": "yes"
  }
},
{
  "type": "node",
  "id": 8153752399,
  "lat": 49.4938669,
  "lon": 0.1094274,
  "tags": {
    "bench": "yes",
    "bin": "yes",
    "bus": "yes",
    "highway": "bus_stop",
    "name": "Hôtel de Ville",
    "network": "Bus",
    "operator": "Lia",
    "public_transport": "platform",
    "shelter": "yes",
    "tactile_paving": "yes",
    "wheelchair": "yes"
  }
},
{
  "type": "node",
  "id": 8153752400,
  "lat": 49.4939785,
  "lon": 0.1091959,
  "tags": {
    "bench": "yes",
    "bin": "yes",
    "bus": "yes",
    "departures_board": "realtime",
    "highway": "bus_stop",
    "name": "Hôtel de Ville",
    "network": "Bus",
    "operator": "Lia",
    "public_transport": "platform",
    "shelter": "yes",
    "tactile_paving": "yes",
    "wheelchair": "yes"
  }
},
{
  "type": "node",
  "id": 8153884995,
  "lat": 49.4943193,
  "lon": 0.1092225,
  "tags": {
    "bench": "yes",
    "bin": "yes",
    "bus": "yes",
    "departures_board": "realtime",
    "highway": "bus_stop",
    "name": "Hôtel de Ville",
    "network": "Bus",
    "operator": "Lia",
    "public_transport": "platform",
    "shelter": "yes",
    "tactile_paving": "yes",
    "wheelchair": "yes"
  }
},
{
  "type": "node",
  "id": 8153884996,
  "lat": 49.4921403,
  "lon": 0.1078327,
  "tags": {
    "bench": "yes",
    "bin": "no",
    "bus": "yes",
    "departures_board": "timetable",
    "highway": "bus_stop",
    "lit": "yes",
    "name": "George V",
    "public_transport": "platform",
    "shelter": "yes",
    "tactile_paving": "yes"
  }
},
{
  "type": "node",
  "id": 8153884997,
  "lat": 49.4919159,
  "lon": 0.1076580,
  "tags": {
    "bench": "yes",
    "bus": "yes",
    "departures_board": "timetable",
    "highway": "bus_stop",
    "lit": "yes",
    "name": "George V",
    "public_transport": "platform",
    "shelter": "yes",
    "tactile_paving": "yes"
  }
},
{
  "type": "node",
  "id": 8153884998,
  "lat": 49.4895690,
  "lon": 0.1075021,
  "tags": {
    "bench": "yes",
    "bus": "yes",
    "departures_board": "timetable",
    "highway": "bus_stop",
    "name": "Richelieu",
    "public_transport": "platform",
    "shelter": "no",
    "tactile_paving": "yes"
  }
},
{
  "type": "node",
  "id": 8153884999,
  "lat": 49.4895028,
  "lon": 0.1076114,
  "tags": {
    "bench": "yes",
    "bus": "yes",
    "departures_board": "timetable",
    "highway": "bus_stop",
    "name": "Richelieu",
    "public_transport": "platform",
    "shelter": "no",
    "tactile_paving": "yes"
  }
},
{
  "type": "node",
  "id": 8153885000,
  "lat": 49.4893425,
  "lon": 0.1052357,
  "tags": {
    "bench": "yes",
    "bus": "yes",
    "departures_board": "timetable",
    "highway": "bus_stop",
    "name": "Les Halles",
    "public_transport": "platform",
    "shelter": "no",
    "tactile_paving": "yes",
    "wheelchair": "yes"
  }
},
{
  "type": "node",
  "id": 8153885004,
  "lat": 49.4896209,
  "lon": 0.1013800,
  "tags": {
    "bench": "yes",
    "bin": "yes",
    "bus": "yes",
    "departures_board": "timetable",
    "highway": "bus_stop",
    "name": "A. Normand",
    "public_transport": "platform",
    "shelter": "yes",
    "tactile_paving": "yes",
    "wheelchair": "yes"
  }
},
{
  "type": "node",
  "id": 8153888595,
  "lat": 49.4899333,
  "lon": 0.1047382,
  "tags": {
    "bench": "yes",
    "bus": "yes",
    "departures_board": "timetable",
    "highway": "bus_stop",
    "name": "Les Halles",
    "public_transport": "platform",
    "shelter": "yes",
    "tactile_paving": "yes",
    "wheelchair": "yes"
  }
},
{
  "type": "node",
  "id": 8155321849,
  "lat": 49.4903715,
  "lon": 0.1004659,
  "tags": {
    "bench": "no",
    "bin": "yes",
    "bus": "yes",
    "departures_board": "timetable",
    "highway": "bus_stop",
    "name": "Saint Joseph",
    "public_transport": "platform",
    "shelter": "no",
    "tactile_paving": "yes",
    "wheelchair": "yes"
  }
},
{
  "type": "node",
  "id": 8155321850,
  "lat": 49.4913171,
  "lon": 0.0998293,
  "tags": {
    "bench": "yes",
    "bin": "yes",
    "bus": "yes",
    "departures_board": "timetable",
    "highway": "bus_stop",
    "name": "Saint Joseph",
    "public_transport": "platform",
    "shelter": "yes",
    "tactile_paving": "yes",
    "wheelchair": "yes"
  }
},
{
  "type": "node",
  "id": 8155321854,
  "lat": 49.4920712,
  "lon": 0.0989212,
  "tags": {
    "bench": "yes",
    "bus": "yes",
    "departures_board": "timetable",
    "highway": "bus_stop",
    "name": "Porte Océane",
    "public_transport": "platform",
    "shelter": "yes",
    "tactile_paving": "no",
    "wheelchair": "no"
  }
},
{
  "type": "node",
  "id": 8155321858,
  "lat": 49.4937695,
  "lon": 0.0974174,
  "tags": {
    "bench": "no",
    "bin": "no",
    "bus": "yes",
    "departures_board": "timetable",
    "highway": "bus_stop",
    "name": "La Plage",
    "public_transport": "platform",
    "shelter": "no",
    "tactile_paving": "yes",
    "wheelchair": "yes"
  }
},
{
  "type": "node",
  "id": 8155321859,
  "lat": 49.4938498,
  "lon": 0.0976377,
  "tags": {
    "bench": "yes",
    "bin": "no",
    "bus": "yes",
    "departures_board": "timetable",
    "highway": "bus_stop",
    "name": "La Plage",
    "public_transport": "platform",
    "shelter": "yes",
    "tactile_paving": "yes",
    "wheelchair": "yes"
  }
},
{
  "type": "node",
  "id": 8157663016,
  "lat": 49.4959301,
  "lon": 0.0938164,
  "tags": {
    "bench": "yes",
    "bus": "yes",
    "departures_board": "timetable",
    "highway": "bus_stop",
    "name": "S. de Champlain",
    "public_transport": "platform",
    "shelter": "yes",
    "tactile_paving": "yes",
    "wheelchair": "yes"
  }
},
{
  "type": "node",
  "id": 8157689617,
  "lat": 49.4992207,
  "lon": 0.0902795,
  "tags": {
    "bench": "yes",
    "bus": "yes",
    "departures_board": "timetable",
    "highway": "bus_stop",
    "name": "G. de Maupassant",
    "public_transport": "platform",
    "shelter": "yes",
    "tactile_paving": "no",
    "wheelchair": "no"
  }
},
{
  "type": "node",
  "id": 8157689618,
  "lat": 49.4973471,
  "lon": 0.0926120,
  "tags": {
    "bench": "yes",
    "bus": "yes",
    "departures_board": "timetable",
    "highway": "bus_stop",
    "name": "Bains Maritimes",
    "public_transport": "platform",
    "shelter": "yes",
    "tactile_paving": "no",
    "wheelchair": "no"
  }
},
{
  "type": "node",
  "id": 8157689619,
  "lat": 49.4972532,
  "lon": 0.0924735,
  "tags": {
    "bench": "yes",
    "bus": "yes",
    "departures_board": "timetable",
    "highway": "bus_stop",
    "name": "Bains Maritimes",
    "public_transport": "platform",
    "shelter": "yes",
    "tactile_paving": "no",
    "wheelchair": "no"
  }
},
{
  "type": "node",
  "id": 8157689620,
  "lat": 49.4999437,
  "lon": 0.0896931,
  "tags": {
    "bench": "yes",
    "bus": "yes",
    "departures_board": "timetable",
    "highway": "bus_stop",
    "name": "G. de Maupassant",
    "public_transport": "platform",
    "shelter": "yes",
    "tactile_paving": "no",
    "wheelchair": "no"
  }
},
{
  "type": "node",
  "id": 8157689621,
  "lat": 49.5021325,
  "lon": 0.0866839,
  "tags": {
    "bench": "yes",
    "bus": "yes",
    "departures_board": "timetable",
    "highway": "bus_stop",
    "name": "Albert 1er",
    "public_transport": "platform",
    "shelter": "yes",
    "tactile_paving": "yes",
    "wheelchair": "yes"
  }
},
{
  "type": "node",
  "id": 8158770752,
  "lat": 49.4863738,
  "lon": 0.1112101,
  "tags": {
    "bench": "no",
    "bus": "yes",
    "departures_board": "timetable",
    "highway": "bus_stop",
    "name": "Le HAVRE : Grand Quai",
    "public_transport": "platform",
    "shelter": "no",
    "tactile_paving": "yes",
    "wheelchair": "yes"
  }
},
{
  "type": "node",
  "id": 8158837580,
  "lat": 49.4967885,
  "lon": 0.1108221,
  "tags": {
    "bench": "yes",
    "bin": "yes",
    "bus": "yes",
    "departures_board": "timetable",
    "highway": "bus_stop",
    "lit": "yes",
    "name": "R. Coty",
    "public_transport": "platform",
    "shelter": "yes",
    "tactile_paving": "yes",
    "wheelchair": "yes"
  }
},
{
  "type": "node",
  "id": 8158837581,
  "lat": 49.4971220,
  "lon": 0.1114312,
  "tags": {
    "bench": "yes",
    "bin": "no",
    "bus": "yes",
    "departures_board": "timetable",
    "highway": "bus_stop",
    "lit": "yes",
    "name": "R. Coty",
    "public_transport": "platform",
    "shelter": "yes",
    "tactile_paving": "yes",
    "wheelchair": "yes"
  }
},
{
  "type": "node",
  "id": 8163922987,
  "lat": 49.4973822,
  "lon": 0.1130177,
  "tags": {
    "bench": "yes",
    "bin": "yes",
    "bus": "yes",
    "departures_board": "timetable",
    "highway": "bus_stop",
    "lit": "yes",
    "name": "Hôpital Flaubert",
    "public_transport": "platform",
    "shelter": "yes",
    "tactile_paving": "yes",
    "wheelchair": "yes"
  }
},
{
  "type": "node",
  "id": 8163922988,
  "lat": 49.4975519,
  "lon": 0.1134645,
  "tags": {
    "bench": "yes",
    "bin": "yes",
    "bus": "yes",
    "departures_board": "timetable",
    "highway": "bus_stop",
    "lit": "yes",
    "name": "Hôpital Flaubert",
    "public_transport": "platform",
    "shelter": "yes",
    "tactile_paving": "yes",
    "wheelchair": "yes"
  }
},
{
  "type": "node",
  "id": 8163922989,
  "lat": 49.4984703,
  "lon": 0.1175426,
  "tags": {
    "bench": "yes",
    "bin": "yes",
    "bus": "yes",
    "departures_board": "timetable",
    "highway": "bus_stop",
    "lit": "yes",
    "name": "Ormeaux",
    "public_transport": "platform",
    "shelter": "yes",
    "tactile_paving": "yes",
    "wheelchair": "yes"
  }
},
{
  "type": "node",
  "id": 8163922990,
  "lat": 49.4983810,
  "lon": 0.1174249,
  "tags": {
    "bench": "yes",
    "bin": "yes",
    "bus": "yes",
    "departures_board": "timetable",
    "highway": "bus_stop",
    "lit": "yes",
    "name": "Ormeaux",
    "public_transport": "platform",
    "shelter": "yes",
    "tactile_paving": "yes",
    "wheelchair": "yes"
  }
},
{
  "type": "node",
  "id": 8163922991,
  "lat": 49.4997198,
  "lon": 0.1234228,
  "tags": {
    "bench": "yes",
    "bin": "yes",
    "bus": "yes",
    "departures_board": "timetable",
    "highway": "bus_stop",
    "lit": "yes",
    "name": "Condé",
    "public_transport": "platform",
    "shelter": "yes",
    "tactile_paving": "yes",
    "wheelchair": "yes"
  }
},
{
  "type": "node",
  "id": 8163922992,
  "lat": 49.4995118,
  "lon": 0.1221330,
  "tags": {
    "bench": "yes",
    "bin": "yes",
    "bus": "yes",
    "departures_board": "timetable",
    "highway": "bus_stop",
    "lit": "yes",
    "name": "Condé",
    "public_transport": "platform",
    "shelter": "yes",
    "tactile_paving": "yes",
    "wheelchair": "yes"
  }
},
{
  "type": "node",
  "id": 8163922995,
  "lat": 49.5000364,
  "lon": 0.1258985,
  "tags": {
    "bench": "yes",
    "bin": "yes",
    "bus": "yes",
    "departures_board": "timetable",
    "highway": "bus_stop",
    "lit": "yes",
    "name": "Reine Berthe",
    "public_transport": "platform",
    "shelter": "yes",
    "tactile_paving": "yes",
    "wheelchair": "yes"
  }
},
{
  "type": "node",
  "id": 8163922996,
  "lat": 49.4999517,
  "lon": 0.1264110,
  "tags": {
    "bench": "yes",
    "bin": "no",
    "bus": "yes",
    "departures_board": "timetable",
    "highway": "bus_stop",
    "lit": "yes",
    "name": "Reine Berthe",
    "public_transport": "platform",
    "shelter": "yes",
    "tactile_paving": "yes",
    "wheelchair": "yes"
  }
},
{
  "type": "node",
  "id": 8163984365,
  "lat": 49.5002875,
  "lon": 0.1351457,
  "tags": {
    "bench": "yes",
    "bin": "yes",
    "bus": "yes",
    "departures_board": "timetable",
    "highway": "bus_stop",
    "name": "M. Berthelot",
    "public_transport": "platform",
    "shelter": "yes",
    "tactile_paving": "yes",
    "wheelchair": "yes"
  }
},
{
  "type": "node",
  "id": 8163984366,
  "lat": 49.5002456,
  "lon": 0.1355092,
  "tags": {
    "bench": "yes",
    "bin": "yes",
    "bus": "yes",
    "departures_board": "timetable",
    "highway": "bus_stop",
    "name": "M. Berthelot",
    "public_transport": "platform",
    "shelter": "yes",
    "tactile_paving": "yes",
    "wheelchair": "yes"
  }
},
{
  "type": "node",
  "id": 8163988840,
  "lat": 49.4999420,
  "lon": 0.1291739,
  "tags": {
    "bench": "yes",
    "bin": "yes",
    "bus": "yes",
    "departures_board": "timetable",
    "highway": "bus_stop",
    "lit": "yes",
    "name": "Rond-Point",
    "public_transport": "platform",
    "shelter": "yes",
    "tactile_paving": "yes",
    "wheelchair": "yes"
  }
},
{
  "type": "node",
  "id": 8164054131,
  "lat": 49.5018602,
  "lon": 0.1546259,
  "tags": {
    "bench": "yes",
    "bin": "yes",
    "bus": "yes",
    "departures_board": "realtime",
    "highway": "bus_stop",
    "name": "Verdun",
    "public_transport": "platform",
    "shelter": "yes",
    "tactile_paving": "yes",
    "wheelchair": "yes"
  }
},
{
  "type": "node",
  "id": 8164054132,
  "lat": 49.5016786,
  "lon": 0.1536485,
  "tags": {
    "bench": "yes",
    "bin": "yes",
    "bus": "yes",
    "departures_board": "realtime",
    "highway": "bus_stop",
    "name": "Verdun",
    "public_transport": "platform",
    "shelter": "no",
    "tactile_paving": "yes",
    "wheelchair": "yes"
  }
},
{
  "type": "node",
  "id": 8164054133,
  "lat": 49.5022737,
  "lon": 0.1594401,
  "tags": {
    "bench": "yes",
    "bus": "yes",
    "departures_board": "realtime",
    "highway": "bus_stop",
    "name": "Bonsecours",
    "public_transport": "platform",
    "shelter": "yes",
    "tactile_paving": "yes",
    "wheelchair": "yes"
  }
},
{
  "type": "node",
  "id": 8164054134,
  "lat": 49.5022193,
  "lon": 0.1597769,
  "tags": {
    "bench": "yes",
    "bin": "no",
    "bus": "yes",
    "departures_board": "realtime",
    "highway": "bus_stop",
    "name": "Bonsecours",
    "public_transport": "platform",
    "shelter": "yes",
    "tactile_paving": "yes",
    "wheelchair": "yes"
  }
},
{
  "type": "node",
  "id": 8164054281,
  "lat": 49.5011176,
  "lon": 0.1465200,
  "tags": {
    "bench": "yes",
    "bin": "yes",
    "bus": "yes",
    "departures_board": "realtime",
    "highway": "bus_stop",
    "name": "Montmorency",
    "public_transport": "platform",
    "shelter": "yes",
    "tactile_paving": "yes",
    "wheelchair": "yes"
  }
},
{
  "type": "node",
  "id": 8164054282,
  "lat": 49.5010075,
  "lon": 0.1461240,
  "tags": {
    "bench": "yes",
    "bin": "yes",
    "bus": "yes",
    "departures_board": "realtime",
    "highway": "bus_stop",
    "name": "Montmorency",
    "public_transport": "platform",
    "shelter": "no",
    "tactile_paving": "yes",
    "wheelchair": "yes"
  }
},
{
  "type": "node",
  "id": 8164054283,
  "lat": 49.5013748,
  "lon": 0.1492315,
  "tags": {
    "bench": "yes",
    "bin": "yes",
    "bus": "yes",
    "departures_board": "realtime",
    "highway": "bus_stop",
    "name": "A. Barbès",
    "public_transport": "platform",
    "shelter": "yes",
    "tactile_paving": "yes",
    "wheelchair": "yes"
  }
},
{
  "type": "node",
  "id": 8164054284,
  "lat": 49.5013853,
  "lon": 0.1505204,
  "tags": {
    "bench": "yes",
    "bin": "yes",
    "bus": "yes",
    "departures_board": "realtime",
    "highway": "bus_stop",
    "name": "A. Barbès",
    "public_transport": "platform",
    "shelter": "yes",
    "tactile_paving": "yes",
    "wheelchair": "yes"
  }
},
{
  "type": "node",
  "id": 8164054285,
  "lat": 49.5015144,
  "lon": 0.1508007,
  "tags": {
    "bench": "yes",
    "bin": "yes",
    "bus": "yes",
    "departures_board": "timetable",
    "highway": "bus_stop",
    "name": "A. Barbès",
    "public_transport": "platform",
    "shelter": "yes",
    "tactile_paving": "yes",
    "wheelchair": "no"
  }
},
{
  "type": "node",
  "id": 8165170494,
  "lat": 49.5025379,
  "lon": 0.1687560,
  "tags": {
    "bench": "yes",
    "bin": "yes",
    "bus": "yes",
    "departures_board": "realtime",
    "highway": "bus_stop",
    "name": "J. Deschaseaux",
    "public_transport": "platform",
    "shelter": "yes",
    "tactile_paving": "yes",
    "wheelchair": "yes"
  }
},
{
  "type": "node",
  "id": 8165170495,
  "lat": 49.5024747,
  "lon": 0.1728033,
  "tags": {
    "bench": "yes",
    "bin": "yes",
    "bus": "yes",
    "departures_board": "realtime",
    "highway": "bus_stop",
    "name": "Dr Lamaze",
    "public_transport": "platform",
    "shelter": "no",
    "tactile_paving": "yes",
    "wheelchair": "yes"
  }
},
{
  "type": "node",
  "id": 8165170496,
  "lat": 49.5023973,
  "lon": 0.1730584,
  "tags": {
    "bench": "yes",
    "bin": "yes",
    "bus": "yes",
    "departures_board": "realtime",
    "highway": "bus_stop",
    "name": "Dr Lamaze",
    "public_transport": "platform",
    "shelter": "yes",
    "tactile_paving": "yes",
    "wheelchair": "yes"
  }
},
{
  "type": "node",
  "id": 8165170497,
  "lat": 49.5024384,
  "lon": 0.1755062,
  "tags": {
    "bench": "yes",
    "bin": "yes",
    "bus": "yes",
    "departures_board": "realtime",
    "highway": "bus_stop",
    "name": "Vélodrome",
    "public_transport": "platform",
    "shelter": "yes",
    "tactile_paving": "yes",
    "wheelchair": "yes"
  }
},
{
  "type": "node",
  "id": 8165170498,
  "lat": 49.5023494,
  "lon": 0.1753882,
  "tags": {
    "bench": "yes",
    "bin": "yes",
    "bus": "yes",
    "departures_board": "realtime",
    "highway": "bus_stop",
    "name": "Vélodrome",
    "public_transport": "platform",
    "shelter": "yes",
    "tactile_paving": "yes",
    "wheelchair": "yes"
  }
},
{
  "type": "node",
  "id": 8165170499,
  "lat": 49.5022778,
  "lon": 0.1816751,
  "tags": {
    "bench": "yes",
    "bin": "yes",
    "bus": "yes",
    "departures_board": "realtime",
    "highway": "bus_stop",
    "name": "Grandes Maisons",
    "public_transport": "platform",
    "shelter": "yes",
    "tactile_paving": "yes",
    "wheelchair": "yes"
  }
},
{
  "type": "node",
  "id": 8165170500,
  "lat": 49.5023713,
  "lon": 0.1806019,
  "tags": {
    "bench": "yes",
    "bin": "yes",
    "bus": "yes",
    "departures_board": "realtime",
    "highway": "bus_stop",
    "name": "Grandes Maisons",
    "public_transport": "platform",
    "shelter": "yes",
    "tactile_paving": "yes",
    "wheelchair": "yes"
  }
},
{
  "type": "node",
  "id": 8167246385,
  "lat": 49.5281098,
  "lon": 0.0991552,
  "tags": {
    "bench": "no",
    "bus": "yes",
    "departures_board": "timetable",
    "highway": "bus_stop",
    "name": "M. Bastié",
    "public_transport": "platform",
    "shelter": "no",
    "tactile_paving": "no",
    "wheelchair": "no"
  }
},
{
  "type": "node",
  "id": 8167246386,
  "lat": 49.5280828,
  "lon": 0.0993494,
  "tags": {
    "bench": "no",
    "bus": "yes",
    "departures_board": "timetable",
    "highway": "bus_stop",
    "name": "M. Bastié",
    "public_transport": "platform",
    "shelter": "no",
    "tactile_paving": "no",
    "wheelchair": "no"
  }
},
{
  "type": "node",
  "id": 8167296367,
  "lat": 49.5255752,
  "lon": 0.0966841,
  "tags": {
    "bench": "yes",
    "bus": "yes",
    "departures_board": "timetable",
    "highway": "bus_stop",
    "name": "Lavoisier",
    "public_transport": "platform",
    "shelter": "yes",
    "tactile_paving": "no",
    "wheelchair": "no"
  }
},
{
  "type": "node",
  "id": 8167296368,
  "lat": 49.5254813,
  "lon": 0.0966160,
  "tags": {
    "bench": "no",
    "bus": "yes",
    "departures_board": "timetable",
    "highway": "bus_stop",
    "name": "Lavoisier",
    "public_transport": "platform",
    "shelter": "no",
    "tactile_paving": "no",
    "wheelchair": "no"
  }
},
{
  "type": "node",
  "id": 8167296369,
  "lat": 49.5256627,
  "lon": 0.0900223,
  "tags": {
    "bench": "no",
    "bus": "yes",
    "departures_board": "timetable",
    "highway": "bus_stop",
    "lit": "no",
    "name": "R. Garros",
    "public_transport": "platform",
    "shelter": "no",
    "tactile_paving": "yes",
    "wheelchair": "no"
  }
},
{
  "type": "node",
  "id": 8167296370,
  "lat": 49.5260674,
  "lon": 0.0906332,
  "tags": {
    "bench": "no",
    "bus": "yes",
    "departures_board": "timetable",
    "highway": "bus_stop",
    "lit": "no",
    "name": "R. Garros",
    "public_transport": "platform",
    "shelter": "no",
    "tactile_paving": "no",
    "wheelchair": "no"
  }
},
{
  "type": "node",
  "id": 8167321907,
  "lat": 49.5228160,
  "lon": 0.0884840,
  "tags": {
    "bench": "no",
    "bus": "yes",
    "departures_board": "timetable",
    "highway": "bus_stop",
    "lit": "no",
    "name": "Y. Gagarine",
    "public_transport": "platform",
    "shelter": "no",
    "tactile_paving": "no",
    "wheelchair": "no"
  }
},
{
  "type": "node",
  "id": 8167321908,
  "lat": 49.5221592,
  "lon": 0.0885044,
  "tags": {
    "bench": "yes",
    "bus": "yes",
    "departures_board": "timetable",
    "highway": "bus_stop",
    "lit": "no",
    "name": "Y. Gagarine",
    "public_transport": "platform",
    "shelter": "no",
    "tactile_paving": "no",
    "wheelchair": "no"
  }
},
{
  "type": "node",
  "id": 8167321912,
  "lat": 49.5199617,
  "lon": 0.0899476,
  "tags": {
    "bench": "no",
    "bus": "yes",
    "departures_board": "timetable",
    "highway": "bus_stop",
    "lit": "no",
    "name": "Cdt Cousteau",
    "public_transport": "platform",
    "shelter": "no",
    "tactile_paving": "no",
    "wheelchair": "no"
  }
},
{
  "type": "node",
  "id": 8167321913,
  "lat": 49.5198805,
  "lon": 0.0901948,
  "tags": {
    "bench": "yes",
    "bus": "yes",
    "departures_board": "timetable",
    "highway": "bus_stop",
    "lit": "yes",
    "name": "Cdt Cousteau",
    "public_transport": "platform",
    "shelter": "yes",
    "tactile_paving": "no",
    "wheelchair": "no"
  }
},
{
  "type": "node",
  "id": 8167424763,
  "lat": 49.5197864,
  "lon": 0.0921302,
  "tags": {
    "bench": "no",
    "bus": "yes",
    "departures_board": "timetable",
    "highway": "bus_stop",
    "lit": "no",
    "name": "Saint Just",
    "public_transport": "platform",
    "shelter": "no",
    "tactile_paving": "no",
    "wheelchair": "no"
  }
},
{
  "type": "node",
  "id": 8167424764,
  "lat": 49.5196808,
  "lon": 0.0923416,
  "tags": {
    "bench": "yes",
    "bus": "yes",
    "departures_board": "timetable",
    "highway": "bus_stop",
    "lit": "no",
    "name": "Saint Just",
    "public_transport": "platform",
    "shelter": "no",
    "tactile_paving": "yes",
    "wheelchair": "no"
  }
},
{
  "type": "node",
  "id": 8167424766,
  "lat": 49.5188218,
  "lon": 0.0946810,
  "tags": {
    "bench": "no",
    "bus": "yes",
    "departures_board": "timetable",
    "highway": "bus_stop",
    "lit": "no",
    "name": "Dr Levesque",
    "public_transport": "platform",
    "shelter": "no",
    "tactile_paving": "yes",
    "wheelchair": "yes"
  }
},
{
  "type": "node",
  "id": 8167424767,
  "lat": 49.5179436,
  "lon": 0.0958870,
  "tags": {
    "bench": "yes",
    "bus": "yes",
    "departures_board": "timetable",
    "highway": "bus_stop",
    "lit": "yes",
    "name": "Bléville Église",
    "public_transport": "platform",
    "shelter": "yes",
    "tactile_paving": "yes",
    "wheelchair": "yes"
  }
},
{
  "type": "node",
  "id": 8167424768,
  "lat": 49.5174899,
  "lon": 0.0952597,
  "tags": {
    "bench": "no",
    "bus": "yes",
    "departures_board": "timetable",
    "highway": "bus_stop",
    "lit": "no",
    "name": "Bléville Église",
    "public_transport": "platform",
    "shelter": "no",
    "tactile_paving": "yes",
    "wheelchair": "no"
  }
},
{
  "type": "node",
  "id": 8167517146,
  "lat": 49.5154803,
  "lon": 0.0916435,
  "tags": {
    "bench": "no",
    "bus": "yes",
    "departures_board": "timetable",
    "highway": "bus_stop",
    "lit": "no",
    "name": "T. Gautier",
    "public_transport": "platform",
    "shelter": "no",
    "tactile_paving": "yes",
    "wheelchair": "yes"
  }
},
{
  "type": "node",
  "id": 8167576423,
  "lat": 49.5127518,
  "lon": 0.0898123,
  "tags": {
    "bench": "no",
    "bus": "yes",
    "departures_board": "timetable",
    "highway": "bus_stop",
    "lit": "no",
    "name": "J. Bourgogne",
    "public_transport": "platform",
    "shelter": "no",
    "tactile_paving": "yes",
    "wheelchair": "yes"
  }
},
{
  "type": "node",
  "id": 8168474239,
  "lat": 49.5114806,
  "lon": 0.0908773,
  "tags": {
    "bench": "no",
    "bus": "yes",
    "departures_board": "timetable",
    "highway": "bus_stop",
    "lit": "no",
    "name": "Dr Maire",
    "public_transport": "platform",
    "shelter": "no",
    "tactile_paving": "yes",
    "wheelchair": "yes"
  }
},
{
  "type": "node",
  "id": 8168474240,
  "lat": 49.5113170,
  "lon": 0.0942507,
  "tags": {
    "bench": "no",
    "bus": "yes",
    "departures_board": "timetable",
    "highway": "bus_stop",
    "name": "J. Cocteau",
    "public_transport": "platform",
    "shelter": "no",
    "tactile_paving": "yes",
    "wheelchair": "yes"
  }
},
{
  "type": "node",
  "id": 8168474241,
  "lat": 49.5111584,
  "lon": 0.0953380,
  "tags": {
    "bench": "yes",
    "bus": "yes",
    "departures_board": "timetable",
    "highway": "bus_stop",
    "name": "J. Cocteau",
    "public_transport": "platform",
    "shelter": "yes",
    "tactile_paving": "yes",
    "wheelchair": "yes"
  }
},
{
  "type": "node",
  "id": 8168474242,
  "lat": 49.5110195,
  "lon": 0.0988080,
  "tags": {
    "bench": "yes",
    "bus": "yes",
    "departures_board": "timetable",
    "highway": "bus_stop",
    "lit": "yes",
    "name": "L. Siefridt",
    "public_transport": "platform",
    "shelter": "yes",
    "tactile_paving": "yes",
    "wheelchair": "yes"
  }
},
{
  "type": "node",
  "id": 8168474243,
  "lat": 49.5109558,
  "lon": 0.0988477,
  "tags": {
    "bench": "no",
    "bus": "yes",
    "departures_board": "timetable",
    "highway": "bus_stop",
    "lit": "no",
    "name": "L. Siefridt",
    "public_transport": "platform",
    "shelter": "no",
    "tactile_paving": "yes",
    "wheelchair": "yes"
  }
},
{
  "type": "node",
  "id": 8168531116,
  "lat": 49.5102544,
  "lon": 0.1036670,
  "tags": {
    "bench": "no",
    "bus": "yes",
    "departures_board": "timetable",
    "highway": "bus_stop",
    "lit": "no",
    "name": "C. Oursel",
    "public_transport": "platform",
    "shelter": "no",
    "tactile_paving": "no",
    "wheelchair": "no"
  }
},
{
  "type": "node",
  "id": 8168540917,
  "lat": 49.5096095,
  "lon": 0.1068009,
  "tags": {
    "bench": "no",
    "bus": "yes",
    "departures_board": "timetable",
    "highway": "bus_stop",
    "lit": "no",
    "name": "J. Borda",
    "public_transport": "platform",
    "shelter": "no",
    "tactile_paving": "yes",
    "wheelchair": "yes"
  }
},
{
  "type": "node",
  "id": 8168540918,
  "lat": 49.5095480,
  "lon": 0.1068064,
  "tags": {
    "bench": "no",
    "bus": "yes",
    "departures_board": "timetable",
    "highway": "bus_stop",
    "lit": "no",
    "name": "J. Borda",
    "public_transport": "platform",
    "shelter": "no",
    "tactile_paving": "yes",
    "wheelchair": "yes"
  }
},
{
  "type": "node",
  "id": 8168540919,
  "lat": 49.5083767,
  "lon": 0.1103364,
  "tags": {
    "bench": "no",
    "bus": "yes",
    "departures_board": "timetable",
    "highway": "bus_stop",
    "lit": "no",
    "name": "P. Lion",
    "public_transport": "platform",
    "shelter": "no",
    "tactile_paving": "yes",
    "wheelchair": "yes"
  }
},
{
  "type": "node",
  "id": 8168540920,
  "lat": 49.5083173,
  "lon": 0.1102636,
  "tags": {
    "bench": "yes",
    "bus": "yes",
    "departures_board": "timetable",
    "highway": "bus_stop",
    "lit": "no",
    "name": "P. Lion",
    "public_transport": "platform",
    "shelter": "no",
    "tactile_paving": "yes",
    "wheelchair": "yes"
  }
},
{
  "type": "node",
  "id": 8168540922,
  "lat": 49.5059157,
  "lon": 0.1142138,
  "tags": {
    "bench": "yes",
    "bus": "yes",
    "departures_board": "timetable",
    "highway": "bus_stop",
    "lit": "yes",
    "name": "R. Salengro",
    "public_transport": "platform",
    "shelter": "yes",
    "tactile_paving": "yes",
    "wheelchair": "yes"
  }
},
{
  "type": "node",
  "id": 8168594086,
  "lat": 49.4938290,
  "lon": 0.1122997,
  "tags": {
    "bench": "yes",
    "bus": "yes",
    "departures_board": "timetable",
    "highway": "bus_stop",
    "lit": "no",
    "name": "Sous-Préfecture",
    "public_transport": "platform",
    "shelter": "no",
    "surface": "asphalt",
    "tactile_paving": "yes",
    "wheelchair": "yes"
  }
},
{
  "type": "node",
  "id": 8168594087,
  "lat": 49.4936171,
  "lon": 0.1152595,
  "tags": {
    "bench": "no",
    "bus": "yes",
    "departures_board": "timetable",
    "highway": "bus_stop",
    "lit": "no",
    "name": "Palais de Justice",
    "public_transport": "platform",
    "shelter": "no",
    "surface": "asphalt",
    "tactile_paving": "yes",
    "wheelchair": "yes"
  }
},
{
  "type": "node",
  "id": 8168594088,
  "lat": 49.4933688,
  "lon": 0.1172886,
  "tags": {
    "bench": "no",
    "bus": "yes",
    "departures_board": "timetable",
    "highway": "bus_stop",
    "lit": "no",
    "name": "Palais de Justice",
    "public_transport": "platform",
    "shelter": "no",
    "surface": "asphalt",
    "tactile_paving": "yes",
    "wheelchair": "yes"
  }
},
{
  "type": "node",
  "id": 8168610698,
  "lat": 49.4931184,
  "lon": 0.1205557,
  "tags": {
    "bench": "yes",
    "bus": "yes",
    "departures_board": "timetable",
    "highway": "bus_stop",
    "lit": "yes",
    "name": "Gal Sarrail",
    "public_transport": "platform",
    "shelter": "yes",
    "surface": "asphalt",
    "tactile_paving": "yes",
    "wheelchair": "no"
  }
},
{
  "type": "node",
  "id": 8168622280,
  "lat": 49.4929819,
  "lon": 0.1211863,
  "tags": {
    "bench": "no",
    "bus": "yes",
    "departures_board": "timetable",
    "highway": "bus_stop",
    "name": "Gal Sarrail",
    "public_transport": "platform",
    "shelter": "no",
    "surface": "asphalt",
    "tactile_paving": "no",
    "wheelchair": "no"
  }
},
{
  "type": "node",
  "id": 8168622290,
  "lat": 49.4918099,
  "lon": 0.1245940,
  "tags": {
    "bench": "yes",
    "bin": "yes",
    "bus": "yes",
    "departures_board": "timetable",
    "highway": "bus_stop",
    "name": "Le Havre : Gares",
    "public_transport": "platform",
    "shelter": "yes",
    "surface": "asphalt",
    "tactile_paving": "yes",
    "wheelchair": "yes"
  }
},
{
  "type": "node",
  "id": 8168622291,
  "lat": 49.4919346,
  "lon": 0.1249263,
  "tags": {
    "bench": "yes",
    "bin": "no",
    "bus": "yes",
    "departures_board": "timetable",
    "highway": "bus_stop",
    "lit": "yes",
    "name": "Le Havre : Gares",
    "public_transport": "platform",
    "shelter": "yes",
    "surface": "asphalt",
    "tactile_paving": "yes",
    "wheelchair": "yes"
  }
},
{
  "type": "node",
  "id": 8170630674,
  "lat": 49.4923512,
  "lon": 0.1292438,
  "tags": {
    "bench": "no",
    "bin": "no",
    "bus": "yes",
    "departures_board": "timetable",
    "highway": "bus_stop",
    "name": "Colbert",
    "public_transport": "platform",
    "shelter": "no",
    "tactile_paving": "no",
    "wheelchair": "no"
  }
},
{
  "type": "node",
  "id": 8170630675,
  "lat": 49.4910262,
  "lon": 0.1330721,
  "tags": {
    "bench": "yes",
    "bus": "yes",
    "departures_board": "timetable",
    "highway": "bus_stop",
    "name": "Docks Vauban",
    "public_transport": "platform",
    "shelter": "yes",
    "tactile_paving": "yes",
    "wheelchair": "no"
  }
},
{
  "type": "node",
  "id": 8170630676,
  "lat": 49.4908121,
  "lon": 0.1335053,
  "tags": {
    "bench": "yes",
    "bus": "yes",
    "departures_board": "timetable",
    "highway": "bus_stop",
    "name": "Docks Vauban",
    "public_transport": "platform",
    "shelter": "yes",
    "tactile_paving": "yes",
    "wheelchair": "no"
  }
},
{
  "type": "node",
  "id": 8170630679,
  "lat": 49.4888214,
  "lon": 0.1344244,
  "tags": {
    "bench": "yes",
    "bus": "yes",
    "departures_board": "timetable",
    "highway": "bus_stop",
    "name": "Carré des Docks",
    "public_transport": "platform",
    "shelter": "no",
    "tactile_paving": "yes",
    "wheelchair": "yes"
  }
},
{
  "type": "node",
  "id": 8170630681,
  "lat": 49.4878779,
  "lon": 0.1345996,
  "tags": {
    "bench": "yes",
    "bus": "yes",
    "departures_board": "timetable",
    "highway": "bus_stop",
    "name": "Carré des Docks",
    "public_transport": "platform",
    "shelter": "yes",
    "tactile_paving": "no",
    "wheelchair": "no"
  }
},
{
  "type": "node",
  "id": 8170632004,
  "lat": 49.4855132,
  "lon": 0.1315494,
  "tags": {
    "bench": "yes",
    "bus": "yes",
    "departures_board": "timetable",
    "highway": "bus_stop",
    "name": "Grands Bassins",
    "public_transport": "platform",
    "shelter": "yes",
    "tactile_paving": "no",
    "wheelchair": "no"
  }
},
{
  "type": "node",
  "id": 8170632005,
  "lat": 49.4846450,
  "lon": 0.1309849,
  "tags": {
    "bench": "no",
    "bus": "yes",
    "departures_board": "timetable",
    "highway": "bus_stop",
    "name": "Grands Bassins",
    "public_transport": "platform",
    "shelter": "no",
    "tactile_paving": "no",
    "wheelchair": "no"
  }
},