{
  "version": 0.6,
  "generator": "Overpass API 0.7.57.1 74a55df1",
  "osm3s": {
    "timestamp_osm_base": "2022-02-13T13:28:39Z",
    "timestamp_areas_base": "2022-02-13T06:29:09Z",
    "copyright": "The data included in this document is from www.openstreetmap.org. The data is made available under ODbL."
  },
  "elements": [

{
  "type": "node",
  "id": 278845625,
  "lat": 49.2545714,
  "lon": 4.0403556,
  "tags": {
    "bench": "yes",
    "bus": "yes",
    "departures_board": "timetable",
    "highway": "bus_stop",
    "local_ref": "3",
    "name": "Jamot",
    "network": "CITURA",
    "operator": "Transdev Reims",
    "public_transport": "platform",
    "shelter": "no"
  }
},
{
  "type": "node",
  "id": 280024909,
  "lat": 49.2246477,
  "lon": 4.0095618,
  "tags": {
    "bench": "yes",
    "bus": "yes",
    "departures_board": "timetable",
    "highway": "bus_stop",
    "name": "Léon Blum",
    "network": "CITURA",
    "note": "Arrêt ligne 11 (Gare Centre).",
    "operator": "Transdev Reims",
    "public_transport": "platform",
    "shelter": "yes"
  }
},
{
  "type": "node",
  "id": 281788377,
  "lat": 49.2372424,
  "lon": 4.0043800,
  "tags": {
    "bus": "yes",
    "highway": "bus_stop",
    "name": "Campus Croix Rouge",
    "network": "CITURA",
    "operator": "Transdev Reims",
    "public_transport": "platform"
  }
},
{
  "type": "node",
  "id": 281788486,
  "lat": 49.2458219,
  "lon": 4.0180490,
  "tags": {
    "highway": "bus_stop",
    "name": "Passe Demoiselles",
    "public_transport": "platform"
  }
},
{
  "type": "node",
  "id": 283281478,
  "lat": 49.2682911,
  "lon": 3.9993077,
  "tags": {
    "bus": "yes",
    "highway": "bus_stop",
    "public_transport": "platform"
  }
},
{
  "type": "node",
  "id": 301798040,
  "lat": 49.2598218,
  "lon": 4.0406178,
  "tags": {
    "bench": "yes",
    "bus": "yes",
    "departures_board": "timetable",
    "highway": "bus_stop",
    "name": "Templiers",
    "public_transport": "platform",
    "shelter": "yes"
  }
},
{
  "type": "node",
  "id": 302030948,
  "lat": 49.2416293,
  "lon": 4.0378253,
  "tags": {
    "highway": "bus_stop",
    "name": "Fléchambeau",
    "public_transport": "platform",
    "shelter": "yes"
  }
},
{
  "type": "node",
  "id": 302031169,
  "lat": 49.2422640,
  "lon": 4.0370312,
  "tags": {
    "bus": "yes",
    "departures_board": "timetable",
    "highway": "bus_stop",
    "name": "Fléchambeau",
    "network": "CITURA",
    "note": "Arrêt ligne 11 et 40.",
    "operator": "Transdev Reims",
    "public_transport": "platform",
    "shelter": "yes"
  }
},
{
  "type": "node",
  "id": 302385127,
  "lat": 49.2520005,
  "lon": 4.0323953,
  "tags": {
    "bench": "yes",
    "bin": "yes",
    "bus": "yes",
    "departures_board": "realtime",
    "highway": "bus_stop",
    "lit": "yes",
    "name": "Rockfeller",
    "public_transport": "platform",
    "shelter": "yes",
    "tactile_paving": "yes"
  }
},
{
  "type": "node",
  "id": 305348832,
  "lat": 49.2486282,
  "lon": 4.0219235,
  "tags": {
    "highway": "bus_stop",
    "name": "Pont de Gaulle",
    "public_transport": "platform",
    "shelter": "no"
  }
},
{
  "type": "node",
  "id": 343375236,
  "lat": 49.2461410,
  "lon": 4.0087022,
  "tags": {
    "bench": "yes",
    "bus": "yes",
    "departures_board": "timetable",
    "highway": "bus_stop",
    "name": "Scupteurs Jacques",
    "network": "CITURA",
    "operator": "TransDev Reims",
    "public_transport": "platform",
    "shelter": "yes",
    "source": "cadastre-dgi-fr source : Direction Générale des Impôts - Cadastre;mise à jour : 2008"
  }
},
{
  "type": "node",
  "id": 343426292,
  "lat": 49.2289980,
  "lon": 4.0014097,
  "tags": {
    "bench": "no",
    "bus": "yes",
    "departures_board": "timetable",
    "highway": "bus_stop",
    "name": "Dauphiné",
    "network": "CITURA",
    "operator": "Transdev Reims",
    "public_transport": "platform",
    "shelter": "no",
    "source": "cadastre-dgi-fr source : Direction Générale des Impôts - Cadastre;mise à jour : 2008"
  }
},
{
  "type": "node",
  "id": 348832950,
  "lat": 49.2156604,
  "lon": 4.0279998,
  "tags": {
    "bus": "yes",
    "departures_board": "no",
    "highway": "bus_stop",
    "name": "Richelieu",
    "note": "Source : https://www.data.gouv.fr/fr/datasets/parcours-arrets-et-horaires-theoriques-du-reseau-de-transport-citura-de-la-communaute-urbaine-du-grand-reims-gtfs/",
    "public_transport": "platform",
    "shelter": "no",
    "source": "cadastre-dgi-fr source : Direction Générale des Impôts - Cadastre;mise à jour : 2008",
    "tactile_paving": "no"
  }
},
{
  "type": "node",
  "id": 349050691,
  "lat": 49.2465803,
  "lon": 4.0181190,
  "tags": {
    "highway": "bus_stop",
    "name": "Passe Demoiselles ?",
    "note": "A vérifier",
    "public_transport": "platform",
    "source": "cadastre-dgi-fr source : Direction Générale des Impôts - Cadastre ; mise à jour : 2008"
  }
},
{
  "type": "node",
  "id": 351928209,
  "lat": 49.2486875,
  "lon": 4.0374236,
  "tags": {
    "bus": "yes",
    "departures_board": "realtime",
    "highway": "bus_stop",
    "local_ref": "4|5|6|9",
    "name": "Venise",
    "public_transport": "platform",
    "shelter": "yes"
  }
},
{
  "type": "node",
  "id": 352811113,
  "lat": 49.2436697,
  "lon": 4.0431217,
  "tags": {
    "bench": "yes",
    "bus": "yes",
    "departures_board": "timetable",
    "highway": "bus_stop",
    "name": "Saint-Thimothée",
    "public_transport": "platform",
    "shelter": "yes",
    "source": "cadastre-dgi-fr source : Direction Générale des Impôts - Cadastre;mise à jour : 2008"
  }
},
{
  "type": "node",
  "id": 354541231,
  "lat": 49.2601693,
  "lon": 4.0467095,
  "tags": {
    "bench": "yes",
    "bin": "yes",
    "bus": "yes",
    "highway": "bus_stop",
    "lit": "yes",
    "name": "Brouette",
    "network": "CITURA",
    "operator": "TransDev",
    "public_transport": "platform",
    "shelter": "yes",
    "source": "cadastre-dgi-fr source : Direction Générale des Impôts - Cadastre;mise à jour : 2008",
    "tactile_paving": "yes"
  }
},
{
  "type": "node",
  "id": 354602726,
  "lat": 49.2448264,
  "lon": 4.0487297,
  "tags": {
    "bench": "yes",
    "bus": "yes",
    "departures_board": "timetable",
    "highway": "bus_stop",
    "name": "Gouraud",
    "network": "CITURA",
    "operator": "Transdev Reims",
    "public_transport": "platform",
    "shelter": "yes"
  }
},
{
  "type": "node",
  "id": 354988757,
  "lat": 49.2492121,
  "lon": 4.0655422,
  "tags": {
    "bench": "yes",
    "bus": "yes",
    "departures_board": "timetable",
    "highway": "bus_stop",
    "name": "Meuse",
    "note": "Arrêt pour ligne 11 (Croix du Sud) et 30 (Moulin de la Housse)",
    "public_transport": "platform",
    "shelter": "yes"
  }
},
{
  "type": "node",
  "id": 357370333,
  "lat": 49.2624884,
  "lon": 4.0530997,
  "tags": {
    "bench": "yes",
    "bus": "yes",
    "departures_board": "no",
    "highway": "bus_stop",
    "name": "Chalet",
    "public_transport": "platform",
    "shelter": "yes",
    "source": "cadastre-dgi-fr source : Direction Générale des Impôts - Cadastre;mise à jour : 2008"
  }
},
{
  "type": "node",
  "id": 357462766,
  "lat": 49.2695656,
  "lon": 4.0714235,
  "tags": {
    "bench": "yes",
    "bus": "yes",
    "highway": "bus_stop",
    "name": "Route de Witry",
    "public_transport": "platform",
    "shelter": "yes",
    "source": "cadastre-dgi-fr source : Direction Générale des Impôts - Cadastre. Mise à jour : 2009"
  }
},
{
  "type": "node",
  "id": 368322607,
  "lat": 49.2347400,
  "lon": 4.0074965,
  "tags": {
    "highway": "bus_stop",
    "name": "Billard",
    "public_transport": "platform",
    "shelter": "yes"
  }
},
{
  "type": "node",
  "id": 456317557,
  "lat": 49.2418929,
  "lon": 4.0156297,
  "tags": {
    "bench": "yes",
    "bus": "yes",
    "departures_board": "no",
    "highway": "bus_stop",
    "name": "Franchet d'Esperey",
    "network": "CITURA",
    "operator": "TransDev",
    "public_transport": "platform",
    "shelter": "yes"
  }
},
{
  "type": "node",
  "id": 456317562,
  "lat": 49.2365586,
  "lon": 4.0259449,
  "tags": {
    "bench": "yes",
    "bus": "yes",
    "departures_board": "timetable",
    "highway": "bus_stop",
    "name": "Wilson",
    "network": "CITURA",
    "note": "Arrêt pour ligne 2 et 11.",
    "operator": "Transdev Reims",
    "public_transport": "platform",
    "shelter": "yes"
  }
},
{
  "type": "node",
  "id": 456317564,
  "lat": 49.2356545,
  "lon": 4.0271078,
  "tags": {
    "bench": "yes",
    "bus": "yes",
    "departures_board": "timetable",
    "highway": "bus_stop",
    "name": "Wilson",
    "network": "CITURA",
    "note": "Arrêt pour ligne 2, 11 et 40.",
    "operator": "Transdev Reims",
    "public_transport": "platform",
    "shelter": "yes"
  }
},
{
  "type": "node",
  "id": 456317569,
  "lat": 49.2422305,
  "lon": 4.0401741,
  "tags": {
    "bus": "yes",
    "departures_board": "timetable",
    "description": "Arrêt Bus Saint-Remi dessert l'esplanade Fléchambault, la rue Chanteraine, quartier Saint-Remi en vue de la basilique Saint-Remi",
    "highway": "bus_stop",
    "lit": "yes",
    "local_ref": "4|11",
    "name": "Saint-Rémi",
    "note": "Arrêt Saint-Remi ligne 6 Reims Hopital Debré Orgeval Arrêt Saint-Remi ligne 11 Croix du Sud",
    "public_transport": "platform",
    "shelter": "yes",
    "wheelchair": "yes"
  }
},
{
  "type": "node",
  "id": 456317571,
  "lat": 49.2435388,
  "lon": 4.0435724,
  "tags": {
    "bench": "yes",
    "bus": "yes",
    "departures_board": "timetable",
    "highway": "bus_stop",
    "name": "Saint-Thimothée",
    "network": "CITURA",
    "operator": "Transdev Reims",
    "public_transport": "platform",
    "shelter": "yes"
  }
},
{
  "type": "node",
  "id": 456317573,
  "lat": 49.2459300,
  "lon": 4.0464201,
  "tags": {
    "bench": "yes",
    "bus": "yes",
    "departures_board": "timetable",
    "highway": "bus_stop",
    "name": "Vasnier",
    "note": "Arrêt ligne 11 (Croix du Sud).",
    "public_transport": "platform",
    "shelter": "no"
  }
},
{
  "type": "node",
  "id": 459898439,
  "lat": 49.2278241,
  "lon": 4.0143010,
  "tags": {
    "bus": "yes",
    "departures_board": "timetable",
    "highway": "bus_stop",
    "name": "Médiathèque Croix Rouge",
    "public_transport": "platform",
    "shelter": "no"
  }
},
{
  "type": "node",
  "id": 459898462,
  "lat": 49.2481905,
  "lon": 4.0215855,
  "tags": {
    "highway": "bus_stop",
    "name": "Pont de Gaulle",
    "public_transport": "platform"
  }
},
{
  "type": "node",
  "id": 459898467,
  "lat": 49.2510483,
  "lon": 4.0282233,
  "tags": {
    "highway": "bus_stop",
    "name": "Libergier",
    "public_transport": "platform"
  }
},
{
  "type": "node",
  "id": 459898496,
  "lat": 49.2526375,
  "lon": 4.0309968,
  "tags": {
    "highway": "bus_stop",
    "name": "Théâtre",
    "public_transport": "platform"
  }
},
{
  "type": "node",
  "id": 469880082,
  "lat": 49.2385207,
  "lon": 4.0024864,
  "tags": {
    "bench": "yes",
    "bus": "yes",
    "departures_board": "timetable",
    "highway": "bus_stop",
    "name": "Bergson",
    "network": "CITURA",
    "operator": "Transdev Reims",
    "public_transport": "platform",
    "shelter": "yes"
  }
},
{
  "type": "node",
  "id": 469880086,
  "lat": 49.2283957,
  "lon": 4.0368452,
  "tags": {
    "bench": "yes",
    "bus": "yes",
    "departures_board": "no",
    "highway": "bus_stop",
    "name": "Colomb",
    "public_transport": "platform",
    "shelter": "yes"
  }
},
{
  "type": "node",
  "id": 469880087,
  "lat": 49.2284965,
  "lon": 4.0364722,
  "tags": {
    "bench": "yes",
    "bus": "yes",
    "departures_board": "yes",
    "highway": "bus_stop",
    "name": "Colomb",
    "public_transport": "platform",
    "shelter": "yes"
  }
},
{
  "type": "node",
  "id": 469880103,
  "lat": 49.2348297,
  "lon": 4.0621988,
  "tags": {
    "bench": "yes",
    "bus": "yes",
    "departures_board": "no",
    "highway": "bus_stop",
    "local_ref": "6",
    "name": "Parc Expositions",
    "network": "CITURA",
    "operator": "Transdev Reims",
    "public_transport": "platform",
    "shelter": "yes"
  }
},
{
  "type": "node",
  "id": 469880109,
  "lat": 49.2400952,
  "lon": 4.0212438,
  "tags": {
    "bus": "yes",
    "highway": "bus_stop",
    "name": "Marchandeau",
    "network": "CITURA",
    "operator": "TransDev Reims",
    "public_transport": "platform"
  }
},
{
  "type": "node",
  "id": 469880120,
  "lat": 49.2570431,
  "lon": 4.0384337,
  "tags": {
    "bench": "yes",
    "bus": "yes",
    "departures_board": "yes",
    "highway": "bus_stop",
    "name": "Briand",
    "public_transport": "platform",
    "shelter": "yes"
  }
},
{
  "type": "node",
  "id": 469880123,
  "lat": 49.2572834,
  "lon": 4.0475407,
  "tags": {
    "bus": "yes",
    "departures_board": "no",
    "highway": "bus_stop",
    "name": "Ferry",
    "public_transport": "platform",
    "shelter": "no"
  }
},
{
  "type": "node",
  "id": 469880125,
  "lat": 49.2592542,
  "lon": 4.0446387,
  "tags": {
    "bench": "yes",
    "bus": "yes",
    "departures_board": "no",
    "highway": "bus_stop",
    "name": "Jacquart",
    "public_transport": "platform",
    "shelter": "no"
  }
},
{
  "type": "node",
  "id": 469880126,
  "lat": 49.2573614,
  "lon": 4.0448928,
  "tags": {
    "bus": "yes",
    "highway": "bus_stop",
    "name": "30 Août 1944",
    "public_transport": "platform"
  }
},
{
  "type": "node",
  "id": 469880127,
  "lat": 49.2098491,
  "lon": 4.0251741,
  "tags": {
    "bench": "yes",
    "bus": "yes",
    "departures_board": "no",
    "highway": "bus_stop",
    "name": "Val de Murigny",
    "public_transport": "platform",
    "shelter": "yes"
  }
},
{
  "type": "node",
  "id": 469880129,
  "lat": 49.2193160,
  "lon": 4.0239183,
  "tags": {
    "bench": "yes",
    "bus": "yes",
    "departures_board": "no",
    "highway": "bus_stop",
    "name": "Cervantès",
    "network": "CITURA",
    "operator": "TransDev",
    "public_transport": "platform",
    "shelter": "yes"
  }
},
{
  "type": "node",
  "id": 469880131,
  "lat": 49.2176231,
  "lon": 4.0286602,
  "tags": {
    "bench": "yes",
    "bus": "yes",
    "departures_board": "no",
    "highway": "bus_stop",
    "name": "Pompidou",
    "public_transport": "platform",
    "shelter": "yes"
  }
},
{
  "type": "node",
  "id": 469880132,
  "lat": 49.2619362,
  "lon": 4.0422809,
  "tags": {
    "bench": "yes",
    "bus": "yes",
    "departures_board": "timetable",
    "highway": "bus_stop",
    "name": "Dorigny",
    "network": "CITURA",
    "operator": "Transdev Reims",
    "public_transport": "platform",
    "shelter": "yes"
  }
},
{
  "type": "node",
  "id": 494402123,
  "lat": 49.2574230,
  "lon": 4.0255274,
  "tags": {
    "bus": "yes",
    "departures_board": "realtime",
    "highway": "bus_stop",
    "name": "Gare Centre",
    "note": "Arrêt pour ligne 3, 4, 7, 8, 9, 30 et N.",
    "public_transport": "platform",
    "shelter": "yes"
  }
},
{
  "type": "node",
  "id": 1025130746,
  "lat": 49.2280757,
  "lon": 4.0378322,
  "tags": {
    "bus": "yes",
    "highway": "bus_stop",
    "name": "Colomb",
    "network": "CITURA",
    "operator": "TransDev",
    "public_transport": "platform"
  }
},
{
  "type": "node",
  "id": 1071288340,
  "lat": 49.2453925,
  "lon": 4.0392129,
  "tags": {
    "bench": "yes",
    "bus": "yes",
    "departures_board": "no",
    "highway": "bus_stop",
    "name": "Ruisselet",
    "network": "CITURA",
    "operator": "Transdev reims",
    "public_transport": "platform",
    "shelter": "yes"
  }
},
{
  "type": "node",
  "id": 1821594189,
  "lat": 49.2256784,
  "lon": 4.0173101,
  "tags": {
    "highway": "bus_stop",
    "name": "Hôpital Debré Reims",
    "public_transport": "platform"
  }
},
{
  "type": "node",
  "id": 1833557866,
  "lat": 49.2679071,
  "lon": 4.0468125,
  "tags": {
    "bench": "yes",
    "bus": "yes",
    "departures_board": "no",
    "highway": "bus_stop",
    "name": "Bel Air",
    "public_transport": "platform",
    "shelter": "yes"
  }
},
{
  "type": "node",
  "id": 2134350706,
  "lat": 49.2585281,
  "lon": 4.0248433,
  "tags": {
    "bench": "yes",
    "bin": "yes",
    "bus": "yes",
    "highway": "bus_stop",
    "name": "Gare Centre",
    "network": "CITURA",
    "note": "Arrêt pour ligne 2, 6, 11 et C.",
    "operator": "Transdev Reims",
    "public_transport": "platform",
    "shelter": "yes"
  }
},
{
  "type": "node",
  "id": 2134357411,
  "lat": 49.2577105,
  "lon": 4.0251427,
  "tags": {
    "bench": "yes",
    "bus": "yes",
    "departures_board": "realtime",
    "highway": "bus_stop",
    "name": "Gare Centre",
    "note": "Arrêt pour ligne 3, 4 et 9.",
    "public_transport": "platform",
    "shelter": "yes"
  }
},
{
  "type": "node",
  "id": 2223395113,
  "lat": 49.2354855,
  "lon": 4.0694297,
  "tags": {
    "bench": "yes",
    "bus": "yes",
    "departures_board": "no",
    "highway": "bus_stop",
    "local_ref": "6",
    "name": "Ader",
    "network": "CITURA",
    "operator": "Transdev Reims",
    "public_transport": "platform",
    "shelter": "yes"
  }
},
{
  "type": "node",
  "id": 2223395125,
  "lat": 49.2399718,
  "lon": 4.0835860,
  "tags": {
    "bus": "yes",
    "departures_board": "no",
    "highway": "bus_stop",
    "local_ref": "6",
    "name": "Croix Blandin",
    "network": "CITURA",
    "operator": "TransDev",
    "public_transport": "platform",
    "shelter": "no"
  }
},
{
  "type": "node",
  "id": 2223395142,
  "lat": 49.2366476,
  "lon": 4.0712997,
  "tags": {
    "bench": "yes",
    "bus": "yes",
    "departures_board": "no",
    "highway": "bus_stop",
    "local_ref": "6",
    "name": "Z.I. Farman",
    "network": "CITURA",
    "operator": "Transdev Reims",
    "public_transport": "platform",
    "shelter": "yes"
  }
},
{
  "type": "node",
  "id": 2223395145,
  "lat": 49.2359401,
  "lon": 4.0666563,
  "tags": {
    "bench": "yes",
    "bus": "yes",
    "departures_board": "no",
    "highway": "bus_stop",
    "local_ref": "6",
    "name": "Patoux",
    "network": "CITURA",
    "operator": "Transdev Reims",
    "public_transport": "platform",
    "shelter": "yes"
  }
},
{
  "type": "node",
  "id": 2223395151,
  "lat": 49.2337526,
  "lon": 4.0609416,
  "tags": {
    "bus": "yes",
    "departures_board": "no",
    "highway": "bus_stop",
    "local_ref": "6|17",
    "name": "Sabine",
    "network": "CITURA",
    "operator": "Transdev Reims",
    "public_transport": "platform",
    "shelter": "no"
  }
},
{
  "type": "node",
  "id": 2451009172,
  "lat": 49.2349282,
  "lon": 4.0552881,
  "tags": {
    "bus": "yes",
    "departures_board": "timetable",
    "highway": "bus_stop",
    "local_ref": "6|17",
    "name": "Flamand",
    "network": "CITURA",
    "operator": "Transdev Reims",
    "public_transport": "platform",
    "shelter": "no"
  }
},
{
  "type": "node",
  "id": 2451009173,
  "lat": 49.2355871,
  "lon": 4.0529745,
  "tags": {
    "bus": "yes",
    "departures_board": "timetable",
    "highway": "bus_stop",
    "name": "Bressy",
    "public_transport": "platform",
    "route_ref": "6|17",
    "shelter": "no"
  }
},
{
  "type": "node",
  "id": 2451009174,
  "lat": 49.2362909,
  "lon": 4.0506818,
  "tags": {
    "bench": "yes",
    "bus": "yes",
    "departures_board": "timetable",
    "highway": "bus_stop",
    "local_ref": "6|17",
    "name": "Gonzalle",
    "network": "CITURA",
    "operator": "Transdev Reims",
    "public_transport": "platform",
    "shelter": "yes",
    "source": "CITURA website"
  }
},
{
  "type": "node",
  "id": 2451009176,
  "lat": 49.2336555,
  "lon": 4.0487114,
  "tags": {
    "bench": "yes",
    "bus": "yes",
    "departures_board": "timetable",
    "highway": "bus_stop",
    "name": "Monet",
    "public_transport": "platform",
    "route_ref": "6|17",
    "shelter": "no"
  }
},
{
  "type": "node",
  "id": 2451009177,
  "lat": 49.2357759,
  "lon": 4.0475007,
  "tags": {
    "bench": "yes",
    "bus": "yes",
    "departures_board": "timetable",
    "highway": "bus_stop",
    "local_ref": "6|17",
    "name": "Paris",
    "network": "CITURA",
    "operator": "Transdev Reims",
    "public_transport": "platform",
    "shelter": "no"
  }
},
{
  "type": "node",
  "id": 2451009178,
  "lat": 49.2388388,
  "lon": 4.0457800,
  "tags": {
    "bench": "yes",
    "bus": "yes",
    "departures_board": "timetable",
    "highway": "bus_stop",
    "local_ref": "6|17",
    "name": "Giraud",
    "network": "CITURA",
    "operator": "Transdev Reims",
    "public_transport": "platform",
    "shelter": "no"
  }
},
{
  "type": "node",
  "id": 2451009180,
  "lat": 49.2403397,
  "lon": 4.0413903,
  "tags": {
    "bench": "yes",
    "bus": "yes",
    "departures_board": "timetable",
    "highway": "bus_stop",
    "local_ref": "6",
    "name": "Ambroise Petit",
    "network": "CITURA",
    "note": "Arrêt Ligne 6.",
    "operator": "Transdev Reims",
    "public_transport": "platform",
    "shelter": "yes"
  }
},
{
  "type": "node",
  "id": 2452709614,
  "lat": 49.2398262,
  "lon": 4.0456040,
  "tags": {
    "bench": "yes",
    "bus": "yes",
    "departures_board": "timetable",
    "highway": "bus_stop",
    "local_ref": "6|17",
    "name": "Droits de l'Homme",
    "network": "CITURA",
    "operator": "Transdev Reims",
    "public_transport": "platform",
    "shelter": "no"
  }
},
{
  "type": "node",
  "id": 2452709622,
  "lat": 49.2355290,
  "lon": 4.0516518,
  "tags": {
    "bench": "yes",
    "bus": "yes",
    "highway": "bus_stop",
    "local_ref": "6|17",
    "name": "Foucry",
    "network": "CITURA",
    "operator": "Transdev Reims",
    "public_transport": "platform",
    "shelter": "yes",
    "source": "CITURA website"
  }
},
{
  "type": "node",
  "id": 2458482375,
  "lat": 49.2453730,
  "lon": 4.0396205,
  "tags": {
    "bench": "yes",
    "bus": "yes",
    "departures_board": "no",
    "highway": "bus_stop",
    "name": "Ruisselet",
    "public_transport": "platform",
    "route_ref": "6|9",
    "shelter": "yes"
  }
},
{
  "type": "node",
  "id": 2458482385,
  "lat": 49.2461436,
  "lon": 4.0396643,
  "tags": {
    "bench": "yes",
    "bus": "yes",
    "highway": "bus_stop",
    "local_ref": "4|5|6|9",
    "name": "Saint-Maurice",
    "network": "CITURA",
    "operator": "Transdev Reims",
    "public_transport": "platform",
    "shelter": "yes"
  }
},
{
  "type": "node",
  "id": 2461452992,
  "lat": 49.2542973,
  "lon": 4.0301132,
  "tags": {
    "bench": "no",
    "bus": "yes",
    "departures_board": "realtime",
    "highway": "bus_stop",
    "name": "Opéra-Cathédrale",
    "note": "Arrêt pour les lignes 4, 5 et C.",
    "public_transport": "platform",
    "shelter": "no"
  }
},
{
  "type": "node",
  "id": 2461452993,
  "lat": 49.2562561,
  "lon": 4.0285075,
  "tags": {
    "bench": "yes",
    "bus": "yes",
    "departures_board": "realtime",
    "highway": "bus_stop",
    "local_ref": "2|3|4|6|9",
    "name": "Étape",
    "network": "CITURA",
    "operator": "Transdev Reims",
    "public_transport": "platform",
    "shelter": "yes"
  }
},
{
  "type": "node",
  "id": 2461469151,
  "lat": 49.2502395,
  "lon": 4.0359300,
  "tags": {
    "bench": "yes",
    "bus": "yes",
    "highway": "bus_stop",
    "local_ref": "2|4|5|6|9|16",
    "name": "Conservatoire",
    "network": "CITURA",
    "operator": "Transdev Reims",
    "public_transport": "platform",
    "shelter": "yes"
  }
},
{
  "type": "node",
  "id": 2470480656,
  "lat": 49.2458335,
  "lon": 4.0585497,
  "tags": {
    "bus": "yes",
    "highway": "bus_stop",
    "name": "Pervenches",
    "public_transport": "platform",
    "shelter": "no"
  }
},
{
  "type": "node",
  "id": 2470480657,
  "lat": 49.2463719,
  "lon": 4.0616168,
  "tags": {
    "bus": "yes",
    "highway": "bus_stop",
    "local_ref": "3",
    "name": "Fac des Sciences",
    "network": "CITURA",
    "operator": "Transdev Reims",
    "public_transport": "platform",
    "shelter": "yes"
  }
},
{
  "type": "node",
  "id": 2470480658,
  "lat": 49.2466120,
  "lon": 4.0625625,
  "tags": {
    "bus": "yes",
    "highway": "bus_stop",
    "local_ref": "11",
    "name": "Fac des Sciences",
    "public_transport": "platform",
    "shelter": "yes"
  }
},
{
  "type": "node",
  "id": 2470480659,
  "lat": 49.2483891,
  "lon": 4.0585447,
  "tags": {
    "bench": "yes",
    "bus": "yes",
    "departures_board": "timetable",
    "highway": "bus_stop",
    "local_ref": "3",
    "name": "Bons Enfants",
    "network": "CITURA",
    "operator": "Transdev Reims",
    "public_transport": "platform",
    "shelter": "yes"
  }
},
{
  "type": "node",
  "id": 2470480660,
  "lat": 49.2495489,
  "lon": 4.0560378,
  "tags": {
    "bench": "yes",
    "bus": "yes",
    "departures_board": "timetable",
    "highway": "bus_stop",
    "name": "Alouettes",
    "public_transport": "platform",
    "route_ref": "3",
    "shelter": "yes"
  }
},
{
  "type": "node",
  "id": 2470480661,
  "lat": 49.2506195,
  "lon": 4.0521909,
  "tags": {
    "bench": "yes",
    "bus": "yes",
    "departures_board": "timetable",
    "highway": "bus_stop",
    "local_ref": "3",
    "name": "Yser",
    "network": "CITURA",
    "operator": "Tansdev Reims",
    "public_transport": "platform",
    "shelter": "yes"
  }
},
{
  "type": "node",
  "id": 2470480663,
  "lat": 49.2511579,
  "lon": 4.0492451,
  "tags": {
    "bench": "yes",
    "bus": "yes",
    "departures_board": "timetable",
    "highway": "bus_stop",
    "local_ref": "3",
    "name": "Boussinesq",
    "network": "CITURA",
    "note": "Arrêt ligne 3",
    "operator": "Transdev Reims",
    "public_transport": "platform",
    "shelter": "yes"
  }
},
{
  "type": "node",
  "id": 2470480664,
  "lat": 49.2518459,
  "lon": 4.0453868,
  "tags": {
    "highway": "bus_stop",
    "local_ref": "3",
    "name": "Clémenceau",
    "public_transport": "platform",
    "shelter": "yes"
  }
},
{
  "type": "node",
  "id": 2470480665,
  "lat": 49.2516050,
  "lon": 4.0424524,
  "tags": {
    "bench": "yes",
    "bus": "yes",
    "highway": "bus_stop",
    "local_ref": "3",
    "name": "Paix",
    "network": "CITURA",
    "operator": "Transdev Reims",
    "public_transport": "platform",
    "shelter": "yes"
  }
},
{
  "type": "node",
  "id": 2470480666,
  "lat": 49.2551818,
  "lon": 4.0304575,
  "tags": {
    "highway": "bus_stop",
    "name": "Opéra",
    "network": "CITURA",
    "operator": "Transdev Reims",
    "public_transport": "platform",
    "shelter": "yes"
  }
},
{
  "type": "node",
  "id": 3033454434,
  "lat": 49.2581882,
  "lon": 4.0711817,
  "tags": {
    "bench": "no",
    "highway": "bus_stop",
    "name": "La Saboterie",
    "public_transport": "platform",
    "shelter": "no",
    "source": "survey"
  }
},
{
  "type": "node",
  "id": 3270250961,
  "lat": 49.2687040,
  "lon": 4.0328124,
  "tags": {
    "bench": "yes",
    "bus": "yes",
    "departures_board": "timetable",
    "highway": "bus_stop",
    "name": "Robespierre",
    "public_transport": "platform",
    "shelter": "yes"
  }
},
{
  "type": "node",
  "id": 3356458303,
  "lat": 49.2478033,
  "lon": 4.0380522,
  "tags": {
    "bench": "yes",
    "bus": "yes",
    "departures_board": "no",
    "highway": "bus_stop",
    "name": "Venise",
    "public_transport": "platform",
    "shelter": "yes"
  }
},
{
  "type": "node",
  "id": 4223717689,
  "lat": 49.2657973,
  "lon": 4.0396242,
  "tags": {
    "bench": "yes",
    "bus": "yes",
    "departures_board": "timetable",
    "highway": "bus_stop",
    "name": "Lemoine",
    "network": "CITURA",
    "note": "Arrêt pour ligne 11.",
    "operator": "Transdev Reims",
    "public_transport": "platform",
    "shelter": "no"
  }
},
{
  "type": "node",
  "id": 4223717690,
  "lat": 49.2642450,
  "lon": 4.0394700,
  "tags": {
    "bus": "yes",
    "departures_board": "timetable",
    "highway": "bus_stop",
    "name": "Foujita",
    "network": "CITURA",
    "operator": "Transdev Reims",
    "public_transport": "platform",
    "shelter": "no"
  }
},
{
  "type": "node",
  "id": 4818078558,
  "lat": 49.2669696,
  "lon": 4.0313689,
  "tags": {
    "bench": "no",
    "bus": "yes",
    "departures_board": "timetable",
    "highway": "bus_stop",
    "name": "Saint-Benoît",
    "operator": "CITURA",
    "public_transport": "platform",
    "shelter": "no",
    "wheelchair": "yes"
  }
},
{
  "type": "node",
  "id": 4818088471,
  "lat": 49.2637083,
  "lon": 4.0287014,
  "tags": {
    "bench": "no",
    "bus": "yes",
    "departures_board": "timetable",
    "highway": "bus_stop",
    "name": "Roosevelt",
    "network": "CITURA",
    "operator": "Transdev Reims",
    "public_transport": "platform",
    "shelter": "no"
  }
},
{
  "type": "node",
  "id": 4823470236,
  "lat": 49.2430321,
  "lon": 4.0439157,
  "tags": {
    "bench": "yes",
    "bus": "yes",
    "departures_board": "timetable",
    "highway": "bus_stop",
    "name": "Saint-Timothée",
    "network": "17",
    "operator": "CITURA",
    "public_transport": "platform",
    "shelter": "yes"
  }
},
{
  "type": "node",
  "id": 4836962461,
  "lat": 49.2846789,
  "lon": 4.0038008,
  "tags": {
    "bus": "yes",
    "departures_board": "no",
    "highway": "bus_stop",
    "name": "Anglemont",
    "network": "CITURA",
    "operator": "TransDev",
    "public_transport": "platform",
    "shelter": "no"
  }
},
{
  "type": "node",
  "id": 4836962462,
  "lat": 49.2842894,
  "lon": 4.0045146,
  "tags": {
    "bus": "yes",
    "departures_board": "no",
    "highway": "bus_stop",
    "name": "Anglemont",
    "network": "CITURA",
    "operator": "TransDev",
    "public_transport": "platform",
    "shelter": "no"
  }
},
{
  "type": "node",
  "id": 4836962463,
  "lat": 49.2834452,
  "lon": 4.0060844,
  "tags": {
    "bus": "yes",
    "departures_board": "no",
    "highway": "bus_stop",
    "name": "Pierre Curie",
    "network": "CITURA",
    "operator": "TransDev",
    "public_transport": "platform",
    "shelter": "no"
  }
},
{
  "type": "node",
  "id": 4836962498,
  "lat": 49.2853667,
  "lon": 4.0066677,
  "tags": {
    "bench": "no",
    "bus": "yes",
    "departures_board": "no",
    "highway": "bus_stop",
    "name": "La Neuvillette École",
    "network": "CITURA",
    "note": "« La Neuvillette École » a remplacer le nom du terminus « Trois Fontaines ».",
    "operator": "TransDev",
    "public_transport": "platform",
    "shelter": "no"
  }
},
{
  "type": "node",
  "id": 4836962499,
  "lat": 49.2860849,
  "lon": 4.0083716,
  "tags": {
    "bench": "yes",
    "bus": "yes",
    "departures_board": "no",
    "highway": "bus_stop",
    "name": "Deschamps",
    "network": "CITURA",
    "operator": "TransDev",
    "public_transport": "platform",
    "shelter": "yes"
  }
},
{
  "type": "node",
  "id": 4836962500,
  "lat": 49.2862201,
  "lon": 4.0084353,
  "tags": {
    "bus": "yes",
    "departures_board": "no",
    "highway": "bus_stop",
    "name": "Deschamps",
    "network": "CITURA",
    "operator": "TransDev",
    "public_transport": "platform"
  }
},
{
  "type": "node",
  "id": 4836962501,
  "lat": 49.2837890,
  "lon": 4.0105251,
  "tags": {
    "bench": "no",
    "bus": "yes",
    "highway": "bus_stop",
    "name": "Hugo",
    "network": "CITURA",
    "operator": "TransDev",
    "public_transport": "platform",
    "shelter": "no"
  }
},
{
  "type": "node",
  "id": 4836962502,
  "lat": 49.2832980,
  "lon": 4.0107711,
  "tags": {
    "bench": "yes",
    "bus": "yes",
    "departures_board": "no",
    "highway": "bus_stop",
    "name": "Hugo",
    "network": "CITURA",
    "operator": "TransDev",
    "public_transport": "platform",
    "shelter": "yes"
  }
},
{
  "type": "node",
  "id": 4836962507,
  "lat": 49.2813923,
  "lon": 4.0124156,
  "tags": {
    "bench": "yes",
    "bus": "yes",
    "highway": "bus_stop",
    "name": "Tondeurs",
    "network": "CITURA",
    "operator": "TransDev",
    "public_transport": "platform",
    "shelter": "yes",
    "wheelchair": "yes"
  }
},
{
  "type": "node",
  "id": 4836962508,
  "lat": 49.2814804,
  "lon": 4.0125194,
  "tags": {
    "bench": "no",
    "bus": "yes",
    "departures_board": "no",
    "highway": "bus_stop",
    "name": "Tondeurs",
    "network": "CITURA",
    "operator": "TransDev",
    "public_transport": "platform",
    "wheelchair": "yes"
  }
},
{
  "type": "node",
  "id": 4836962509,
  "lat": 49.2798168,
  "lon": 4.0137442,
  "tags": {
    "bench": "no",
    "bus": "yes",
    "departures_board": "no",
    "highway": "bus_stop",
    "name": "Cimetière de Laon",
    "network": "CITURA",
    "operator": "TransDev",
    "public_transport": "platform",
    "shelter": "no"
  }
},
{
  "type": "node",
  "id": 4836962510,
  "lat": 49.2798913,
  "lon": 4.0138844,
  "tags": {
    "bench": "yes",
    "bus": "yes",
    "departures_board": "no",
    "highway": "bus_stop",
    "name": "Cimetière de Laon",
    "network": "CITURA",
    "operator": "TransDev",
    "public_transport": "platform",
    "shelter": "yes"
  }
},
{
  "type": "node",
  "id": 4836962511,
  "lat": 49.2780276,
  "lon": 4.0151798,
  "tags": {
    "bench": "yes",
    "bus": "yes",
    "departures_board": "no",
    "highway": "bus_stop",
    "name": "Cité Gauthier",
    "network": "CITURA",
    "operator": "TransDev",
    "public_transport": "platform",
    "shelter": "yes"
  }
},
{
  "type": "node",
  "id": 4836962512,
  "lat": 49.2775158,
  "lon": 4.0158800,
  "tags": {
    "bench": "yes",
    "bus": "yes",
    "departures_board": "no",
    "highway": "bus_stop",
    "name": "Cité Gauthier",
    "network": "CITURA",
    "operator": "TransDev",
    "public_transport": "platform",
    "shelter": "yes"
  }
},
{
  "type": "node",
  "id": 4836962513,
  "lat": 49.2756575,
  "lon": 4.0175012,
  "tags": {
    "bench": "yes",
    "bus": "yes",
    "departures_board": "no",
    "highway": "bus_stop",
    "name": "Belges",
    "network": "CITURA",
    "operator": "TransDev",
    "public_transport": "platform",
    "shelter": "yes"
  }
},
{
  "type": "node",
  "id": 4836962821,
  "lat": 49.2748429,
  "lon": 4.0172334,
  "tags": {
    "bench": "yes",
    "bus": "yes",
    "highway": "bus_stop",
    "name": "Belges",
    "public_transport": "platform",
    "shelter": "yes"
  }
},
{
  "type": "node",
  "id": 4836962823,
  "lat": 49.2726818,
  "lon": 4.0135539,
  "tags": {
    "bench": "yes",
    "bus": "yes",
    "departures_board": "timetable",
    "highway": "bus_stop",
    "name": "Saint-Thierry",
    "network": "CITURA",
    "operator": "transdev Reims",
    "public_transport": "platform",
    "shelter": "no"
  }
},
{
  "type": "node",
  "id": 4836962827,
  "lat": 49.2704016,
  "lon": 4.0113173,
  "tags": {
    "bench": "yes",
    "bus": "yes",
    "highway": "bus_stop",
    "name": "Albert 1er",
    "network": "CITURA",
    "operator": "Transdev Reims",
    "public_transport": "platform",
    "shelter": "yes"
  }
},
{
  "type": "node",
  "id": 4836962828,
  "lat": 49.2703432,
  "lon": 4.0114623,
  "tags": {
    "bus": "yes",
    "departures_board": "timetable",
    "highway": "bus_stop",
    "name": "Albert 1er",
    "network": "CITURA",
    "operator": "Transdev Reims",
    "public_transport": "platform",
    "shelter": "no"
  }
},
{
  "type": "node",
  "id": 4836962829,
  "lat": 49.2676748,
  "lon": 4.0130679,
  "tags": {
    "bench": "yes",
    "bus": "yes",
    "departures_board": "timetable",
    "highway": "bus_stop",
    "name": "Arnould",
    "network": "CITURA",
    "operator": "Transdev Reims",
    "public_transport": "platform"
  }
},
{
  "type": "node",
  "id": 4836962831,
  "lat": 49.2658802,
  "lon": 4.0129312,
  "tags": {
    "bench": "yes",
    "bus": "yes",
    "departures_board": "timetable",
    "highway": "bus_stop",
    "name": "Raphaël",
    "network": "CITURA",
    "operator": "Transdev reims",
    "public_transport": "platform",
    "shelter": "yes"
  }
},
{
  "type": "node",
  "id": 4836962832,
  "lat": 49.2655426,
  "lon": 4.0126980,
  "tags": {
    "bus": "yes",
    "departures_board": "timetable",
    "highway": "bus_stop",
    "name": "Raphaël",
    "network": "CITURA",
    "operator": "Transdev Reims",
    "public_transport": "platform",
    "shelter": "no"
  }
},
{
  "type": "node",
  "id": 4836962839,
  "lat": 49.2645103,
  "lon": 4.0110000,
  "tags": {
    "bench": "yes",
    "bus": "yes",
    "departures_board": "timetable",
    "highway": "bus_stop",
    "name": "Belgique",
    "network": "CITURA",
    "operator": "Transdev Reims",
    "public_transport": "platform",
    "shelter": "yes"
  }
},
{
  "type": "node",
  "id": 4836962840,
  "lat": 49.2643184,
  "lon": 4.0124923,
  "tags": {
    "bench": "yes",
    "bus": "yes",
    "departures_board": "timetable",
    "highway": "bus_stop",
    "name": "Belgique",
    "public_transport": "platform",
    "shelter": "yes"
  }
},
{
  "type": "node",
  "id": 4836962841,
  "lat": 49.2632648,
  "lon": 4.0155707,
  "tags": {
    "bench": "no",
    "bus": "yes",
    "departures_board": "timetable",
    "highway": "bus_stop",
    "name": "Géruzez",
    "network": "CITURA",
    "operator": "Transdev Reims",
    "public_transport": "platform",
    "shelter": "no"
  }
},
{
  "type": "node",
  "id": 4836962842,
  "lat": 49.2631111,
  "lon": 4.0160329,
  "tags": {
    "bench": "yes",
    "bus": "yes",
    "departures_board": "timetable",
    "highway": "bus_stop",
    "name": "Géruzez",
    "network": "CITURA",
    "operator": "Transdev Reims",
    "public_transport": "platform",
    "shelter": "yes"
  }
},
{
  "type": "node",
  "id": 4836962844,
  "lat": 49.2616899,
  "lon": 4.0184752,
  "tags": {
    "bus": "yes",
    "departures_board": "no",
    "highway": "bus_stop",
    "name": "Romains",
    "network": "CITURA",
    "operator": "Transdev Reims",
    "public_transport": "platform",
    "shelter": "no"
  }
},
{
  "type": "node",
  "id": 4836962848,
  "lat": 49.2599553,
  "lon": 4.0199494,
  "tags": {
    "bench": "yes",
    "bus": "yes",
    "highway": "bus_stop",
    "name": "Vernouillet",
    "network": "CITURA",
    "operator": "Transdev Reims",
    "public_transport": "platform",
    "shelter": "yes"
  }
},
{
  "type": "node",
  "id": 4836962849,
  "lat": 49.2595647,
  "lon": 4.0201934,
  "tags": {
    "bench": "no",
    "bus": "yes",
    "highway": "bus_stop",
    "name": "Vernouillet",
    "network": "CITURA",
    "operator": "Trabsdev Reims",
    "public_transport": "platform",
    "shelter": "no"
  }
},
{
  "type": "node",
  "id": 4836962850,
  "lat": 49.2573595,
  "lon": 4.0225066,
  "tags": {
    "bench": "yes",
    "bus": "yes",
    "departures_board": "timetable",
    "highway": "bus_stop",
    "name": "Roederer",
    "network": "CITURA",
    "note": "Arrêt pour ligne 3, 4 et 9.",
    "operator": "Transdev Reims",
    "public_transport": "platform",
    "shelter": "no"
  }
},
{
  "type": "node",
  "id": 4836962851,
  "lat": 49.2574162,
  "lon": 4.0221606,
  "tags": {
    "bus": "yes",
    "departures_board": "realtime",
    "highway": "bus_stop",
    "name": "Roederer",
    "network": "CITURA",
    "note": "Arrêt pour ligne 3, 4 et 9.",
    "operator": "Transdev Reims",
    "public_transport": "platform",
    "shelter": "no"
  }
},
{
  "type": "node",
  "id": 4836962852,
  "lat": 49.2562974,
  "lon": 4.0285866,
  "tags": {
    "bench": "yes",
    "bus": "yes",
    "departures_board": "realtime",
    "highway": "bus_stop",
    "name": "Étape",
    "network": "CITURA",
    "operator": "Transdev Reims",
    "public_transport": "platform",
    "shelter": "yes"
  }
},
{
  "type": "node",
  "id": 4836962854,
  "lat": 49.2536162,
  "lon": 4.0307427,
  "tags": {
    "bench": "yes",
    "bin": "yes",
    "bus": "yes",
    "departures_board": "realtime",
    "highway": "bus_stop",
    "lit": "yes",
    "name": "Opéra",
    "network": "CITURA",
    "operator": "Transdev Reims",
    "public_transport": "platform",
    "shelter": "yes",
    "tactile_paving": "no"
  }
},
{
  "type": "node",
  "id": 4836962855,
  "lat": 49.2537966,
  "lon": 4.0307109,
  "tags": {
    "bench": "yes",
    "bus": "yes",
    "departures_board": "realtime",
    "highway": "bus_stop",
    "name": "Opéra",
    "network": "CITURA",
    "operator": "Transdev Reims",
    "public_transport": "platform",
    "shelter": "yes"
  }
},
{
  "type": "node",
  "id": 5110076761,
  "lat": 49.2583618,
  "lon": 4.0417771,
  "tags": {
    "bench": "yes",
    "bus": "yes",
    "departures_board": "no",
    "highway": "bus_stop",
    "name": "Saint-André",
    "network": "CITURA",
    "note": "A vérifier",
    "operator": "TransDev",
    "public_transport": "platform",
    "shelter": "yes"
  }
},
{
  "type": "node",
  "id": 5286149513,
  "lat": 49.2620935,
  "lon": 4.0185278,
  "tags": {
    "bench": "yes",
    "bus": "yes",
    "departures_board": "no",
    "highway": "bus_stop",
    "name": "Romains",
    "network": "CITURA",
    "operator": "Transdev Reims",
    "public_transport": "platform",
    "shelter": "yes"
  }
},
{
  "type": "node",
  "id": 5376253289,
  "lat": 49.2427348,
  "lon": 4.0595082,
  "tags": {
    "bus": "yes",
    "departures_board": "timetable",
    "highway": "bus_stop",
    "name": "I.U.T",
    "network": "CITURA",
    "note": "Arrêt pour ligne 3, 30 et N.",
    "operator": "transdev Reims",
    "public_transport": "platform",
    "ref": "167",
    "shelter": "no"
  }
},
{
  "type": "node",
  "id": 5376253290,
  "lat": 49.2427393,
  "lon": 4.0579734,
  "tags": {
    "bus": "yes",
    "departures_board": "timetable",
    "highway": "bus_stop",
    "name": "I.U.T",
    "network": "CITURA",
    "operator": "Transdev Reims",
    "public_transport": "platform",
    "ref": "167",
    "shelter": "no"
  }
},
{
  "type": "node",
  "id": 5376253291,
  "lat": 49.2434202,
  "lon": 4.0577357,
  "tags": {
    "bus": "yes",
    "departures_board": "timetable",
    "highway": "bus_stop",
    "name": "I.U.T",
    "network": "CITURA",
    "operator": "Transdev Reims",
    "public_transport": "platform",
    "ref": "167"
  }
},
{
  "type": "node",
  "id": 5376253292,
  "lat": 49.2420193,
  "lon": 4.0616393,
  "tags": {
    "bench": "yes",
    "bus": "yes",
    "departures_board": "timetable",
    "highway": "bus_stop",
    "name": "Moulin de la Housse",
    "network": "CITURA",
    "note": "Arrêt pour ligne 3, 30 et N.",
    "operator": "Transdev Reims",
    "public_transport": "platform",
    "ref": "228",
    "shelter": "yes"
  }
},
{
  "type": "node",
  "id": 5376271135,
  "lat": 49.2444488,
  "lon": 4.0557664,
  "tags": {
    "bench": "yes",
    "bus": "yes",
    "departures_board": "timetable",
    "highway": "bus_stop",
    "name": "Crayères",
    "network": "CITURA",
    "operator": "Transdev Reims",
    "public_transport": "platform",
    "ref": "96",
    "shelter": "no"
  }
},
{
  "type": "node",
  "id": 5376271136,
  "lat": 49.2450468,
  "lon": 4.0557252,
  "tags": {
    "bench": "yes",
    "bus": "yes",
    "highway": "bus_stop",
    "name": "Crayères",
    "network": "CITURA",
    "operator": "Transdev Reims",
    "public_transport": "platform",
    "ref": "96",
    "shelter": "no"
  }
},
{
  "type": "node",
  "id": 5609571537,
  "lat": 49.2668934,
  "lon": 4.0314315,
  "tags": {
    "bench": "no",
    "bus": "yes",
    "departures_board": "timetable",
    "highway": "bus_stop",
    "name": "Saint-Benoît",
    "public_transport": "platform",
    "shelter": "no",
    "wheelchair": "yes"
  }
},
{
  "type": "node",
  "id": 5830206954,
  "lat": 49.2459090,
  "lon": 4.0179893,
  "tags": {
    "highway": "bus_stop",
    "name": "Passe Demoiselles",
    "public_transport": "platform"
  }
},
{
  "type": "node",
  "id": 5830206955,
  "lat": 49.2424958,
  "lon": 4.0146989,
  "tags": {
    "highway": "bus_stop",
    "name": "Franchet d'Esperey",
    "public_transport": "platform"
  }
},
{
  "type": "node",
  "id": 5830206956,
  "lat": 49.2424651,
  "lon": 4.0148056,
  "tags": {
    "highway": "bus_stop",
    "name": "Franchet d'Esperey",
    "public_transport": "platform"
  }
},
{
  "type": "node",
  "id": 5830206962,
  "lat": 49.2298192,
  "lon": 4.0073282,
  "tags": {
    "highway": "bus_stop",
    "name": "Arago"
  }
},
{
  "type": "node",
  "id": 5830206974,
  "lat": 49.2520265,
  "lon": 4.0325212,
  "tags": {
    "bench": "yes",
    "bin": "yes",
    "bus": "yes",
    "departures_board": "realtime",
    "highway": "bus_stop",
    "lit": "yes",
    "name": "Rockfeller",
    "public_transport": "platform",
    "shelter": "yes",
    "tactile_paving": "yes"
  }
},
{
  "type": "node",
  "id": 5830206976,
  "lat": 49.2511916,
  "lon": 4.0345944,
  "tags": {
    "bench": "yes",
    "bin": "yes",
    "bus": "yes",
    "departures_board": "realtime",
    "highway": "bus_stop",
    "lit": "no",
    "local_ref": "2|4|5|6|9|16",
    "name": "Conservatoire",
    "network": "CITURA",
    "operator": "Transdev Reims",
    "public_transport": "platform",
    "shelter": "yes",
    "tactile_paving": "yes"
  }
},
{
  "type": "node",
  "id": 5830206982,
  "lat": 49.2404649,
  "lon": 4.0414544,
  "tags": {
    "bench": "yes",
    "bus": "yes",
    "departures_board": "timetable",
    "highway": "bus_stop",
    "local_ref": "6",
    "name": "Ambroise Petit",
    "network": "CITURA",
    "note": "Arrêt Ligne 6.",
    "operator": "Transdev Reims",
    "public_transport": "platform",
    "shelter": "yes"
  }
},
{
  "type": "node",
  "id": 5830206983,
  "lat": 49.2411670,
  "lon": 4.0442812,
  "tags": {
    "bench": "yes",
    "bus": "yes",
    "departures_board": "timetable",
    "highway": "bus_stop",
    "local_ref": "6",
    "name": "Cimetière du Sud",
    "network": "CITURA",
    "operator": "Transdev Reims",
    "public_transport": "platform",
    "shelter": "yes"
  }
},
{
  "type": "node",
  "id": 5830207188,
  "lat": 49.2408042,
  "lon": 4.0439357,
  "tags": {
    "bench": "yes",
    "bus": "yes",
    "departures_board": "timetable",
    "highway": "bus_stop",
    "local_ref": "6",
    "name": "Cimetière du Sud",
    "network": "CITURA",
    "operator": "Transdev Reims",
    "public_transport": "platform",
    "shelter": "yes"
  }
},
{
  "type": "node",
  "id": 5830207190,
  "lat": 49.2350977,
  "lon": 4.0549086,
  "tags": {
    "bench": "yes",
    "bus": "yes",
    "highway": "bus_stop",
    "local_ref": "6|17",
    "name": "Flamand",
    "network": "CITURA",
    "operator": "Transdev Reims",
    "public_transport": "platform",
    "shelter": "yes"
  }
},
{
  "type": "node",
  "id": 5830207192,
  "lat": 49.2354060,
  "lon": 4.0694566,
  "tags": {
    "bus": "yes",
    "departures_board": "no",
    "highway": "bus_stop",
    "local_ref": "6",
    "name": "Ader",
    "public_transport": "platform",
    "shelter": "no"
  }
},
{
  "type": "node",
  "id": 5830207193,
  "lat": 49.2360145,
  "lon": 4.0660639,
  "tags": {
    "bus": "yes",
    "departures_board": "no",
    "highway": "bus_stop",
    "local_ref": "6",
    "name": "Patoux",
    "network": "CITURA",
    "operator": "Transdev Reims",
    "public_transport": "platform",
    "shelter": "no"
  }
},
{
  "type": "node",
  "id": 5830207200,
  "lat": 49.2409688,
  "lon": 4.0758647,
  "tags": {
    "bus": "yes",
    "departures_board": "no",
    "highway": "bus_stop",
    "local_ref": "6",
    "name": "Santos Dumont",
    "network": "CITURA",
    "operator": "Transdev Reims",
    "public_transport": "platform",
    "shelter": "no"
  }
},
{
  "type": "node",
  "id": 5830207201,
  "lat": 49.2403647,
  "lon": 4.0750899,
  "tags": {
    "bench": "yes",
    "bus": "yes",
    "departures_board": "no",
    "highway": "bus_stop",
    "local_ref": "6",
    "name": "Santos-Dumont",
    "network": "CITURA",
    "operator": "Transdev Reims",
    "public_transport": "platform",
    "shelter": "yes"
  }
},
{
  "type": "node",
  "id": 5830207260,
  "lat": 49.2422572,
  "lon": 4.0370665,
  "tags": {
    "bus": "yes",
    "departures_board": "timetable",
    "highway": "bus_stop",
    "name": "Fléchambault",
    "network": "CITURA",
    "note": "Arrêt ligne 11 et 40.",
    "operator": "Transdev Reims",
    "public_transport": "platform",
    "shelter": "yes"
  }
},
{
  "type": "node",
  "id": 5830207275,
  "lat": 49.2377027,
  "lon": 4.0033223,
  "tags": {
    "bench": "yes",
    "bus": "yes",
    "departures_board": "timetable",
    "highway": "bus_stop",
    "name": "Campus Croix Rouge",
    "network": "CITURA",
    "note": "name according to current (2011) tram/bus line plan (see http://www.citura.fr/files/plan_reseau.pdf)",
    "operator": "Transdev Reims",
    "public_transport": "platform",
    "shelter": "yes"
  }
},
{
  "type": "node",
  "id": 5830207280,
  "lat": 49.2402005,
  "lon": 4.0103283,
  "tags": {
    "bench": "yes",
    "bus": "yes",
    "departures_board": "timetable",
    "highway": "bus_stop",
    "name": "Saint-John Perse",
    "network": "CITURA",
    "note": "Arrêt ligne 11 (Gare Centre) et N (Moulin de la Housse).",
    "operator": "Transdev Reims",
    "public_transport": "platform",
    "shelter": "yes"
  }
},
{
  "type": "node",
  "id": 5830207281,
  "lat": 49.2402682,
  "lon": 4.0102473,
  "tags": {
    "bench": "yes",
    "bus": "yes",
    "departures_board": "timetable",
    "highway": "bus_stop",
    "name": "Saint-John Perse",
    "network": "CITURA",
    "note": "Arrêt ligne 11 et N.",
    "operator": "Transdev Reims",
    "public_transport": "platform",
    "shelter": "no"
  }
},
{
  "type": "node",
  "id": 5830207282,
  "lat": 49.2417513,
  "lon": 4.0162779,
  "tags": {
    "bench": "yes",
    "bus": "yes",
    "departures_board": "no",
    "highway": "bus_stop",
    "name": "Franchet d'Esperey",
    "network": "CITURA",
    "operator": "TransDev",
    "public_transport": "platform",
    "shelter": "yes"
  }
},
{
  "type": "node",
  "id": 5830207283,
  "lat": 49.2403889,
  "lon": 4.0203205,
  "tags": {
    "bus": "yes",
    "highway": "bus_stop",
    "name": "Marchandeau",
    "network": "CITURA",
    "operator": "Transdev Reils",
    "public_transport": "platform",
    "shelter": "yes"
  }
},
{
  "type": "node",
  "id": 5830207284,
  "lat": 49.2383792,
  "lon": 4.0233900,
  "tags": {
    "bench": "yes",
    "bus": "yes",
    "highway": "bus_stop",
    "name": "Bonne Femme",
    "note": "Arrêt ligne 2 et 11.",
    "public_transport": "platform",
    "shelter": "yes"
  }
},
{
  "type": "node",
  "id": 5830207485,
  "lat": 49.2382286,
  "lon": 4.0233994,
  "tags": {
    "bench": "yes",
    "bus": "yes",
    "departures_board": "timetable",
    "highway": "bus_stop",
    "name": "Bonne Femme",
    "network": "CITURA",
    "operator": "Transdev Reims",
    "public_transport": "platform",
    "shelter": "yes"
  }
},
{
  "type": "node",
  "id": 5830207486,
  "lat": 49.2366630,
  "lon": 4.0292954,
  "tags": {
    "bench": "yes",
    "bus": "yes",
    "departures_board": "timetable",
    "highway": "bus_stop",
    "name": "Buridan",
    "network": "CITURA",
    "operator": "Transdev Reims",
    "public_transport": "platform",
    "shelter": "yes"
  }
},
{
  "type": "node",
  "id": 5830207488,
  "lat": 49.2428569,
  "lon": 4.0403295,
  "tags": {
    "bench": "yes",
    "bin": "yes",
    "bus": "yes",
    "departures_board": "timetable",
    "highway": "bus_stop",
    "lit": "no",
    "local_ref": "4|6|11|C1|C2",
    "name": "Saint-Rémi",
    "network": "CITURA",
    "operator": "Transdev Reims",
    "public_transport": "platform",
    "shelter": "yes",
    "tactile_paving": "yes"
  }
},
{
  "type": "node",
  "id": 5830207489,
  "lat": 49.2437672,
  "lon": 4.0437665,
  "tags": {
    "bench": "yes",
    "bus": "yes",
    "departures_board": "timetable",
    "highway": "bus_stop",
    "name": "Saint-Thimothée",
    "network": "CITURA",
    "operator": "TransdevReims",
    "public_transport": "platform",
    "shelter": "no"
  }
},
{
  "type": "node",
  "id": 5830207490,
  "lat": 49.2450223,
  "lon": 4.0443769,
  "tags": {
    "bench": "yes",
    "bus": "yes",
    "departures_board": "timetable",
    "highway": "bus_stop",
    "name": "Saint-Nicaise",
    "network": "CITURA",
    "note": "Arrêt ligne 1 (Gare Centre).",
    "operator": "Transdev Reims",
    "public_transport": "platform",
    "shelter": "no"
  }
},
{
  "type": "node",
  "id": 5830207491,
  "lat": 49.2450711,
  "lon": 4.0442482,
  "tags": {
    "bench": "yes",
    "bus": "yes",
    "departures_board": "timetable",
    "highway": "bus_stop",
    "name": "Saint-Nicaise",
    "network": "CITURA",
    "note": "Arrêt ligne 11 (Croix du Sud).",
    "operator": "Transdev Reims",
    "public_transport": "platform",
    "shelter": "no"
  }
},
{
  "type": "node",
  "id": 5830207492,
  "lat": 49.2458385,
  "lon": 4.0464216,
  "tags": {
    "bus": "yes",
    "departures_board": "timetable",
    "highway": "bus_stop",
    "name": "Vasnier",
    "note": "Arrêt ligne 11 (Gare Centre).",
    "public_transport": "platform",
    "shelter": "no"
  }
},
{
  "type": "node",
  "id": 5830207494,
  "lat": 49.2411032,
  "lon": 4.0560217,
  "tags": {
    "bus": "yes",
    "highway": "bus_stop",
    "name": "Parc de Champagne",
    "public_transport": "platform"
  }
},
{
  "type": "node",
  "id": 5830207500,
  "lat": 49.2458455,
  "lon": 4.0582728,
  "tags": {
    "bench": "yes",
    "bus": "yes",
    "departures_board": "timetable",
    "highway": "bus_stop",
    "name": "Pervenches",
    "public_transport": "platform",
    "shelter": "yes"
  }
},
{
  "type": "node",
  "id": 5830207505,
  "lat": 49.2466972,
  "lon": 4.0623207,
  "tags": {
    "bench": "yes",
    "bus": "yes",
    "highway": "bus_stop",
    "local_ref": "11",
    "name": "Fac des Sciences",
    "public_transport": "platform",
    "shelter": "yes"
  }
},
{
  "type": "node",
  "id": 5830207510,
  "lat": 49.2473404,
  "lon": 4.0645941,
  "tags": {
    "bench": "yes",
    "bus": "yes",
    "departures_board": "timetable",
    "highway": "bus_stop",
    "name": "Thiolettes",
    "note": "Arrêt pour ligne 11 (Gare Centre) et 13 (Millesime).",
    "public_transport": "platform",
    "shelter": "yes"
  }
},
{
  "type": "node",
  "id": 5830207511,
  "lat": 49.2474560,
  "lon": 4.0644680,
  "tags": {
    "bench": "yes",
    "bus": "yes",
    "departures_board": "timetable",
    "highway": "bus_stop",
    "name": "Thiolettes",
    "note": "Arrêt pour ligne 11 (Croix du Sud) et 30 (Moulin de la Housse)",
    "public_transport": "platform",
    "shelter": "yes"
  }
},
{
  "type": "node",
  "id": 5830207516,
  "lat": 49.2492353,
  "lon": 4.0657601,
  "tags": {
    "bench": "yes",
    "bus": "yes",
    "highway": "bus_stop",
    "name": "Meuse",
    "note": "Arrêt pour ligne 11 (Gare Centre) et 13 (Millesime).",
    "public_transport": "platform",
    "shelter": "yes"
  }
},
{
  "type": "node",
  "id": 5830207521,
  "lat": 49.2526008,
  "lon": 4.0625844,
  "tags": {
    "bench": "yes",
    "bus": "yes",
    "highway": "bus_stop",
    "name": "De Mun",
    "public_transport": "platform",
    "shelter": "yes"
  }
},
{
  "type": "node",
  "id": 5830207526,
  "lat": 49.2528300,
  "lon": 4.0621830,
  "tags": {
    "bench": "yes",
    "bus": "yes",
    "highway": "bus_stop",
    "name": "De Mun",
    "public_transport": "platform",
    "shelter": "yes"
  }
},
{
  "type": "node",
  "id": 5830207533,
  "lat": 49.2659589,
  "lon": 4.0530847,
  "tags": {
    "bus": "yes",
    "departures_board": "timetable",
    "highway": "bus_stop",
    "name": "Italie",
    "note": "Arrêt ligne 11;",
    "public_transport": "platform",
    "shelter": "no"
  }
},
{
  "type": "node",
  "id": 5830207534,
  "lat": 49.2657594,
  "lon": 4.0531987,
  "tags": {
    "bus": "yes",
    "departures_board": "timetable",
    "highway": "bus_stop",
    "name": "Italie",
    "note": "Arrêt ligne 11.",
    "public_transport": "platform",
    "shelter": "yes"
  }
},
{
  "type": "node",
  "id": 5830207535,
  "lat": 49.2682351,
  "lon": 4.0500322,
  "tags": {
    "bench": "yes",
    "bus": "yes",
    "departures_board": "timetable",
    "highway": "bus_stop",
    "name": "Bizerte",
    "network": "CITURA",
    "note": "Arrêt ligne 11.",
    "operator": "Transdev Reims",
    "public_transport": "platform",
    "shelter": "no"
  }
},
{
  "type": "node",
  "id": 5830207536,
  "lat": 49.2671856,
  "lon": 4.0513309,
  "tags": {
    "bench": "yes",
    "bus": "yes",
    "departures_board": "timetable",
    "highway": "bus_stop",
    "name": "Bizerte",
    "note": "Arrêt linge 11;",
    "public_transport": "platform",
    "shelter": "yes"
  }
},
{
  "type": "node",
  "id": 5830207539,
  "lat": 49.2684453,
  "lon": 4.0474903,
  "tags": {
    "bench": "yes",
    "bus": "yes",
    "departures_board": "no",
    "highway": "bus_stop",
    "name": "Bel Air",
    "network": "CITURA",
    "operator": "TransDev",
    "public_transport": "platform",
    "shelter": "yes"
  }
},
{
  "type": "node",
  "id": 6017695928,
  "lat": 49.2599879,
  "lon": 4.0640103,
  "tags": {
    "bench": "yes",
    "bus": "yes",
    "departures_board": "timetable",
    "highway": "bus_stop",
    "lit": "yes",
    "name": "C.C. Cernay",
    "passenger_information_display": "yes",
    "public_transport": "platform",
    "shelter": "yes"
  }
},
{
  "type": "node",
  "id": 6017707084,
  "lat": 49.2551262,
  "lon": 4.0617834,
  "tags": {
    "bench": "yes",
    "bus": "yes",
    "highway": "bus_stop",
    "lit": "yes",
    "name": "Europe",
    "passenger_information_display": "yes",
    "public_transport": "platform",
    "shelter": "yes",
    "surface": "asphalt"
  }
},
{
  "type": "node",
  "id": 6017724044,
  "lat": 49.2523585,
  "lon": 4.0583508,
  "tags": {
    "bus": "yes",
    "departures_board": "no",
    "highway": "bus_stop",
    "name": "Brazzaville",
    "public_transport": "platform",
    "shelter": "no"
  }
},
{
  "type": "node",
  "id": 6017725007,
  "lat": 49.2523253,
  "lon": 4.0590038,
  "tags": {
    "bench": "yes",
    "bus": "yes",
    "highway": "bus_stop",
    "lit": "yes",
    "name": "Brazzaville",
    "public_transport": "platform",
    "shelter": "yes"
  }
},
{
  "type": "node",
  "id": 6018159470,
  "lat": 49.2637595,
  "lon": 4.0565884,
  "tags": {
    "bench": "yes",
    "bus": "yes",
    "departures_board": "no",
    "highway": "bus_stop",
    "lit": "yes",
    "name": "Cimetière de l'Est",
    "passenger_information_display": "yes",
    "public_transport": "platform",
    "shelter": "yes",
    "surface": "asphalt"
  }
},
{
  "type": "node",
  "id": 6018159471,
  "lat": 49.2636156,
  "lon": 4.0566716,
  "tags": {
    "bench": "yes",
    "bus": "yes",
    "departures_board": "no",
    "highway": "bus_stop",
    "name": "Cimetière de l'Est",
    "public_transport": "platform",
    "shelter": "yes",
    "surface": "asphalt"
  }
},
{
  "type": "node",
  "id": 6044136794,
  "lat": 49.2710042,
  "lon": 4.0262615,
  "tags": {
    "bench": "yes",
    "bus": "yes",
    "departures_board": "timetable",
    "highway": "bus_stop",
    "lit": "yes",
    "name": "Luton",
    "passenger_information_display": "yes",
    "public_transport": "platform",
    "shelter": "yes",
    "surface": "asphalt"
  }
},
{
  "type": "node",
  "id": 6044140083,
  "lat": 49.2711949,
  "lon": 4.0261354,
  "tags": {
    "bus": "yes",
    "departures_board": "timetable",
    "highway": "bus_stop",
    "name": "Luton",
    "public_transport": "platform",
    "shelter": "no",
    "surface": "asphalt"
  }
},
{
  "type": "node",
  "id": 6044140839,
  "lat": 49.2702932,
  "lon": 4.0285510,
  "tags": {
    "bus": "yes",
    "departures_board": "timetable",
    "highway": "bus_stop",
    "name": "Blondel",
    "network": "CITURA",
    "operator": "Transdev Reims",
    "public_transport": "platform",
    "shelter": "no"
  }
},
{
  "type": "node",
  "id": 6287123864,
  "lat": 49.2759126,
  "lon": 4.0209438,
  "tags": {
    "bench": "yes",
    "bus": "yes",
    "departures_board": "no",
    "highway": "bus_stop",
    "name": "Jean Macé",
    "public_transport": "platform",
    "shelter": "yes"
  }
},
{
  "type": "node",
  "id": 6287123865,
  "lat": 49.2761156,
  "lon": 4.0220556,
  "tags": {
    "bench": "yes",
    "bus": "yes",
    "departures_board": "no",
    "highway": "bus_stop",
    "name": "Jean Macé",
    "network": "CITURA",
    "operator": "Transdev",
    "public_transport": "platform",
    "shelter": "yes"
  }
},
{
  "type": "node",
  "id": 6287170662,
  "lat": 49.2762752,
  "lon": 4.0259734,
  "tags": {
    "bench": "yes",
    "bus": "yes",
    "departures_board": "no",
    "highway": "bus_stop",
    "name": "Jules Laurent",
    "network": "CITURA",
    "operator": "Transdev",
    "public_transport": "platform",
    "shelter": "yes"
  }
},
{
  "type": "node",
  "id": 6287191930,
  "lat": 49.2887370,
  "lon": 4.0055328,
  "tags": {
    "bench": "yes",
    "bus": "yes",
    "departures_board": "no",
    "highway": "bus_stop",
    "name": "La Neuvillette Mairie",
    "public_transport": "platform",
    "shelter": "yes"
  }
},
{
  "type": "node",
  "id": 6289728910,
  "lat": 49.2815332,
  "lon": 4.0079133,
  "tags": {
    "bench": "yes",
    "bus": "yes",
    "departures_board": "no",
    "highway": "bus_stop",
    "name": "Jacob",
    "network": "CITURA",
    "operator": "Transdev",
    "public_transport": "platform",
    "shelter": "yes"
  }
},
{
  "type": "node",
  "id": 6289728911,
  "lat": 49.2787133,
  "lon": 4.0099869,
  "tags": {
    "bench": "yes",
    "bus": "yes",
    "departures_board": "no",
    "highway": "bus_stop",
    "name": "Balzac",
    "network": "CITURA",
    "operator": "Transdev",
    "public_transport": "platform",
    "shelter": "no"
  }
},
{
  "type": "node",
  "id": 6289728914,
  "lat": 49.2770843,
  "lon": 4.0109778,
  "tags": {
    "bench": "yes",
    "bus": "yes",
    "departures_board": "no",
    "highway": "bus_stop",
    "name": "Trois Fontaines",
    "network": "CITURA",
    "operator": "Transdev",
    "public_transport": "platform",
    "shelter": "yes"
  }
},
{
  "type": "node",
  "id": 6289728915,
  "lat": 49.2756975,
  "lon": 4.0122137,
  "tags": {
    "bench": "yes",
    "bus": "yes",
    "departures_board": "no",
    "highway": "bus_stop",
    "name": "Champeaux",
    "network": "CITURA",
    "operator": "Transdev",
    "public_transport": "platform",
    "shelter": "yes"
  }
},
{
  "type": "node",
  "id": 6289728916,
  "lat": 49.2741976,
  "lon": 4.0139384,
  "tags": {
    "bench": "yes",
    "bus": "yes",
    "departures_board": "no",
    "highway": "bus_stop",
    "name": "Avenir",
    "network": "CITURA",
    "operator": "Transdev",
    "public_transport": "platform",
    "shelter": "yes"
  }
},
{
  "type": "node",
  "id": 6773004859,
  "lat": 49.2594645,
  "lon": 4.0630131,
  "tags": {
    "bin": "yes",
    "bus": "yes",
    "highway": "bus_stop",
    "name": "C.C. Cernay",
    "public_transport": "platform",
    "shelter": "no"
  }
},
{
  "type": "node",
  "id": 6804082016,
  "lat": 49.2519108,
  "lon": 4.0229583,
  "tags": {
    "bus": "yes",
    "highway": "bus_stop",
    "name": "Vesle",
    "network": "CITURA",
    "note": "Arrêt des lignes 7, 8, 30 et N.",
    "operator": "Transdev Reims",
    "public_transport": "platform",
    "shelter": "no"
  }
},
{
  "type": "node",
  "id": 6832970860,
  "lat": 49.2707402,
  "lon": 4.0004450,
  "tags": {
    "bus": "yes",
    "highway": "bus_stop",
    "public_transport": "platform"
  }
},
{
  "type": "node",
  "id": 6838721634,
  "lat": 49.2749332,
  "lon": 4.0073257,
  "tags": {
    "bus": "yes",
    "highway": "bus_stop",
    "public_transport": "platform"
  }
},
{
  "type": "node",
  "id": 6838721635,
  "lat": 49.2750652,
  "lon": 4.0074314,
  "tags": {
    "bus": "yes",
    "highway": "bus_stop",
    "public_transport": "platform"
  }
},
{
  "type": "node",
  "id": 6838721645,
  "lat": 49.2770811,
  "lon": 4.0053994,
  "tags": {
    "bus": "yes",
    "highway": "bus_stop",
    "public_transport": "platform"
  }
},
{
  "type": "node",
  "id": 6855177740,
  "lat": 49.2745681,
  "lon": 4.0017226,
  "tags": {
    "bus": "yes",
    "highway": "bus_stop",
    "public_transport": "platform"
  }
},
{
  "type": "node",
  "id": 6855888254,
  "lat": 49.2745251,
  "lon": 4.0018476,
  "tags": {
    "bus": "yes",
    "highway": "bus_stop",
    "public_transport": "platform"
  }
},
{
  "type": "node",
  "id": 6861326544,
  "lat": 49.2683792,
  "lon": 3.9991299,
  "tags": {
    "bus": "yes",
    "highway": "bus_stop",
    "public_transport": "platform"
  }
},
{
  "type": "node",
  "id": 7014239402,
  "lat": 49.2515586,
  "lon": 4.0426149,
  "tags": {
    "bench": "yes",
    "bus": "yes",
    "highway": "bus_stop",
    "name": "Paix",
    "network": "CITURA",
    "operator": "Transdev Reims",
    "public_transport": "platform",
    "shelter": "yes"
  }
},
{
  "type": "node",
  "id": 7014412399,
  "lat": 49.2545354,
  "lon": 4.0405521,
  "tags": {
    "bench": "yes",
    "bus": "yes",
    "departures_board": "timetable",
    "highway": "bus_stop",
    "name": "Jamot",
    "network": "CITURA",
    "operator": "Transdev Reims",
    "public_transport": "platform",
    "shelter": "no"
  }
},
{
  "type": "node",
  "id": 7088309752,
  "lat": 49.2257572,
  "lon": 4.1015029,
  "tags": {
    "bus": "yes",
    "departures_board": "timetable",
    "highway": "bus_stop",
    "name": "Saint-Léonard",
    "network": "CITURA",
    "operator": "Transdev Reims",
    "public_transport": "platform",
    "shelter": "no"
  }
},
{
  "type": "node",
  "id": 7088335172,
  "lat": 49.2260610,
  "lon": 4.1010910,
  "tags": {
    "bus": "yes",
    "departures_board": "timetable",
    "highway": "bus_stop",
    "name": "Saint-Léonard",
    "network": "CITURA",
    "operator": "Transdev Reims",
    "public_transport": "platform",
    "shelter": "no"
  }
},
{
  "type": "node",
  "id": 7088374880,
  "lat": 49.2204126,
  "lon": 4.1120821,
  "tags": {
    "bus": "yes",
    "departures_board": "timetable",
    "highway": "bus_stop",
    "name": "Val Clair",
    "network": "CITURA",
    "operator": "Transdev Reims",
    "public_transport": "platform",
    "shelter": "no"
  }
},
{
  "type": "node",
  "id": 7088374881,
  "lat": 49.2189505,
  "lon": 4.1173169,
  "tags": {
    "bus": "yes",
    "departures_board": "timetable",
    "highway": "bus_stop",
    "name": "Z.I. Pompelle",
    "network": "CITURA",
    "operator": "Transdev Reims",
    "public_transport": "platform",
    "shelter": "no"
  }
},
{
  "type": "node",
  "id": 7088374882,
  "lat": 49.2206410,
  "lon": 4.1118159,
  "tags": {
    "bus": "yes",
    "departures_board": "timetable",
    "highway": "bus_stop",
    "name": "Val Clair",
    "network": "CITURA",
    "operator": "Transdev Reims",
    "public_transport": "platform",
    "shelter": "no"
  }
},
{
  "type": "node",
  "id": 7122190861,
  "lat": 49.2603864,
  "lon": 4.0478333,
  "tags": {
    "bench": "yes",
    "bin": "yes",
    "bus": "yes",
    "highway": "bus_stop",
    "lit": "yes",
    "name": "Brouette",
    "public_transport": "platform",
    "shelter": "yes",
    "source": "cadastre-dgi-fr source : Direction Générale des Impôts - Cadastre;mise à jour : 2008",
    "tactile_paving": "yes"
  }
},
{
  "type": "node",
  "id": 7122201841,
  "lat": 49.2614128,
  "lon": 4.0506459,
  "tags": {
    "bench": "yes",
    "bin": "yes",
    "bus": "yes",
    "departures_board": "no",
    "highway": "bus_stop",
    "lit": "yes",
    "name": "Gobelins",
    "public_transport": "platform",
    "shelter": "yes",
    "tactile_paving": "yes"
  }
},
{
  "type": "node",
  "id": 7122201843,
  "lat": 49.2612552,
  "lon": 4.0497313,
  "tags": {
    "bench": "yes",
    "bin": "yes",
    "bus": "yes",
    "departures_board": "no",
    "highway": "bus_stop",
    "lit": "yes",
    "name": "Gobelins",
    "network": "CITURA",
    "operator": "TransDev",
    "public_transport": "platform",
    "shelter": "yes",
    "tactile_paving": "yes"
  }
},
{
  "type": "node",
  "id": 7122345408,
  "lat": 49.2589488,
  "lon": 4.0435146,
  "tags": {
    "bus": "yes",
    "departures_board": "no",
    "highway": "bus_stop",
    "name": "Jacquart",
    "public_transport": "platform",
    "shelter": "no"
  }
},
{
  "type": "node",
  "id": 7122376775,
  "lat": 49.2579257,
  "lon": 4.0413831,
  "tags": {
    "bench": "no",
    "bus": "yes",
    "departures_board": "no",
    "highway": "bus_stop",
    "name": "Saint-André",
    "public_transport": "platform",
    "shelter": "no"
  }
},
{
  "type": "node",
  "id": 7122380801,
  "lat": 49.2580125,
  "lon": 4.0415934,
  "tags": {
    "bench": "yes",
    "bus": "yes",
    "departures_board": "no",
    "highway": "bus_stop",
    "name": "Saint-André",
    "network": "CITURA",
    "note": "A vérifier",
    "operator": "TransDev",
    "public_transport": "platform",
    "shelter": "yes"
  }
},
{
  "type": "node",
  "id": 7122380802,
  "lat": 49.2580799,
  "lon": 4.0413990,
  "tags": {
    "bench": "yes",
    "bus": "yes",
    "departures_board": "no",
    "highway": "bus_stop",
    "name": "Saint-André",
    "public_transport": "platform",
    "shelter": "yes"
  }
},
{
  "type": "node",
  "id": 7122399473,
  "lat": 49.2625725,
  "lon": 4.0537480,
  "tags": {
    "bench": "yes",
    "bus": "yes",
    "departures_board": "no",
    "highway": "bus_stop",
    "name": "Chalet",
    "public_transport": "platform",
    "shelter": "yes",
    "source": "cadastre-dgi-fr source : Direction Générale des Impôts - Cadastre;mise à jour : 2008"
  }
},
{
  "type": "node",
  "id": 7124326479,
  "lat": 49.2261464,
  "lon": 4.0421149,
  "tags": {
    "bus": "yes",
    "highway": "bus_stop",
    "name": "Phéniciens",
    "network": "CITURA",
    "operator": "Transdev Reims",
    "public_transport": "platform"
  }
},
{
  "type": "node",
  "id": 7124326481,
  "lat": 49.2269236,
  "lon": 4.0408467,
  "tags": {
    "bench": "yes",
    "bus": "yes",
    "departures_board": "no",
    "highway": "bus_stop",
    "name": "Phéniciens",
    "public_transport": "platform",
    "shelter": "yes"
  }
},
{
  "type": "node",
  "id": 7124563219,
  "lat": 49.2285437,
  "lon": 4.0373952,
  "tags": {
    "bus": "yes",
    "highway": "bus_stop",
    "name": "Colomb",
    "network": "CITURA",
    "operator": "TransDev",
    "public_transport": "platform"
  }
},
{
  "type": "node",
  "id": 7124576074,
  "lat": 49.2436551,
  "lon": 4.0347536,
  "tags": {
    "bench": "yes",
    "bin": "yes",
    "bus": "yes",
    "departures_board": "timetable",
    "highway": "bus_stop",
    "lit": "yes",
    "name": "Tuilerie",
    "network": "CITURA",
    "operator": "Transdev Reims",
    "public_transport": "platform",
    "shelter": "yes",
    "tactile_paving": "no"
  }
},
{
  "type": "node",
  "id": 7124576075,
  "lat": 49.2436966,
  "lon": 4.0346571,
  "tags": {
    "bench": "yes",
    "bin": "yes",
    "bus": "yes",
    "departures_board": "timetable",
    "highway": "bus_stop",
    "name": "Tuilerie",
    "network": "CITURA",
    "operator": "Transdev Reims",
    "public_transport": "platform",
    "shelter": "yes",
    "tactile_paving": "no"
  }
},
{
  "type": "node",
  "id": 7124599644,
  "lat": 49.2350875,
  "lon": 4.0331272,
  "tags": {
    "bench": "yes",
    "bus": "yes",
    "highway": "bus_stop",
    "name": "Harman",
    "network": "CITURA",
    "operator": "Transdev Reims",
    "public_transport": "platform",
    "shelter": "yes"
  }
},
{
  "type": "node",
  "id": 7124599645,
  "lat": 49.2350286,
  "lon": 4.0332087,
  "tags": {
    "bench": "yes",
    "bus": "yes",
    "highway": "bus_stop",
    "name": "Harman",
    "network": "CITURA",
    "operator": "Transdev Reims",
    "public_transport": "platform",
    "shelter": "yes"
  }
},
{
  "type": "node",
  "id": 7124599646,
  "lat": 49.2350434,
  "lon": 4.0331829,
  "tags": {
    "bus": "yes",
    "highway": "bus_stop",
    "name": "Harman",
    "public_transport": "platform"
  }
},
{
  "type": "node",
  "id": 7124599647,
  "lat": 49.2350868,
  "lon": 4.0331697,
  "tags": {
    "bus": "yes",
    "highway": "bus_stop",
    "name": "Harman",
    "network": "CITURA",
    "operator": "Transdev Reims",
    "public_transport": "platform"
  }
},
{
  "type": "node",
  "id": 7124600052,
  "lat": 49.2325377,
  "lon": 4.0328531,
  "tags": {
    "bench": "yes",
    "bus": "yes",
    "highway": "bus_stop",
    "name": "Alexandre 1er",
    "network": "CITURA",
    "operator": "Transdev Reims",
    "public_transport": "platform",
    "shelter": "yes"
  }
},
{
  "type": "node",
  "id": 7124600055,
  "lat": 49.2327060,
  "lon": 4.0326925,
  "tags": {
    "bench": "yes",
    "bus": "yes",
    "highway": "bus_stop",
    "name": "Alexandre 1er",
    "public_transport": "platform",
    "shelter": "yes"
  }
},
{
  "type": "node",
  "id": 7124600056,
  "lat": 49.2326998,
  "lon": 4.0333040,
  "tags": {
    "bench": "yes",
    "bus": "yes",
    "highway": "bus_stop",
    "name": "Alexandre 1er",
    "network": "CITURA",
    "operator": "Transdev Reims",
    "public_transport": "platform",
    "shelter": "yes"
  }
},
{
  "type": "node",
  "id": 7124600057,
  "lat": 49.2330431,
  "lon": 4.0333885,
  "tags": {
    "bench": "yes",
    "bus": "yes",
    "highway": "bus_stop",
    "name": "Alexandre 1er",
    "network": "CITURA",
    "operator": "Transdev Reims",
    "public_transport": "platform",
    "shelter": "yes"
  }
},
{
  "type": "node",
  "id": 7124627486,
  "lat": 49.2386745,
  "lon": 4.0314761,
  "tags": {
    "bench": "yes",
    "bin": "yes",
    "bus": "yes",
    "highway": "bus_stop",
    "lit": "yes",
    "name": "Sainte-Anne",
    "network": "CITURA",
    "operator": "Transdev Reims",
    "public_transport": "platform",
    "shelter": "yes",
    "tactile_paving": "yes"
  }
},
{
  "type": "node",
  "id": 7124627487,
  "lat": 49.2388803,
  "lon": 4.0315110,
  "tags": {
    "bench": "yes",
    "bin": "yes",
    "bus": "yes",
    "highway": "bus_stop",
    "lit": "yes",
    "name": "Sainte-Anne",
    "network": "CITURA",
    "operator": "Transdev Reims",
    "public_transport": "platform",
    "shelter": "yes",
    "tactile_paving": "yes"
  }
},
{
  "type": "node",
  "id": 7124627488,
  "lat": 49.2385520,
  "lon": 4.0308216,
  "tags": {
    "bench": "yes",
    "bus": "yes",
    "highway": "bus_stop",
    "name": "Sainte-Anne",
    "network": "CITURA",
    "operator": "Transdev Reims",
    "public_transport": "platform",
    "shelter": "yes"
  }
},
{
  "type": "node",
  "id": 7124627489,
  "lat": 49.2385807,
  "lon": 4.0307509,
  "tags": {
    "bus": "yes",
    "highway": "bus_stop",
    "name": "Sainte-Anne",
    "public_transport": "platform"
  }
},
{
  "type": "node",
  "id": 7124627493,
  "lat": 49.2389451,
  "lon": 4.0308316,
  "tags": {
    "bench": "yes",
    "bus": "yes",
    "highway": "bus_stop",
    "name": "Sainte-Anne",
    "network": "CITURA",
    "operator": "Transdev Reims",
    "public_transport": "platform",
    "shelter": "yes"
  }
},
{
  "type": "node",
  "id": 7124635930,
  "lat": 49.2408843,
  "lon": 4.0335411,
  "tags": {
    "bench": "yes",
    "bus": "yes",
    "highway": "bus_stop",
    "name": "Rollin",
    "network": "CITURA",
    "operator": "Transdev Reims",
    "public_transport": "platform",
    "shelter": "yes"
  }
},
{
  "type": "node",
  "id": 7124635931,
  "lat": 49.2408964,
  "lon": 4.0337198,
  "tags": {
    "bench": "yes",
    "bus": "yes",
    "highway": "bus_stop",
    "name": "Rollin",
    "network": "CITURA",
    "operator": "Transdev Reims",
    "public_transport": "platform",
    "shelter": "yes"
  }
},
{
  "type": "node",
  "id": 7124639608,
  "lat": 49.2446572,
  "lon": 4.0371185,
  "tags": {
    "bench": "yes",
    "bus": "yes",
    "highway": "bus_stop",
    "name": "Saint-Bernard",
    "network": "CITURA",
    "operator": "Transdev Reims",
    "public_transport": "platform",
    "shelter": "yes"
  }
},
{
  "type": "node",
  "id": 7124639609,
  "lat": 49.2445355,
  "lon": 4.0373465,
  "tags": {
    "bench": "yes",
    "bus": "yes",
    "highway": "bus_stop",
    "name": "Saint-Bernard",
    "network": "CITURA",
    "operator": "Transdev Reims",
    "public_transport": "platform",
    "shelter": "yes"
  }
},
{
  "type": "node",
  "id": 7124644869,
  "lat": 49.2451201,
  "lon": 4.0404469,
  "tags": {
    "bench": "yes",
    "bus": "yes",
    "departures_board": "no",
    "highway": "bus_stop",
    "local_ref": "6|9",
    "name": "Saint-Maurice",
    "public_transport": "platform",
    "shelter": "yes"
  }
},
{
  "type": "node",
  "id": 7124748298,
  "lat": 49.2545432,
  "lon": 4.0300943,
  "tags": {
    "bench": "yes",
    "bus": "yes",
    "departures_board": "realtime",
    "highway": "bus_stop",
    "name": "Opéra-Cathédrale",
    "note": "Arrêt pour les lignes 2, 4, 5, 6, 9, 16 et TAD.",
    "public_transport": "platform",
    "shelter": "no"
  }
},
{
  "type": "node",
  "id": 7124756282,
  "lat": 49.2622524,
  "lon": 4.0187592,
  "tags": {
    "bench": "yes",
    "bus": "yes",
    "departures_board": "no",
    "highway": "bus_stop",
    "name": "Romains",
    "network": "CITURA",
    "operator": "Transdev Reims",
    "public_transport": "platform",
    "shelter": "yes"
  }
},
{
  "type": "node",
  "id": 7124758638,
  "lat": 49.2594121,
  "lon": 4.0223667,
  "tags": {
    "bench": "yes",
    "bus": "yes",
    "highway": "bus_stop",
    "name": "Gare Claimarais",
    "note": "Arrêt pour ligne 4 et 9.",
    "public_transport": "platform",
    "shelter": "yes"
  }
},
{
  "type": "node",
  "id": 7124758639,
  "lat": 49.2591073,
  "lon": 4.0222077,
  "tags": {
    "bench": "yes",
    "bus": "yes",
    "highway": "bus_stop",
    "name": "Gare Claimarais",
    "network": "CITURA",
    "note": "Arrêt pour ligne 4 et 9.",
    "operator": "Transdev Reims",
    "public_transport": "platform",
    "shelter": "yes"
  }
},
{
  "type": "node",
  "id": 7124792082,
  "lat": 49.2619379,
  "lon": 4.0143228,
  "tags": {
    "bench": "yes",
    "bus": "yes",
    "departures_board": "no",
    "highway": "bus_stop",
    "name": "Baussonnet",
    "network": "CITURA",
    "operator": "Transdev Reims",
    "public_transport": "platform",
    "shelter": "yes"
  }
},
{
  "type": "node",
  "id": 7124792084,
  "lat": 49.2618832,
  "lon": 4.0142234,
  "tags": {
    "bench": "yes",
    "bus": "yes",
    "departures_board": "no",
    "highway": "bus_stop",
    "name": "Baussonnet",
    "network": "CITURA",
    "operator": "Transdev Reims",
    "public_transport": "platform",
    "shelter": "yes"
  }
},
{
  "type": "node",
  "id": 7124801959,
  "lat": 49.2623410,
  "lon": 4.0102554,
  "tags": {
    "bench": "yes",
    "bus": "yes",
    "departures_board": "no",
    "highway": "bus_stop",
    "name": "Danemark",
    "network": "CITURA",
    "operator": "Transdev Reims",
    "public_transport": "platform",
    "shelter": "yes"
  }
},
{
  "type": "node",
  "id": 7124801961,
  "lat": 49.2622789,
  "lon": 4.0100073,
  "tags": {
    "bench": "no",
    "bus": "yes",
    "departures_board": "no",
    "highway": "bus_stop",
    "name": "Danemark",
    "network": "CITURA",
    "operator": "Transdev Reims",
    "public_transport": "platform",
    "shelter": "no"
  }
},
{
  "type": "node",
  "id": 7124807390,
  "lat": 49.2627414,
  "lon": 4.0061593,
  "tags": {
    "bench": "no",
    "bus": "yes",
    "departures_board": "no",
    "highway": "bus_stop",
    "name": "Pont de Saint-Brice",
    "network": "CITURA",
    "operator": "Transdev Reims",
    "public_transport": "platform",
    "shelter": "no"
  }
},
{
  "type": "node",
  "id": 7124807392,
  "lat": 49.2631156,
  "lon": 4.0004136,
  "tags": {
    "bench": "no",
    "bus": "yes",
    "departures_board": "no",
    "highway": "bus_stop",
    "name": "Pont de Saint-Brice",
    "network": "CITURA",
    "operator": "Transdev Reims",
    "public_transport": "platform",
    "shelter": "no"
  }
},
{
  "type": "node",
  "id": 7124812294,
  "lat": 49.2635358,
  "lon": 3.9958237,
  "tags": {
    "bench": "yes",
    "bus": "yes",
    "departures_board": "no",
    "highway": "bus_stop",
    "name": "Verrerie",
    "public_transport": "platform",
    "shelter": "yes"
  }
},
{
  "type": "node",
  "id": 7167561424,
  "lat": 49.2680148,
  "lon": 4.0381888,
  "tags": {
    "bus": "yes",
    "departures_board": "no",
    "highway": "bus_stop",
    "name": "Cartonnerie",
    "network": "CITURA",
    "operator": "TransDev",
    "public_transport": "platform"
  }
},
{
  "type": "node",
  "id": 7167561426,
  "lat": 49.2679095,
  "lon": 4.0378298,
  "tags": {
    "bus": "yes",
    "departures_board": "no",
    "highway": "bus_stop",
    "name": "Cartonnerie",
    "public_transport": "platform"
  }
},
{
  "type": "node",
  "id": 7176745865,
  "lat": 49.2295473,
  "lon": 4.0651481,
  "tags": {
    "bench": "yes",
    "bus": "yes",
    "departures_board": "no",
    "highway": "bus_stop",
    "name": "Voisin",
    "network": "CITURA",
    "operator": "TransDev",
    "public_transport": "platform",
    "shelter": "no"
  }
},
{
  "type": "node",
  "id": 7176745867,
  "lat": 49.2293329,
  "lon": 4.0647013,
  "tags": {
    "bench": "yes",
    "bus": "yes",
    "departures_board": "no",
    "highway": "bus_stop",
    "name": "Voisin",
    "network": "CITURA",
    "operator": "TransDev",
    "public_transport": "platform",
    "shelter": "no"
  }
},
{
  "type": "node",
  "id": 7176745868,
  "lat": 49.2294223,
  "lon": 4.0646947,
  "tags": {
    "bus": "yes",
    "departures_board": "no",
    "highway": "bus_stop",
    "name": "Voisin",
    "network": "CITURA",
    "operator": "TransDev",
    "public_transport": "platform",
    "shelter": "no"
  }
},
{
  "type": "node",
  "id": 7180966674,
  "lat": 49.2476062,
  "lon": 4.0341083,
  "tags": {
    "bus": "yes",
    "departures_board": "no",
    "highway": "bus_stop",
    "name": "Venise",
    "network": "CITURA",
    "operator": "TransDev",
    "public_transport": "platform",
    "shelter": "no"
  }
},
{
  "type": "node",
  "id": 7180973465,
  "lat": 49.2476517,
  "lon": 4.0339002,
  "tags": {
    "bench": "yes",
    "bus": "yes",
    "departures_board": "no",
    "highway": "bus_stop",
    "name": "Venise",
    "network": "CITURA",
    "operator": "Transdev Reims",
    "public_transport": "platform",
    "shelter": "no"
  }
},
{
  "type": "node",
  "id": 7181238859,
  "lat": 49.2674729,
  "lon": 4.0663439,
  "tags": {
    "bench": "yes",
    "bus": "yes",
    "departures_board": "no",
    "highway": "bus_stop",
    "name": "Sainte-Thérèse",
    "public_transport": "platform",
    "shelter": "yes"
  }
},
{
  "type": "node",
  "id": 7181238861,
  "lat": 49.2677332,
  "lon": 4.0673661,
  "tags": {
    "bus": "yes",
    "departures_board": "no",
    "highway": "bus_stop",
    "name": "Sainte-Thérèse",
    "public_transport": "platform",
    "shelter": "no"
  }
},
{
  "type": "node",
  "id": 7181489943,
  "lat": 49.2650045,
  "lon": 4.0597013,
  "tags": {
    "bench": "yes",
    "bus": "yes",
    "departures_board": "no",
    "highway": "bus_stop",
    "name": "Naudin",
    "public_transport": "platform",
    "shelter": "yes"
  }
},
{
  "type": "node",
  "id": 7181489949,
  "lat": 49.2656276,
  "lon": 4.0618148,
  "tags": {
    "bench": "yes",
    "bus": "yes",
    "departures_board": "no",
    "highway": "bus_stop",
    "name": "Naudin",
    "public_transport": "platform",
    "shelter": "no"
  }
},
{
  "type": "node",
  "id": 7181489954,
  "lat": 49.2645746,
  "lon": 4.0603061,
  "tags": {
    "bus": "yes",
    "departures_board": "no",
    "highway": "bus_stop",
    "name": "Naudin",
    "public_transport": "platform",
    "shelter": "no"
  }
},
{
  "type": "node",
  "id": 7181511028,
  "lat": 49.2684406,
  "lon": 4.0688945,
  "tags": {
    "bench": "yes",
    "bus": "yes",
    "departures_board": "no",
    "highway": "bus_stop",
    "name": "Epinettes",
    "public_transport": "platform",
    "shelter": "yes",
    "source": "cadastre-dgi-fr source : Direction Générale des Impôts - Cadastre;mise à jour : 2008"
  }
},
{
  "type": "node",
  "id": 7181511030,
  "lat": 49.2685365,
  "lon": 4.0701300,
  "tags": {
    "bench": "yes",
    "bus": "yes",
    "departures_board": "no",
    "highway": "bus_stop",
    "name": "Epinettes",
    "public_transport": "platform",
    "shelter": "yes"
  }
},
{
  "type": "node",
  "id": 7181532518,
  "lat": 49.2709329,
  "lon": 4.0704751,
  "tags": {
    "bench": "yes",
    "bus": "yes",
    "departures_board": "no",
    "highway": "bus_stop",
    "name": "Berthelot",
    "public_transport": "platform",
    "shelter": "yes"
  }
},
{
  "type": "node",
  "id": 7181568144,
  "lat": 49.2716665,
  "lon": 4.0740814,
  "tags": {
    "bus": "yes",
    "departures_board": "no",
    "highway": "bus_stop",
    "name": "Papin",
    "network": "CITURA",
    "operator": "TransDev",
    "public_transport": "platform",
    "shelter": "no"
  }
},
{
  "type": "node",
  "id": 7181615934,
  "lat": 49.2573131,
  "lon": 4.0463452,
  "tags": {
    "bus": "yes",
    "departures_board": "no",
    "highway": "bus_stop",
    "name": "Ferry",
    "network": "CITURA",
    "note": "A vérifier",
    "operator": "TransDev",
    "public_transport": "platform",
    "shelter": "no"
  }
},
{
  "type": "node",
  "id": 7181772405,
  "lat": 49.2577725,
  "lon": 4.0519122,
  "tags": {
    "bus": "yes",
    "departures_board": "no",
    "highway": "bus_stop",
    "name": "Strasbourg",
    "public_transport": "platform",
    "shelter": "no"
  }
},
{
  "type": "node",
  "id": 7181772406,
  "lat": 49.2576637,
  "lon": 4.0515003,
  "tags": {
    "bus": "yes",
    "departures_board": "no",
    "highway": "bus_stop",
    "name": "Strasbourg",
    "public_transport": "platform",
    "shelter": "no"
  }
},
{
  "type": "node",
  "id": 7181789016,
  "lat": 49.2571102,
  "lon": 4.0557050,
  "tags": {
    "bus": "yes",
    "departures_board": "no",
    "highway": "bus_stop",
    "name": "Dauphinot",
    "public_transport": "platform",
    "shelter": "no"
  }
},
{
  "type": "node",
  "id": 7181789019,
  "lat": 49.2580088,
  "lon": 4.0552005,
  "tags": {
    "bus": "yes",
    "departures_board": "no",
    "highway": "bus_stop",
    "name": "Dauphinot",
    "public_transport": "platform",
    "shelter": "yes"
  }
},
{
  "type": "node",
  "id": 7181825004,
  "lat": 49.2553958,
  "lon": 4.0550323,
  "tags": {
    "bus": "yes",
    "departures_board": "no",
    "highway": "bus_stop",
    "name": "Barbuse",
    "public_transport": "platform",
    "shelter": "no"
  }
},
{
  "type": "node",
  "id": 7181825005,
  "lat": 49.2552872,
  "lon": 4.0551102,
  "tags": {
    "bench": "yes",
    "bus": "yes",
    "departures_board": "no",
    "highway": "bus_stop",
    "name": "Barbuse",
    "public_transport": "platform",
    "shelter": "yes"
  }
},
{
  "type": "node",
  "id": 7181849577,
  "lat": 49.2532081,
  "lon": 4.0548187,
  "tags": {
    "bus": "yes",
    "departures_board": "no",
    "highway": "bus_stop",
    "name": "Verrier",
    "public_transport": "platform",
    "shelter": "no"
  }
},
{
  "type": "node",
  "id": 7181849583,
  "lat": 49.2529245,
  "lon": 4.0557468,
  "tags": {
    "bus": "yes",
    "departures_board": "no",
    "highway": "bus_stop",
    "name": "Verrier",
    "public_transport": "platform",
    "shelter": "no"
  }
},
{
  "type": "node",
  "id": 7195571281,
  "lat": 49.2249869,
  "lon": 4.0962988,
  "tags": {
    "bus": "yes",
    "departures_board": "no",
    "highway": "bus_stop",
    "name": "Chemin de Léonard",
    "network": "CITURA",
    "operator": "TransDev",
    "public_transport": "platform",
    "shelter": "no"
  }
},
{
  "type": "node",
  "id": 7195571282,
  "lat": 49.2251644,
  "lon": 4.0960992,
  "tags": {
    "bench": "yes",
    "bus": "yes",
    "departures_board": "no",
    "highway": "bus_stop",
    "name": "Chemin de Léonard",
    "network": "CITURA",
    "operator": "TransDev",
    "public_transport": "platform",
    "shelter": "yes"
  }
},
{
  "type": "node",
  "id": 7195635117,
  "lat": 49.2225318,
  "lon": 4.1056879,
  "tags": {
    "bus": "yes",
    "departures_board": "no",
    "highway": "bus_stop",
    "name": "Senefelder",
    "network": "CITURA",
    "operator": "TransDev",
    "public_transport": "platform",
    "shelter": "no"
  }
},
{
  "type": "node",
  "id": 7195635119,
  "lat": 49.2226124,
  "lon": 4.1051126,
  "tags": {
    "bus": "yes",
    "departures_board": "no",
    "highway": "bus_stop",
    "name": "Senefelder",
    "network": "CITURA",
    "operator": "TransDev",
    "public_transport": "platform",
    "shelter": "no"
  }
},
{
  "type": "node",
  "id": 7195639365,
  "lat": 49.2267282,
  "lon": 4.0858433,
  "tags": {
    "bench": "yes",
    "bus": "yes",
    "departures_board": "no",
    "highway": "bus_stop",
    "name": "Hollande",
    "network": "CITURA",
    "operator": "TransDev",
    "public_transport": "platform",
    "shelter": "yes"
  }
},
{
  "type": "node",
  "id": 7195639367,
  "lat": 49.2265174,
  "lon": 4.0859989,
  "tags": {
    "bench": "no",
    "bus": "yes",
    "departures_board": "no",
    "highway": "bus_stop",
    "name": "Hollande",
    "network": "CITURA",
    "operator": "TransDev",
    "public_transport": "platform",
    "shelter": "no"
  }
},
{
  "type": "node",
  "id": 7195679013,
  "lat": 49.2294040,
  "lon": 4.0879493,
  "tags": {
    "bench": "yes",
    "bus": "yes",
    "highway": "bus_stop",
    "name": "Macecliers",
    "network": "CITURA",
    "operator": "TransDev",
    "public_transport": "platform",
    "shelter": "yes"
  }
},
{
  "type": "node",
  "id": 7195679014,
  "lat": 49.2299284,
  "lon": 4.0881094,
  "tags": {
    "bench": "yes",
    "bus": "yes",
    "departures_board": "no",
    "highway": "bus_stop",
    "name": "Macecliers",
    "network": "CITURA",
    "operator": "TransDev",
    "public_transport": "platform",
    "shelter": "no"
  }
},
{
  "type": "node",
  "id": 7195691516,
  "lat": 49.2318634,
  "lon": 4.0833397,
  "tags": {
    "bus": "yes",
    "departures_board": "no",
    "highway": "bus_stop",
    "name": "Maino",
    "network": "CITURA",
    "operator": "TransDev",
    "public_transport": "platform",
    "shelter": "no"
  }
},
{
  "type": "node",
  "id": 7195691518,
  "lat": 49.2311241,
  "lon": 4.0854999,
  "tags": {
    "bench": "yes",
    "bus": "yes",
    "departures_board": "no",
    "highway": "bus_stop",
    "name": "Maino",
    "network": "CITURA",
    "operator": "TransDev",
    "public_transport": "platform",
    "shelter": "yes"
  }
},
{
  "type": "node",
  "id": 7214933997,
  "lat": 49.2314415,
  "lon": 4.0737538,
  "tags": {
    "bus": "yes",
    "departures_board": "no",
    "highway": "bus_stop",
    "name": "Fulton",
    "network": "CITURA",
    "operator": "TransDev",
    "public_transport": "platform",
    "shelter": "no"
  }
},
{
  "type": "node",
  "id": 7214933999,
  "lat": 49.2314115,
  "lon": 4.0740885,
  "tags": {
    "bench": "yes",
    "bus": "yes",
    "departures_board": "no",
    "highway": "bus_stop",
    "name": "Fulton",
    "network": "CITURA",
    "operator": "TransDev",
    "public_transport": "platform",
    "shelter": "no"
  }
},
{
  "type": "node",
  "id": 7214952261,
  "lat": 49.2302316,
  "lon": 4.0716305,
  "tags": {
    "bench": "yes",
    "bus": "yes",
    "departures_board": "no",
    "highway": "bus_stop",
    "name": "Vrilly",
    "network": "CITURA",
    "operator": "TransDev",
    "public_transport": "platform",
    "shelter": "yes"
  }
},
{
  "type": "node",
  "id": 7214952263,
  "lat": 49.2298993,
  "lon": 4.0710299,
  "tags": {
    "bench": "no",
    "bus": "yes",
    "departures_board": "no",
    "highway": "bus_stop",
    "name": "Vrilly",
    "network": "CITURA",
    "operator": "TransDev",
    "public_transport": "platform",
    "shelter": "no"
  }
},
{
  "type": "node",
  "id": 7214956293,
  "lat": 49.2325640,
  "lon": 4.0794909,
  "tags": {
    "bus": "yes",
    "departures_board": "no",
    "highway": "bus_stop",
    "name": "Coffignot",
    "network": "CITURA",
    "operator": "TransDev",
    "public_transport": "platform",
    "shelter": "no"
  }
},
{
  "type": "node",
  "id": 7214956295,
  "lat": 49.2324064,
  "lon": 4.0799911,
  "tags": {
    "bus": "yes",
    "departures_board": "no",
    "highway": "bus_stop",
    "name": "Coffignot",
    "network": "CITURA",
    "operator": "TransDev",
    "public_transport": "platform",
    "shelter": "no"
  }
},
{
  "type": "node",
  "id": 7214998783,
  "lat": 49.2313191,
  "lon": 4.0621165,
  "tags": {
    "bench": "yes",
    "bus": "yes",
    "departures_board": "no",
    "highway": "bus_stop",
    "name": "Hoche",
    "network": "CITURA",
    "operator": "TransDev",
    "public_transport": "platform",
    "shelter": "yes"
  }
},
{
  "type": "node",
  "id": 7215023986,
  "lat": 49.2310840,
  "lon": 4.0617957,
  "tags": {
    "bench": "no",
    "bus": "yes",
    "departures_board": "no",
    "highway": "bus_stop",
    "name": "Hoche",
    "network": "CITURA",
    "operator": "TransDev",
    "public_transport": "platform",
    "shelter": "no"
  }
},
{
  "type": "node",
  "id": 7215665251,
  "lat": 49.2110044,
  "lon": 4.0186602,
  "tags": {
    "bench": "yes",
    "bus": "yes",
    "departures_board": "no",
    "highway": "bus_stop",
    "name": "Murigny",
    "public_transport": "platform",
    "shelter": "yes"
  }
},
{
  "type": "node",
  "id": 7215665252,
  "lat": 49.2113904,
  "lon": 4.0186792,
  "tags": {
    "bench": "yes",
    "bus": "yes",
    "departures_board": "no",
    "highway": "bus_stop",
    "name": "Murigny",
    "network": "CITURA",
    "operator": "TransDev",
    "public_transport": "platform",
    "shelter": "yes"
  }
},
{
  "type": "node",
  "id": 7215731241,
  "lat": 49.2105611,
  "lon": 4.0215978,
  "tags": {
    "bench": "yes",
    "bus": "yes",
    "highway": "bus_stop",
    "name": "Dostoievski",
    "public_transport": "platform",
    "shelter": "yes",
    "source": "cadastre-dgi-fr source : Direction Générale des Impôts - Cadastre;mise à jour : 2008"
  }
},
{
  "type": "node",
  "id": 7215731248,
  "lat": 49.2100540,
  "lon": 4.0220683,
  "tags": {
    "bench": "yes",
    "bus": "yes",
    "highway": "bus_stop",
    "name": "Dostoievski",
    "network": "CITURA",
    "operator": "TransDev",
    "public_transport": "platform",
    "shelter": "yes",
    "source": "cadastre-dgi-fr source : Direction Générale des Impôts - Cadastre;mise à jour : 2008"
  }
},
{
  "type": "node",
  "id": 7215850853,
  "lat": 49.2097756,
  "lon": 4.0253768,
  "tags": {
    "bench": "yes",
    "bus": "yes",
    "departures_board": "no",
    "highway": "bus_stop",
    "name": "Val de Murigny",
    "public_transport": "platform",
    "shelter": "yes"
  }
},
{
  "type": "node",
  "id": 7215962376,
  "lat": 49.2121648,
  "lon": 4.0279699,
  "tags": {
    "bench": "yes",
    "bus": "yes",
    "departures_board": "no",
    "highway": "bus_stop",
    "name": "Verdi",
    "public_transport": "platform",
    "shelter": "yes"
  }
},
{
  "type": "node",
  "id": 7215962377,
  "lat": 49.2114225,
  "lon": 4.0280116,
  "tags": {
    "bench": "yes",
    "bus": "yes",
    "departures_board": "no",
    "highway": "bus_stop",
    "name": "Verdi",
    "public_transport": "platform",
    "shelter": "no"
  }
},
{
  "type": "node",
  "id": 7216140609,
  "lat": 49.2136861,
  "lon": 4.0267242,
  "tags": {
    "bench": "yes",
    "bus": "yes",
    "departures_board": "no",
    "highway": "bus_stop",
    "name": "Méliès",
    "public_transport": "platform",
    "shelter": "yes",
    "source": "cadastre-dgi-fr source : Direction Générale des Impôts - Cadastre;mise à jour : 2008"
  }
},
{
  "type": "node",
  "id": 7216140611,
  "lat": 49.2136046,
  "lon": 4.0266120,
  "tags": {
    "bench": "no",
    "bus": "yes",
    "departures_board": "no",
    "highway": "bus_stop",
    "name": "Méliès",
    "public_transport": "platform",
    "shelter": "no",
    "source": "cadastre-dgi-fr source : Direction Générale des Impôts - Cadastre;mise à jour : 2008"
  }
},
{
  "type": "node",
  "id": 7216192465,
  "lat": 49.2162967,
  "lon": 4.0285609,
  "tags": {
    "bench": "yes",
    "bus": "yes",
    "departures_board": "no",
    "highway": "bus_stop",
    "name": "Richelieu",
    "public_transport": "platform",
    "shelter": "yes",
    "source": "data.gouv.fr/fr/datasets/parcours-arrets-et-horaires-theoriques-du-reseau-de-transport-citura-de-la-communaute-urbaine-du-grand-reims-gtfs/",
    "tactile_paving": "no"
  }
},
{
  "type": "node",
  "id": 7216192468,
  "lat": 49.2160765,
  "lon": 4.0276036,
  "tags": {
    "bus": "yes",
    "departures_board": "no",
    "highway": "bus_stop",
    "name": "Richelieu",
    "note": "Source : https://www.data.gouv.fr/fr/datasets/parcours-arrets-et-horaires-theoriques-du-reseau-de-transport-citura-de-la-communaute-urbaine-du-grand-reims-gtfs/",
    "public_transport": "platform",
    "shelter": "no",
    "source": "cadastre-dgi-fr source : Direction Générale des Impôts - Cadastre;mise à jour : 2008",
    "tactile_paving": "no"
  }
},
{
  "type": "node",
  "id": 7216239487,
  "lat": 49.2175382,
  "lon": 4.0284338,
  "tags": {
    "bench": "yes",
    "bus": "yes",
    "departures_board": "no",
    "highway": "bus_stop",
    "name": "Pompidou",
    "public_transport": "platform",
    "shelter": "no"
  }
},
{
  "type": "node",
  "id": 7216363911,
  "lat": 49.2141747,
  "lon": 4.0220047,
  "tags": {
    "bench": "yes",
    "bus": "yes",
    "departures_board": "no",
    "highway": "bus_stop",
    "name": "Kipling",
    "public_transport": "platform",
    "shelter": "yes"
  }
},
{
  "type": "node",
  "id": 7216363912,
  "lat": 49.2133755,
  "lon": 4.0219972,
  "tags": {
    "bench": "no",
    "bus": "yes",
    "departures_board": "no",
    "highway": "bus_stop",
    "name": "Kipling",
    "network": "CITURA",
    "operator": "TransDev",
    "public_transport": "platform",
    "shelter": "no"
  }
},
{
  "type": "node",
  "id": 7216398329,
  "lat": 49.2184956,
  "lon": 4.0255786,
  "tags": {
    "bench": "yes",
    "bus": "yes",
    "departures_board": "no",
    "highway": "bus_stop",
    "name": "Cervantès",
    "network": "CITURA",
    "operator": "TransDev",
    "public_transport": "platform",
    "shelter": "yes"
  }
},
{
  "type": "node",
  "id": 7216406731,
  "lat": 49.2159497,
  "lon": 4.0237179,
  "tags": {
    "bench": "no",
    "bus": "yes",
    "departures_board": "no",
    "highway": "bus_stop",
    "name": "Nodier",
    "network": "CITURA",
    "operator": "TransDev",
    "public_transport": "platform",
    "shelter": "no"
  }
},
{
  "type": "node",
  "id": 7216406734,
  "lat": 49.2155833,
  "lon": 4.0229928,
  "tags": {
    "bench": "yes",
    "bus": "yes",
    "departures_board": "no",
    "highway": "bus_stop",
    "name": "Nodier",
    "network": "CITURA",
    "operator": "TransDev",
    "public_transport": "platform",
    "shelter": "yes"
  }
},
{
  "type": "node",
  "id": 7216459790,
  "lat": 49.2161839,
  "lon": 4.0259998,
  "tags": {
    "bench": "no",
    "bus": "yes",
    "departures_board": "no",
    "highway": "bus_stop",
    "name": "Montherlant",
    "network": "CITURA",
    "operator": "TransDec",
    "public_transport": "platform",
    "shelter": "no"
  }
},
{
  "type": "node",
  "id": 7216459791,
  "lat": 49.2162817,
  "lon": 4.0253181,
  "tags": {
    "bench": "yes",
    "bus": "yes",
    "departures_board": "no",
    "highway": "bus_stop",
    "name": "Montherlant",
    "public_transport": "platform",
    "shelter": "yes"
  }
},
{
  "type": "node",
  "id": 7216525580,
  "lat": 49.2240445,
  "lon": 4.0181930,
  "tags": {
    "bus": "yes",
    "departures_board": "no",
    "highway": "bus_stop",
    "name": "Braque",
    "network": "CITURA",
    "operator": "TransDev",
    "public_transport": "platform",
    "shelter": "yes"
  }
},
{
  "type": "node",
  "id": 7216525584,
  "lat": 49.2238059,
  "lon": 4.0178306,
  "tags": {
    "bus": "yes",
    "departures_board": "no",
    "highway": "bus_stop",
    "name": "Braque",
    "public_transport": "platform",
    "shelter": "yes"
  }
},
{
  "type": "node",
  "id": 7216672116,
  "lat": 49.2253205,
  "lon": 4.0213031,
  "tags": {
    "bench": "yes",
    "bus": "yes",
    "departures_board": "no",
    "highway": "bus_stop",
    "name": "Jugan",
    "public_transport": "platform",
    "shelter": "yes"
  }
},