{
  "version": 0.6,
  "generator": "Overpass API 0.7.57 93a4d346",
  "osm3s": {
    "timestamp_osm_base": "2022-02-13T13:29:38Z",
    "timestamp_areas_base": "2022-02-13T06:31:57Z",
    "copyright": "The data included in this document is from www.openstreetmap.org. The data is made available under ODbL."
  },
  "elements": [

{
  "type": "node",
  "id": 363565521,
  "lat": 47.2350463,
  "lon": 6.0302532,
  "tags": {
    "bus": "yes",
    "highway": "bus_stop",
    "name": "Péclet",
    "public_transport": "platform"
  }
},
{
  "type": "node",
  "id": 363595606,
  "lat": 47.2338468,
  "lon": 6.0341444,
  "tags": {
    "bus": "yes",
    "highway": "bus_stop",
    "name": "Porte Rivotte",
    "public_transport": "platform"
  }
},
{
  "type": "node",
  "id": 363597517,
  "lat": 47.2348809,
  "lon": 6.0296122,
  "tags": {
    "bench": "yes",
    "bus": "yes",
    "highway": "bus_stop",
    "name": "Victor Hugo",
    "public_transport": "platform",
    "public_transport:version": "2"
  }
},
{
  "type": "node",
  "id": 363600627,
  "lat": 47.2301963,
  "lon": 6.0367413,
  "tags": {
    "bus": "yes",
    "highway": "bus_stop",
    "name": "Rivotte",
    "public_transport": "platform"
  }
},
{
  "type": "node",
  "id": 363823628,
  "lat": 47.2379931,
  "lon": 6.0242623,
  "tags": {
    "bench": "yes",
    "bus": "yes",
    "highway": "bus_stop",
    "name": "8 Septembre",
    "public_transport": "platform",
    "public_transport:version": "2",
    "shelter": "yes"
  }
},
{
  "type": "node",
  "id": 364089074,
  "lat": 47.2335947,
  "lon": 6.0228369,
  "tags": {
    "bus": "yes",
    "highway": "bus_stop",
    "name": "Préfecture",
    "public_transport": "platform",
    "public_transport:version": "2",
    "route_ref": "1 ; 4 ; 6 ; 7 ; 9"
  }
},
{
  "type": "node",
  "id": 364517203,
  "lat": 47.2426290,
  "lon": 6.0211852,
  "tags": {
    "bench": "no",
    "bus": "yes",
    "covered": "no",
    "highway": "bus_stop",
    "name": "Bacchus",
    "public_transport": "platform",
    "public_transport:version": "2",
    "shelter": "no"
  }
},
{
  "type": "node",
  "id": 364836056,
  "lat": 47.2297241,
  "lon": 6.0537425,
  "tags": {
    "bench": "yes",
    "bus": "yes",
    "covered": "yes",
    "highway": "bus_stop",
    "name": "Prés de Vaux",
    "public_transport": "platform",
    "shelter": "yes"
  }
},
{
  "type": "node",
  "id": 418612782,
  "lat": 47.2427598,
  "lon": 6.0468339,
  "tags": {
    "bus": "yes",
    "highway": "bus_stop",
    "name": "Vareilles",
    "public_transport": "platform",
    "route_ref": "76"
  }
},
{
  "type": "node",
  "id": 418622175,
  "lat": 47.2438073,
  "lon": 6.0520200,
  "tags": {
    "bus": "yes",
    "highway": "bus_stop",
    "name": "Bregille",
    "public_transport": "platform"
  }
},
{
  "type": "node",
  "id": 418837485,
  "lat": 47.2303800,
  "lon": 6.0369916,
  "tags": {
    "bus": "yes",
    "highway": "bus_stop",
    "name": "Rivotte",
    "public_transport": "platform"
  }
},
{
  "type": "node",
  "id": 419907829,
  "lat": 47.2394159,
  "lon": 6.0053036,
  "tags": {
    "bus": "yes",
    "highway": "bus_stop",
    "name": "Marmier",
    "public_transport": "platform",
    "traffic_calming": "yes"
  }
},
{
  "type": "node",
  "id": 419907830,
  "lat": 47.2397521,
  "lon": 6.0052627,
  "tags": {
    "bus": "yes",
    "highway": "bus_stop",
    "name": "Marmier",
    "public_transport": "platform"
  }
},
{
  "type": "node",
  "id": 428635187,
  "lat": 47.2371923,
  "lon": 6.0063275,
  "tags": {
    "bench": "no",
    "bin": "no",
    "bus": "yes",
    "highway": "bus_stop",
    "name": "David",
    "public_transport": "platform",
    "shelter": "no",
    "tactile_paving": "no"
  }
},
{
  "type": "node",
  "id": 469974151,
  "lat": 47.2243610,
  "lon": 6.0317499,
  "tags": {
    "bus": "yes",
    "highway": "bus_stop",
    "name": "Creuse",
    "public_transport": "platform",
    "route_ref": "21 ; 85 ; 86"
  }
},
{
  "type": "node",
  "id": 469974152,
  "lat": 47.2245881,
  "lon": 6.0319538,
  "tags": {
    "bus": "yes",
    "highway": "bus_stop",
    "name": "Creuse",
    "public_transport": "platform",
    "route_ref": "21 ; 85 ; 86"
  }
},
{
  "type": "node",
  "id": 471510179,
  "lat": 47.2163904,
  "lon": 5.9791168,
  "tags": {
    "bench": "yes",
    "bus": "yes",
    "covered": "yes",
    "highway": "bus_stop",
    "name": "Polyclinique",
    "public_transport": "platform",
    "shelter": "yes"
  }
},
{
  "type": "node",
  "id": 472118634,
  "lat": 47.2170930,
  "lon": 6.0183697,
  "tags": {
    "bench": "no",
    "bus": "yes",
    "covered": "no",
    "highway": "bus_stop",
    "name": "Pont de Velotte",
    "public_transport": "platform",
    "route_ref": "85 ; 86",
    "shelter": "no"
  }
},
{
  "type": "node",
  "id": 472118635,
  "lat": 47.2170421,
  "lon": 6.0185847,
  "tags": {
    "bench": "no",
    "bus": "yes",
    "covered": "no",
    "highway": "bus_stop",
    "name": "Pont de Velotte",
    "public_transport": "platform",
    "route_ref": "85 ; 86",
    "shelter": "no"
  }
},
{
  "type": "node",
  "id": 472118637,
  "lat": 47.2168408,
  "lon": 5.9817184,
  "tags": {
    "bench": "yes",
    "bus": "yes",
    "covered": "no",
    "highway": "bus_stop",
    "name": "Vallières",
    "public_transport": "platform",
    "shelter": "no"
  }
},
{
  "type": "node",
  "id": 472120859,
  "lat": 47.2159993,
  "lon": 5.9799681,
  "tags": {
    "bench": "no",
    "bus": "yes",
    "covered": "no",
    "highway": "bus_stop",
    "name": "Polyclinique",
    "public_transport": "platform",
    "shelter": "no"
  }
},
{
  "type": "node",
  "id": 609619953,
  "lat": 47.2460608,
  "lon": 6.0281959,
  "tags": {
    "bench": "yes",
    "bus": "yes",
    "highway": "bus_stop",
    "name": "Flore",
    "public_transport": "platform",
    "public_transport:version": "2",
    "shelter": "yes"
  }
},
{
  "type": "node",
  "id": 609778982,
  "lat": 47.2424423,
  "lon": 6.0337673,
  "tags": {
    "bench": "yes",
    "bin": "yes",
    "bus": "yes",
    "covered": "yes",
    "highway": "bus_stop",
    "lit": "yes",
    "name": "Diderot",
    "public_transport": "platform"
  }
},
{
  "type": "node",
  "id": 609778992,
  "lat": 47.2424969,
  "lon": 6.0335849,
  "tags": {
    "bench": "yes",
    "bin": "yes",
    "bus": "yes",
    "highway": "bus_stop",
    "lit": "yes",
    "name": "Diderot",
    "public_transport": "platform",
    "shelter": "no",
    "tactile_paving": "yes"
  }
},
{
  "type": "node",
  "id": 645600326,
  "lat": 47.2461470,
  "lon": 6.0221480,
  "tags": {
    "bench": "yes",
    "bus": "yes",
    "highway": "bus_stop",
    "name": "Gare Viotte",
    "public_transport": "platform",
    "public_transport:version": "2",
    "shelter": "yes"
  }
},
{
  "type": "node",
  "id": 646891951,
  "lat": 47.2366026,
  "lon": 6.0224005,
  "tags": {
    "bench": "yes",
    "bus": "yes",
    "covered": "yes",
    "highway": "bus_stop",
    "name": "Mairie",
    "public_transport": "platform",
    "public_transport:version": "2",
    "shelter": "yes"
  }
},
{
  "type": "node",
  "id": 654103284,
  "lat": 47.2513010,
  "lon": 6.0347368,
  "tags": {
    "bus": "yes",
    "highway": "bus_stop",
    "name": "Baille",
    "public_transport": "platform",
    "public_transport:version": "2",
    "shelter": "yes"
  }
},
{
  "type": "node",
  "id": 654103285,
  "lat": 47.2633540,
  "lon": 6.0455559,
  "tags": {
    "bus": "yes",
    "highway": "bus_stop",
    "name": "Orchamps",
    "public_transport": "platform",
    "shelter": "yes"
  }
},
{
  "type": "node",
  "id": 655073147,
  "lat": 47.2158127,
  "lon": 5.9490701,
  "tags": {
    "bench": "yes",
    "bus": "yes",
    "covered": "yes",
    "highway": "bus_stop",
    "name": "Châteaufarine",
    "passenger_information_display": "yes",
    "public_transport": "platform",
    "route_ref": "4 ; 61",
    "shelter": "yes"
  }
},
{
  "type": "node",
  "id": 655363141,
  "lat": 47.2254856,
  "lon": 5.9719032,
  "tags": {
    "bus": "yes",
    "highway": "bus_stop",
    "name": "Flandres",
    "public_transport": "platform",
    "shelter": "no"
  }
},
{
  "type": "node",
  "id": 655371398,
  "lat": 47.2203181,
  "lon": 5.9779082,
  "tags": {
    "bench": "yes",
    "bus": "yes",
    "covered": "yes",
    "highway": "bus_stop",
    "name": "Micropolis",
    "public_transport": "platform",
    "route_ref": "7 ; D6 ; C ; Plan B Tram",
    "shelter": "yes"
  }
},
{
  "type": "node",
  "id": 655380934,
  "lat": 47.2467213,
  "lon": 5.9874748,
  "tags": {
    "bench": "no",
    "bus": "yes",
    "covered": "no",
    "highway": "bus_stop",
    "name": "Bibliothèque universitaire",
    "public_transport": "platform",
    "shelter": "no",
    "wheelchair": "yes"
  }
},
{
  "type": "node",
  "id": 655380948,
  "lat": 47.2467855,
  "lon": 5.9876099,
  "tags": {
    "bench": "no",
    "bus": "yes",
    "covered": "no",
    "highway": "bus_stop",
    "name": "Bibliothèque universitaire",
    "public_transport": "platform",
    "shelter": "no"
  }
},
{
  "type": "node",
  "id": 659306029,
  "lat": 47.2364064,
  "lon": 6.0289931,
  "tags": {
    "bench": "yes",
    "bus": "yes",
    "covered": "yes",
    "highway": "bus_stop",
    "name": "Jean Cornet",
    "public_transport": "platform",
    "public_transport:version": "2",
    "shelter": "yes",
    "wheelchair": "yes"
  }
},
{
  "type": "node",
  "id": 659333221,
  "lat": 47.2357444,
  "lon": 6.0273684,
  "tags": {
    "bus": "yes",
    "highway": "bus_stop",
    "name": "Saint-Maurice",
    "public_transport": "platform",
    "public_transport:version": "2"
  }
},
{
  "type": "node",
  "id": 659992510,
  "lat": 47.2613437,
  "lon": 6.0307570,
  "tags": {
    "bus": "yes",
    "highway": "bus_stop",
    "name": "Grange Marguet",
    "public_transport": "platform"
  }
},
{
  "type": "node",
  "id": 659992511,
  "lat": 47.2611766,
  "lon": 6.0308692,
  "tags": {
    "bus": "yes",
    "highway": "bus_stop",
    "name": "Grange Marguet",
    "public_transport": "platform"
  }
},
{
  "type": "node",
  "id": 659992513,
  "lat": 47.2635256,
  "lon": 6.0323941,
  "tags": {
    "bus": "yes",
    "highway": "bus_stop",
    "name": "École des 4 Vents",
    "public_transport": "platform"
  }
},
{
  "type": "node",
  "id": 659992514,
  "lat": 47.2650217,
  "lon": 6.0334697,
  "tags": {
    "bench": "yes",
    "bus": "yes",
    "highway": "bus_stop",
    "name": "Vieilley",
    "public_transport": "platform"
  }
},
{
  "type": "node",
  "id": 659992515,
  "lat": 47.2654665,
  "lon": 6.0341236,
  "tags": {
    "bus": "yes",
    "highway": "bus_stop",
    "name": "Vieilley",
    "public_transport": "platform"
  }
},
{
  "type": "node",
  "id": 659996228,
  "lat": 47.2531414,
  "lon": 6.0160568,
  "tags": {
    "bench": "no",
    "bus": "yes",
    "highway": "bus_stop",
    "name": "Vesoul",
    "public_transport": "platform",
    "public_transport:version": "2",
    "shelter": "yes",
    "source": "cadastre-dgi-fr source : Direction Générale des Impôts - Cadastre. Mise à jour : 2010"
  }
},
{
  "type": "node",
  "id": 659996232,
  "lat": 47.2529144,
  "lon": 6.0164273,
  "tags": {
    "bench": "no",
    "bus": "yes",
    "highway": "bus_stop",
    "name": "Vesoul",
    "public_transport": "platform",
    "public_transport:version": "2",
    "shelter": "yes",
    "source": "cadastre-dgi-fr source : Direction Générale des Impôts - Cadastre. Mise à jour : 2010"
  }
},
{
  "type": "node",
  "id": 659996694,
  "lat": 47.2507649,
  "lon": 6.0183084,
  "tags": {
    "bus": "yes",
    "highway": "bus_stop",
    "name": "Lumière",
    "public_transport": "platform",
    "public_transport:version": "2",
    "source": "cadastre-dgi-fr source : Direction Générale des Impôts - Cadastre. Mise à jour : 2010"
  }
},
{
  "type": "node",
  "id": 659996695,
  "lat": 47.2513805,
  "lon": 6.0178283,
  "tags": {
    "bench": "yes",
    "bus": "yes",
    "highway": "bus_stop",
    "name": "Lumière",
    "public_transport": "platform",
    "public_transport:version": "2",
    "shelter": "yes",
    "source": "cadastre-dgi-fr source : Direction Générale des Impôts - Cadastre. Mise à jour : 2010"
  }
},
{
  "type": "node",
  "id": 659998825,
  "lat": 47.2469961,
  "lon": 6.0198467,
  "tags": {
    "bus": "yes",
    "highway": "bus_stop",
    "name": "Gare Viotte Nord",
    "public_transport": "platform",
    "public_transport:version": "2",
    "source": "cadastre-dgi-fr source : Direction Générale des Impôts - Cadastre. Mise à jour : 2010"
  }
},
{
  "type": "node",
  "id": 659998829,
  "lat": 47.2471868,
  "lon": 6.0204313,
  "tags": {
    "bus": "yes",
    "highway": "bus_stop",
    "name": "Gare Viotte Nord",
    "public_transport": "platform",
    "public_transport:version": "2",
    "source": "cadastre-dgi-fr source : Direction Générale des Impôts - Cadastre. Mise à jour : 2010"
  }
},
{
  "type": "node",
  "id": 660196080,
  "lat": 47.2650276,
  "lon": 6.0507965,
  "tags": {
    "bus": "yes",
    "highway": "bus_stop",
    "name": "Palentes Z.I.",
    "public_transport": "platform",
    "public_transport:version": "2"
  }
},
{
  "type": "node",
  "id": 660504404,
  "lat": 47.2552865,
  "lon": 6.0187372,
  "tags": {
    "bench": "yes",
    "bus": "yes",
    "highway": "bus_stop",
    "name": "Buffon",
    "public_transport": "platform",
    "public_transport:version": "2",
    "shelter": "yes"
  }
},
{
  "type": "node",
  "id": 660504451,
  "lat": 47.2550106,
  "lon": 6.0186577,
  "tags": {
    "bench": "yes",
    "bus": "yes",
    "highway": "bus_stop",
    "name": "Buffon",
    "public_transport": "platform",
    "public_transport:version": "2",
    "shelter": "yes"
  }
},
{
  "type": "node",
  "id": 660504521,
  "lat": 47.2446723,
  "lon": 6.0221909,
  "tags": {
    "bench": "yes",
    "bus": "yes",
    "highway": "bus_stop",
    "name": "Edgard Faure",
    "public_transport": "platform",
    "public_transport:version": "2",
    "shelter": "yes"
  }
},
{
  "type": "node",
  "id": 660855434,
  "lat": 47.2567886,
  "lon": 6.0208924,
  "tags": {
    "bench": "yes",
    "bus": "yes",
    "covered": "yes",
    "highway": "bus_stop",
    "name": "Victor Gallois",
    "public_transport": "platform",
    "public_transport:version": "2",
    "shelter": "yes",
    "source": "cadastre-dgi-fr source : Direction Générale des Impôts - Cadastre. Mise à jour : 2010"
  }
},
{
  "type": "node",
  "id": 660855478,
  "lat": 47.2566771,
  "lon": 6.0211298,
  "tags": {
    "bus": "yes",
    "highway": "bus_stop",
    "name": "Victor Gallois",
    "public_transport": "platform",
    "public_transport:version": "2",
    "source": "cadastre-dgi-fr source : Direction Générale des Impôts - Cadastre. Mise à jour : 2010"
  }
},
{
  "type": "node",
  "id": 662992147,
  "lat": 47.2183146,
  "lon": 5.9518737,
  "tags": {
    "bench": "no",
    "bus": "yes",
    "covered": "no",
    "highway": "bus_stop",
    "name": "René Char",
    "public_transport": "platform",
    "route_ref": "4 ; 53 ; 54 ; 55 ; 56 ; 57 ; 61",
    "shelter": "no"
  }
},
{
  "type": "node",
  "id": 662992164,
  "lat": 47.2185163,
  "lon": 5.9528735,
  "tags": {
    "bench": "yes",
    "bus": "yes",
    "covered": "yes",
    "highway": "bus_stop",
    "name": "René Char",
    "public_transport": "platform",
    "route_ref": "4 ; 53 ; 54 ; 55 ; 56 ; 57 ; 61",
    "shelter": "yes"
  }
},
{
  "type": "node",
  "id": 663004794,
  "lat": 47.2180574,
  "lon": 5.9577969,
  "tags": {
    "bench": "no",
    "bus": "yes",
    "highway": "bus_stop",
    "name": "Marot",
    "public_transport": "platform",
    "shelter": "no",
    "source": "cadastre-dgi-fr source : Direction Générale des Impôts - Cadastre. Mise à jour : 2010"
  }
},
{
  "type": "node",
  "id": 663004795,
  "lat": 47.2182101,
  "lon": 5.9576638,
  "tags": {
    "bench": "no",
    "bus": "yes",
    "highway": "bus_stop",
    "name": "Marot",
    "public_transport": "platform",
    "route_ref": "4 ; 54 ; 55 ; 56 ; 57",
    "shelter": "no",
    "source": "cadastre-dgi-fr source : Direction Générale des Impôts - Cadastre. Mise à jour : 2010"
  }
},
{
  "type": "node",
  "id": 663051273,
  "lat": 47.2152118,
  "lon": 5.9610460,
  "tags": {
    "bus": "yes",
    "highway": "bus_stop",
    "name": "De Vigny",
    "public_transport": "platform",
    "route_ref": "54 ; 55 ; 56 57",
    "shelter": "yes",
    "source": "cadastre-dgi-fr source : Direction Générale des Impôts - Cadastre. Mise à jour : 2010"
  }
},
{
  "type": "node",
  "id": 663051291,
  "lat": 47.2154352,
  "lon": 5.9619121,
  "tags": {
    "bus": "yes",
    "highway": "bus_stop",
    "name": "De Vigny",
    "public_transport": "platform",
    "route_ref": "52 ; 54 ; 55 ; 56 57",
    "shelter": "yes",
    "source": "cadastre-dgi-fr source : Direction Générale des Impôts - Cadastre. Mise à jour : 2010"
  }
},
{
  "type": "node",
  "id": 663066770,
  "lat": 47.2167073,
  "lon": 5.9632444,
  "tags": {
    "bus": "yes",
    "highway": "bus_stop",
    "name": "Béarn",
    "public_transport": "platform",
    "route_ref": "52 ; 54 ; 55 ; 56 57",
    "source": "cadastre-dgi-fr source : Direction Générale des Impôts - Cadastre. Mise à jour : 2010"
  }
},
{
  "type": "node",
  "id": 663066805,
  "lat": 47.2166443,
  "lon": 5.9633548,
  "tags": {
    "bus": "yes",
    "highway": "bus_stop",
    "name": "Béarn",
    "public_transport": "platform",
    "route_ref": "4 ; 22 ; 52 ; 54 ; 55 ; 56 ; 57 ; 61",
    "shelter": "no",
    "source": "cadastre-dgi-fr source : Direction Générale des Impôts - Cadastre. Mise à jour : 2010"
  }
},
{
  "type": "node",
  "id": 663095085,
  "lat": 47.2206761,
  "lon": 5.9780179,
  "tags": {
    "bench": "no",
    "bus": "yes",
    "highway": "bus_stop",
    "name": "Micropolis",
    "passenger_information_display": "yes",
    "public_transport": "platform",
    "route_ref": "H ; Plan B Tram",
    "shelter": "no",
    "source": "cadastre-dgi-fr source : Direction Générale des Impôts - Cadastre. Mise à jour : 2010"
  }
},
{
  "type": "node",
  "id": 667087466,
  "lat": 47.2148284,
  "lon": 5.9618939,
  "tags": {
    "bus": "yes",
    "highway": "bus_stop",
    "name": "Valéry",
    "public_transport": "platform",
    "route_ref": "22 ; 52",
    "source": "cadastre-dgi-fr source : Direction Générale des Impôts - Cadastre. Mise à jour : 2010"
  }
},
{
  "type": "node",
  "id": 667087467,
  "lat": 47.2177233,
  "lon": 5.9658936,
  "tags": {
    "bus": "yes",
    "highway": "bus_stop",
    "name": "Planoise",
    "public_transport": "platform",
    "route_ref": "52 ; 54 ; 55 ; 56 57 ; 58"
  }
},
{
  "type": "node",
  "id": 667523190,
  "lat": 47.2300737,
  "lon": 6.0298663,
  "tags": {
    "bus": "yes",
    "highway": "bus_stop",
    "name": "Canal Tarragnoz",
    "public_transport": "platform",
    "route_ref": "21 ; 85 ; 86"
  }
},
{
  "type": "node",
  "id": 667523198,
  "lat": 47.2299211,
  "lon": 6.0300694,
  "tags": {
    "bus": "yes",
    "highway": "bus_stop",
    "name": "Canal Tarragnoz",
    "public_transport": "platform",
    "route_ref": "21 ; 85 ; 86",
    "shelter": "no"
  }
},
{
  "type": "node",
  "id": 667523204,
  "lat": 47.2269142,
  "lon": 6.0325451,
  "tags": {
    "bus": "yes",
    "highway": "bus_stop",
    "name": "Passerelle",
    "public_transport": "platform",
    "route_ref": "21 ; 23 ; 85 ; 86"
  }
},
{
  "type": "node",
  "id": 668010938,
  "lat": 47.2376848,
  "lon": 6.0151131,
  "tags": {
    "bench": "yes",
    "bus": "yes",
    "covered": "yes",
    "description": "Lignes 4,5,11,15,23",
    "highway": "bus_stop",
    "name": "Janvier",
    "public_transport": "platform",
    "public_transport:version": "2",
    "shelter": "yes"
  }
},
{
  "type": "node",
  "id": 668010939,
  "lat": 47.2327675,
  "lon": 6.0238928,
  "tags": {
    "bus": "yes",
    "highway": "bus_stop",
    "name": "Nodier",
    "public_transport": "platform",
    "public_transport:version": "2"
  }
},
{
  "type": "node",
  "id": 668010941,
  "lat": 47.2495791,
  "lon": 6.0197482,
  "tags": {
    "bus": "yes",
    "highway": "bus_stop",
    "name": "Larmet",
    "public_transport": "platform",
    "public_transport:version": "2"
  }
},
{
  "type": "node",
  "id": 668019596,
  "lat": 47.2577670,
  "lon": 6.0229453,
  "tags": {
    "bench": "yes",
    "bus": "yes",
    "highway": "bus_stop",
    "name": "Blum",
    "public_transport": "platform",
    "public_transport:version": "2",
    "shelter": "yes"
  }
},
{
  "type": "node",
  "id": 668019605,
  "lat": 47.2583735,
  "lon": 6.0237672,
  "tags": {
    "bench": "yes",
    "bus": "yes",
    "highway": "bus_stop",
    "name": "Blum",
    "public_transport": "platform",
    "public_transport:version": "2",
    "shelter": "yes"
  }
},
{
  "type": "node",
  "id": 668019622,
  "lat": 47.2616813,
  "lon": 6.0363900,
  "tags": {
    "bus": "yes",
    "highway": "bus_stop",
    "name": "Gounod",
    "public_transport": "platform",
    "public_transport:version": "2"
  }
},
{
  "type": "node",
  "id": 668019634,
  "lat": 47.2615297,
  "lon": 6.0364953,
  "tags": {
    "bench": "yes",
    "bus": "yes",
    "highway": "bus_stop",
    "name": "Gounod",
    "public_transport": "platform",
    "public_transport:version": "2",
    "shelter": "yes"
  }
},
{
  "type": "node",
  "id": 668019654,
  "lat": 47.2634472,
  "lon": 6.0445825,
  "tags": {
    "bench": "yes",
    "bus": "yes",
    "highway": "bus_stop",
    "name": "Lycée Louis Pergaud",
    "public_transport": "platform",
    "public_transport:version": "2",
    "route_ref": "4 ; 7",
    "shelter": "yes"
  }
},
{
  "type": "node",
  "id": 668019665,
  "lat": 47.2635800,
  "lon": 6.0440912,
  "tags": {
    "bench": "yes",
    "bus": "yes",
    "highway": "bus_stop",
    "name": "Lycée Louis Pergaud",
    "public_transport": "platform",
    "public_transport:version": "2",
    "shelter": "yes"
  }
},
{
  "type": "node",
  "id": 668026963,
  "lat": 47.2404811,
  "lon": 6.0282621,
  "tags": {
    "bench": "yes",
    "bin": "yes",
    "bus": "yes",
    "highway": "bus_stop",
    "lit": "yes",
    "name": "Centre Saint-Pierre",
    "public_transport": "platform",
    "public_transport:version": "2",
    "shelter": "yes",
    "tactile_paving": "no"
  }
},
{
  "type": "node",
  "id": 668026966,
  "lat": 47.2465799,
  "lon": 6.0305609,
  "tags": {
    "bus": "yes",
    "highway": "bus_stop",
    "name": "Cassote",
    "public_transport": "platform",
    "public_transport:version": "2"
  }
},
{
  "type": "node",
  "id": 668026967,
  "lat": 47.2492437,
  "lon": 6.0314863,
  "tags": {
    "bench": "yes",
    "bus": "yes",
    "highway": "bus_stop",
    "name": "Marie Louise",
    "public_transport": "platform",
    "public_transport:version": "2",
    "shelter": "yes"
  }
},
{
  "type": "node",
  "id": 668026970,
  "lat": 47.2537620,
  "lon": 6.0380129,
  "tags": {
    "bus": "yes",
    "highway": "bus_stop",
    "name": "Papillon",
    "public_transport": "platform",
    "public_transport:version": "2"
  }
},
{
  "type": "node",
  "id": 670023781,
  "lat": 47.2427907,
  "lon": 6.0286602,
  "tags": {
    "bench": "yes",
    "bus": "yes",
    "highway": "bus_stop",
    "name": "Delavelle",
    "public_transport": "platform",
    "public_transport:version": "2",
    "shelter": "yes"
  }
},
{
  "type": "node",
  "id": 670023824,
  "lat": 47.2456559,
  "lon": 6.0282771,
  "tags": {
    "bench": "yes",
    "bus": "yes",
    "covered": "yes",
    "highway": "bus_stop",
    "name": "Flore",
    "public_transport": "platform",
    "public_transport:version": "2",
    "shelter": "yes"
  }
},
{
  "type": "node",
  "id": 670029455,
  "lat": 47.2340325,
  "lon": 6.0336077,
  "tags": {
    "bus": "yes",
    "highway": "bus_stop",
    "name": "Porte Rivotte",
    "public_transport": "platform"
  }
},
{
  "type": "node",
  "id": 670031022,
  "lat": 47.2347930,
  "lon": 6.0325849,
  "tags": {
    "bus": "yes",
    "highway": "bus_stop",
    "name": "Jacobins",
    "public_transport": "platform"
  }
},
{
  "type": "node",
  "id": 670802017,
  "lat": 47.2289521,
  "lon": 6.0315054,
  "tags": {
    "bus": "yes",
    "departures_board": "timetable",
    "highway": "bus_stop",
    "name": "Faubourg Tarragnoz",
    "public_transport": "platform",
    "route_ref": "21 ; 85 ; 86",
    "shelter": "no"
  }
},
{
  "type": "node",
  "id": 670802018,
  "lat": 47.2288393,
  "lon": 6.0314203,
  "tags": {
    "bus": "yes",
    "departures_board": "timetable",
    "highway": "bus_stop",
    "name": "Faubourg Tarragnoz",
    "public_transport": "platform",
    "route_ref": "21 ; 85 ; 86",
    "shelter": "no"
  }
},
{
  "type": "node",
  "id": 671830053,
  "lat": 47.2543311,
  "lon": 6.0149209,
  "tags": {
    "bench": "yes",
    "bus": "yes",
    "highway": "bus_stop",
    "name": "Justices",
    "public_transport": "platform",
    "public_transport:version": "2",
    "shelter": "yes"
  }
},
{
  "type": "node",
  "id": 671830067,
  "lat": 47.2559546,
  "lon": 6.0132936,
  "tags": {
    "bus": "yes",
    "highway": "bus_stop",
    "name": "Charmilles",
    "public_transport": "platform",
    "public_transport:version": "2"
  }
},
{
  "type": "node",
  "id": 671830078,
  "lat": 47.2553295,
  "lon": 6.0139547,
  "tags": {
    "bus": "yes",
    "highway": "bus_stop",
    "name": "Charmilles",
    "public_transport": "platform",
    "public_transport:version": "2"
  }
},
{
  "type": "node",
  "id": 671830091,
  "lat": 47.2547622,
  "lon": 6.0146833,
  "tags": {
    "bus": "yes",
    "highway": "bus_stop",
    "name": "Justices",
    "public_transport": "platform",
    "public_transport:version": "2"
  }
},
{
  "type": "node",
  "id": 671830264,
  "lat": 47.2492545,
  "lon": 6.0199366,
  "tags": {
    "bus": "yes",
    "highway": "bus_stop",
    "name": "Larmet",
    "public_transport": "platform",
    "public_transport:version": "2"
  }
},
{
  "type": "node",
  "id": 672115165,
  "lat": 47.2316945,
  "lon": 6.0232952,
  "tags": {
    "bench": "no",
    "bin": "no",
    "bus": "yes",
    "highway": "bus_stop",
    "name": "France 3",
    "public_transport": "platform",
    "public_transport:version": "2",
    "route_ref": "21 ; 81 ; 82 ; 83 ; 85 ; 86",
    "shelter": "no",
    "tactile_paving": "no"
  }
},
{
  "type": "node",
  "id": 672161595,
  "lat": 47.2596122,
  "lon": 6.0299381,
  "tags": {
    "bench": "yes",
    "bus": "yes",
    "highway": "bus_stop",
    "name": "Quatre Vents",
    "public_transport": "platform",
    "public_transport:version": "2",
    "shelter": "yes"
  }
},
{
  "type": "node",
  "id": 672161597,
  "lat": 47.2596248,
  "lon": 6.0291013,
  "tags": {
    "bench": "yes",
    "bus": "yes",
    "highway": "bus_stop",
    "name": "Quatre Vents",
    "public_transport": "platform",
    "public_transport:version": "2",
    "shelter": "yes"
  }
},
{
  "type": "node",
  "id": 672207071,
  "lat": 47.2425242,
  "lon": 6.0151407,
  "tags": {
    "bus": "yes",
    "highway": "bus_stop",
    "name": "Jardin Botanique",
    "public_transport": "platform",
    "public_transport:version": "2",
    "shelter": "yes"
  }
},
{
  "type": "node",
  "id": 672658010,
  "lat": 47.2420576,
  "lon": 6.0315413,
  "tags": {
    "bench": "yes",
    "bus": "yes",
    "highway": "bus_stop",
    "name": "Parc Micaud",
    "public_transport": "platform",
    "shelter": "yes"
  }
},
{
  "type": "node",
  "id": 673798594,
  "lat": 47.2350210,
  "lon": 6.0124527,
  "tags": {
    "bench": "yes",
    "bin": "yes",
    "bus": "yes",
    "highway": "bus_stop",
    "name": "Croix d'Arènes",
    "passenger_information_display": "no",
    "public_transport": "platform",
    "public_transport:version": "2",
    "shelter": "no",
    "tactile_paving": "yes"
  }
},
{
  "type": "node",
  "id": 673798617,
  "lat": 47.2347831,
  "lon": 6.0125059,
  "tags": {
    "bench": "yes",
    "bin": "yes",
    "bus": "yes",
    "highway": "bus_stop",
    "name": "Croix d'Arènes",
    "passenger_information_display": "yes",
    "public_transport": "platform",
    "public_transport:version": "2",
    "shelter": "yes",
    "tactile_paving": "yes"
  }
},
{
  "type": "node",
  "id": 677552000,
  "lat": 47.2251959,
  "lon": 5.9657094,
  "tags": {
    "bench": "yes",
    "bus": "yes",
    "highway": "bus_stop",
    "name": "Belin",
    "public_transport": "platform",
    "shelter": "yes"
  }
},
{
  "type": "node",
  "id": 677561255,
  "lat": 47.2378310,
  "lon": 6.0125820,
  "tags": {
    "bus": "yes",
    "highway": "bus_stop",
    "name": "Lycée Jules Haag",
    "public_transport": "platform",
    "public_transport:version": "2"
  }
},
{
  "type": "node",
  "id": 677561256,
  "lat": 47.2377381,
  "lon": 6.0063026,
  "tags": {
    "bench": "yes",
    "bus": "yes",
    "highway": "bus_stop",
    "name": "Clemenceau",
    "public_transport": "platform",
    "shelter": "yes"
  }
},
{
  "type": "node",
  "id": 677561257,
  "lat": 47.2359035,
  "lon": 6.0083174,
  "tags": {
    "bench": "yes",
    "bus": "yes",
    "highway": "bus_stop",
    "name": "Villarceau",
    "public_transport": "platform",
    "shelter": "yes"
  }
},
{
  "type": "node",
  "id": 677561258,
  "lat": 47.2390437,
  "lon": 6.0116725,
  "tags": {
    "bench": "yes",
    "bin": "yes",
    "bus": "yes",
    "covered": "no",
    "highway": "bus_stop",
    "name": "Lycée Jules Haag",
    "public_transport": "platform",
    "public_transport:version": "2",
    "shelter": "yes",
    "tactile_paving": "no"
  }
},
{
  "type": "node",
  "id": 677732310,
  "lat": 47.2304843,
  "lon": 5.9941023,
  "tags": {
    "bench": "yes",
    "bus": "yes",
    "highway": "bus_stop",
    "name": "Bascule",
    "public_transport": "platform",
    "shelter": "yes",
    "source": "cadastre-dgi-fr source : Direction Générale des Impôts - Cadastre. Mise à jour : 2010"
  }
},
{
  "type": "node",
  "id": 677732387,
  "lat": 47.2303488,
  "lon": 5.9933691,
  "tags": {
    "bench": "yes",
    "bus": "yes",
    "highway": "bus_stop",
    "name": "Bascule",
    "public_transport": "platform",
    "shelter": "yes",
    "source": "cadastre-dgi-fr source : Direction Générale des Impôts - Cadastre. Mise à jour : 2010"
  }
},
{
  "type": "node",
  "id": 677760202,
  "lat": 47.2228272,
  "lon": 5.9657768,
  "tags": {
    "bench": "yes",
    "bus": "yes",
    "highway": "bus_stop",
    "name": "Piémont",
    "public_transport": "platform",
    "shelter": "yes"
  }
},
{
  "type": "node",
  "id": 677784231,
  "lat": 47.2412772,
  "lon": 6.0341245,
  "tags": {
    "bench": "yes",
    "bus": "yes",
    "highway": "bus_stop",
    "name": "Funiculaire",
    "public_transport": "platform",
    "shelter": "yes"
  }
},
{
  "type": "node",
  "id": 677784234,
  "lat": 47.2414922,
  "lon": 6.0341698,
  "tags": {
    "bench": "yes",
    "bus": "yes",
    "highway": "bus_stop",
    "name": "Funiculaire",
    "public_transport": "platform",
    "shelter": "yes"
  }
},
{
  "type": "node",
  "id": 679030136,
  "lat": 47.2172718,
  "lon": 5.9662864,
  "tags": {
    "bus": "yes",
    "highway": "bus_stop",
    "name": "Planoise",
    "public_transport": "platform",
    "route_ref": "7 ; 52 ; 54 ; 55 ; 56 57 ; 58"
  }
},
{
  "type": "node",
  "id": 679995050,
  "lat": 47.2343281,
  "lon": 6.0085445,
  "tags": {
    "bench": "yes",
    "bin": "yes",
    "bus": "yes",
    "highway": "bus_stop",
    "name": "La Butte",
    "passenger_information_display": "yes",
    "public_transport": "platform",
    "shelter": "yes"
  }
},
{
  "type": "node",
  "id": 679995062,
  "lat": 47.2280413,
  "lon": 5.9840390,
  "tags": {
    "bench": "yes",
    "bus": "yes",
    "highway": "bus_stop",
    "lit": "yes",
    "name": "Oratoire",
    "public_transport": "platform",
    "shelter": "yes",
    "tactile_paving": "yes"
  }
},
{
  "type": "node",
  "id": 679995074,
  "lat": 47.2342343,
  "lon": 6.0088508,
  "tags": {
    "bench": "yes",
    "bin": "yes",
    "bus": "yes",
    "highway": "bus_stop",
    "name": "La Butte",
    "passenger_information_display": "yes",
    "public_transport": "platform",
    "shelter": "yes"
  }
},
{
  "type": "node",
  "id": 679995086,
  "lat": 47.2279935,
  "lon": 5.9844107,
  "tags": {
    "bench": "yes",
    "bus": "yes",
    "highway": "bus_stop",
    "lit": "yes",
    "name": "Oratoire",
    "public_transport": "platform",
    "shelter": "yes",
    "tactile_paving": "yes"
  }
},
{
  "type": "node",
  "id": 679995104,
  "lat": 47.2306730,
  "lon": 5.9934962,
  "tags": {
    "bench": "no",
    "bus": "yes",
    "highway": "bus_stop",
    "name": "Bascule",
    "old_highway": "bus_stop",
    "public_transport": "platform",
    "shelter": "no"
  }
},
{
  "type": "node",
  "id": 679995119,
  "lat": 47.2292753,
  "lon": 5.9895262,
  "tags": {
    "bench": "yes",
    "bus": "yes",
    "highway": "bus_stop",
    "name": "Concorde",
    "public_transport": "platform",
    "shelter": "yes"
  }
},
{
  "type": "node",
  "id": 679995146,
  "lat": 47.2289769,
  "lon": 5.9887792,
  "tags": {
    "bench": "yes",
    "bus": "yes",
    "highway": "bus_stop",
    "name": "Concorde",
    "public_transport": "platform",
    "shelter": "yes"
  }
},
{
  "type": "node",
  "id": 680001187,
  "lat": 47.2324017,
  "lon": 6.0010991,
  "tags": {
    "bench": "no",
    "bus": "yes",
    "highway": "bus_stop",
    "name": "Jean Jaurès",
    "public_transport": "platform",
    "shelter": "no"
  }
},
{
  "type": "node",
  "id": 680001188,
  "lat": 47.2316511,
  "lon": 5.9981950,
  "tags": {
    "bench": "yes",
    "bus": "yes",
    "highway": "bus_stop",
    "name": "Résidence",
    "public_transport": "platform",
    "shelter": "yes"
  }
},
{
  "type": "node",
  "id": 680001191,
  "lat": 47.2324439,
  "lon": 6.0017551,
  "tags": {
    "bench": "yes",
    "bus": "yes",
    "highway": "bus_stop",
    "name": "Jean Jaurès",
    "public_transport": "platform",
    "shelter": "yes"
  }
},
{
  "type": "node",
  "id": 680001193,
  "lat": 47.2312901,
  "lon": 5.9971520,
  "tags": {
    "bench": "yes",
    "bus": "yes",
    "highway": "bus_stop",
    "name": "Résidence",
    "public_transport": "platform",
    "shelter": "yes"
  }
},
{
  "type": "node",
  "id": 681273504,
  "lat": 47.2407914,
  "lon": 6.0388779,
  "tags": {
    "bench": "no",
    "bus": "yes",
    "highway": "bus_stop",
    "name": "Aiguille",
    "public_transport": "platform",
    "shelter": "no"
  }
},
{
  "type": "node",
  "id": 681273509,
  "lat": 47.2408092,
  "lon": 6.0383768,
  "tags": {
    "bench": "no",
    "bus": "yes",
    "highway": "bus_stop",
    "name": "Aiguille",
    "public_transport": "platform",
    "shelter": "no"
  }
},
{
  "type": "node",
  "id": 681273512,
  "lat": 47.2368098,
  "lon": 6.0355172,
  "tags": {
    "bench": "no",
    "bus": "yes",
    "highway": "bus_stop",
    "name": "Sport Nautique",
    "public_transport": "platform",
    "shelter": "no"
  }
},
{
  "type": "node",
  "id": 681273513,
  "lat": 47.2369797,
  "lon": 6.0354584,
  "tags": {
    "bench": "no",
    "bus": "yes",
    "highway": "bus_stop",
    "name": "Sport Nautique",
    "public_transport": "platform",
    "shelter": "no"
  }
},
{
  "type": "node",
  "id": 681273514,
  "lat": 47.2388410,
  "lon": 6.0392694,
  "tags": {
    "bench": "no",
    "bus": "yes",
    "highway": "bus_stop",
    "name": "Fabre",
    "public_transport": "platform",
    "shelter": "no"
  }
},
{
  "type": "node",
  "id": 681273515,
  "lat": 47.2338385,
  "lon": 6.0371114,
  "tags": {
    "bench": "no",
    "bus": "yes",
    "covered": "no",
    "highway": "bus_stop",
    "name": "Port Joint",
    "public_transport": "platform",
    "shelter": "no"
  }
},
{
  "type": "node",
  "id": 681273516,
  "lat": 47.2399724,
  "lon": 6.0412235,
  "tags": {
    "bench": "no",
    "bus": "yes",
    "highway": "bus_stop",
    "name": "Fort de Bregille",
    "public_transport": "platform",
    "shelter": "no"
  }
},
{
  "type": "node",
  "id": 681273528,
  "lat": 47.2389708,
  "lon": 6.0397194,
  "tags": {
    "bench": "no",
    "bus": "yes",
    "highway": "bus_stop",
    "name": "Fabre",
    "public_transport": "platform",
    "shelter": "no"
  }
},
{
  "type": "node",
  "id": 681273543,
  "lat": 47.2342069,
  "lon": 6.0370238,
  "tags": {
    "bench": "yes",
    "bus": "yes",
    "covered": "yes",
    "highway": "bus_stop",
    "name": "Port Joint",
    "public_transport": "platform",
    "shelter": "yes"
  }
},
{
  "type": "node",
  "id": 681273550,
  "lat": 47.2401261,
  "lon": 6.0415376,
  "tags": {
    "bench": "no",
    "bus": "yes",
    "highway": "bus_stop",
    "name": "Fort de Bregille",
    "public_transport": "platform",
    "shelter": "no"
  }
},
{
  "type": "node",
  "id": 681309050,
  "lat": 47.2287896,
  "lon": 6.0092885,
  "tags": {
    "bench": "no",
    "bus": "yes",
    "covered": "no",
    "highway": "bus_stop",
    "name": "Sainte-Thérèse",
    "network": "Ginko",
    "network:wikidata": "Q3106780",
    "network:wikipedia": "fr:Transports en commun de Besançon",
    "operator": "Keolis Besançon",
    "public_transport": "platform",
    "shelter": "no",
    "short_name": "Ste Thérèse"
  }
},
{
  "type": "node",
  "id": 681309051,
  "lat": 47.2209634,
  "lon": 6.0152835,
  "tags": {
    "bus": "yes",
    "departures_board": "timetable",
    "highway": "bus_stop",
    "name": "Malherbe",
    "network": "Ginko",
    "network:wikidata": "Q3106780",
    "network:wikipedia": "fr:Transports en commun de Besançon",
    "operator": "Keolis Besançon",
    "public_transport": "platform"
  }
},
{
  "type": "node",
  "id": 681309052,
  "lat": 47.2263475,
  "lon": 6.0092034,
  "tags": {
    "bench": "no",
    "bus": "yes",
    "covered": "no",
    "highway": "bus_stop",
    "name": "Radieuse",
    "network": "Ginko",
    "network:wikidata": "Q3106780",
    "network:wikipedia": "fr:Transports en commun de Besançon",
    "operator": "Keolis Besançon",
    "public_transport": "platform",
    "shelter": "no"
  }
},
{
  "type": "node",
  "id": 681309053,
  "lat": 47.2260092,
  "lon": 6.0095203,
  "tags": {
    "bench": "no",
    "bus": "yes",
    "covered": "no",
    "highway": "bus_stop",
    "name": "Radieuse",
    "network": "Ginko",
    "network:wikidata": "Q3106780",
    "network:wikipedia": "fr:Transports en commun de Besançon",
    "operator": "Keolis Besançon",
    "public_transport": "platform",
    "shelter": "no"
  }
},
{
  "type": "node",
  "id": 681309054,
  "lat": 47.2212781,
  "lon": 6.0148982,
  "tags": {
    "bus": "yes",
    "departures_board": "timetable",
    "highway": "bus_stop",
    "name": "Malherbe",
    "network": "Ginko",
    "network:wikidata": "Q3106780",
    "network:wikipedia": "fr:Transports en commun de Besançon",
    "operator": "Keolis Besançon",
    "public_transport": "platform"
  }
},
{
  "type": "node",
  "id": 681309055,
  "lat": 47.2202922,
  "lon": 6.0162872,
  "tags": {
    "bench": "yes",
    "bin": "yes",
    "bus": "yes",
    "covered": "yes",
    "highway": "bus_stop",
    "lit": "no",
    "name": "Chemin de Velotte",
    "network": "Ginko",
    "network:wikidata": "Q3106780",
    "network:wikipedia": "fr:Transports en commun de Besançon",
    "operator": "Keolis Besançon",
    "public_transport": "platform",
    "shelter": "yes",
    "tactile_paving": "no"
  }
},
{
  "type": "node",
  "id": 681309056,
  "lat": 47.2200121,
  "lon": 6.0164096,
  "tags": {
    "bench": "no",
    "bin": "no",
    "bus": "yes",
    "covered": "no",
    "highway": "bus_stop",
    "lit": "no",
    "name": "Chemin de Velotte",
    "network": "Ginko",
    "network:wikidata": "Q3106780",
    "network:wikipedia": "fr:Transports en commun de Besançon",
    "operator": "Keolis Besançon",
    "public_transport": "platform",
    "shelter": "no",
    "tactile_paving": "no"
  }
},
{
  "type": "node",
  "id": 681311379,
  "lat": 47.2286281,
  "lon": 6.0068217,
  "tags": {
    "bench": "yes",
    "bus": "yes",
    "highway": "bus_stop",
    "name": "Brûlard",
    "public_transport": "platform",
    "shelter": "yes"
  }
},
{
  "type": "node",
  "id": 681311380,
  "lat": 47.2282869,
  "lon": 6.0044830,
  "tags": {
    "bench": "yes",
    "bus": "yes",
    "highway": "bus_stop",
    "name": "Brûlard",
    "public_transport": "platform",
    "shelter": "yes"
  }
},
{
  "type": "node",
  "id": 681314202,
  "lat": 47.2278032,
  "lon": 6.0035864,
  "tags": {
    "bench": "yes",
    "bus": "yes",
    "highway": "bus_stop",
    "name": "Brûlard",
    "public_transport": "platform",
    "shelter": "yes"
  }
},
{
  "type": "node",
  "id": 682357979,
  "lat": 47.2302488,
  "lon": 6.0368482,
  "tags": {
    "bus": "yes",
    "highway": "bus_stop",
    "name": "Rivotte",
    "public_transport": "platform"
  }
},
{
  "type": "node",
  "id": 727695325,
  "lat": 47.2525798,
  "lon": 6.0237451,
  "tags": {
    "bus": "yes",
    "highway": "bus_stop",
    "name": "Pont Chemin Français",
    "public_transport": "platform",
    "public_transport:version": "2"
  }
},
{
  "type": "node",
  "id": 727695401,
  "lat": 47.2525331,
  "lon": 6.0238819,
  "tags": {
    "bus": "yes",
    "highway": "bus_stop",
    "name": "Pont Chemin Français",
    "public_transport": "platform",
    "public_transport:version": "2"
  }
},
{
  "type": "node",
  "id": 727695430,
  "lat": 47.2518974,
  "lon": 6.0222995,
  "tags": {
    "bus": "yes",
    "highway": "bus_stop",
    "name": "Cité Viotte",
    "public_transport": "platform",
    "public_transport:version": "2"
  }
},
{
  "type": "node",
  "id": 727695480,
  "lat": 47.2495961,
  "lon": 6.0207386,
  "tags": {
    "bus": "yes",
    "highway": "bus_stop",
    "name": "Chemin Français",
    "public_transport": "platform",
    "public_transport:version": "2"
  }
},
{
  "type": "node",
  "id": 727733047,
  "lat": 47.2532086,
  "lon": 5.9973690,
  "tags": {
    "bench": "yes",
    "bus": "yes",
    "highway": "bus_stop",
    "name": "Temis",
    "public_transport": "platform",
    "public_transport:version": "2",
    "shelter": "yes",
    "source": "cadastre-dgi-fr source : Direction Générale des Impôts - Cadastre. Mise à jour : 2010"
  }
},
{
  "type": "node",
  "id": 727733050,
  "lat": 47.2532195,
  "lon": 5.9971606,
  "tags": {
    "bench": "yes",
    "bus": "yes",
    "highway": "bus_stop",
    "name": "Temis",
    "public_transport": "platform",
    "public_transport:version": "2",
    "shelter": "yes",
    "source": "cadastre-dgi-fr source : Direction Générale des Impôts - Cadastre. Mise à jour : 2010"
  }
},
{
  "type": "node",
  "id": 727749686,
  "lat": 47.2534903,
  "lon": 6.0012730,
  "tags": {
    "bus": "yes",
    "highway": "bus_stop",
    "name": "Lycée Ledoux",
    "public_transport": "platform",
    "public_transport:version": "2"
  }
},
{
  "type": "node",
  "id": 727749694,
  "lat": 47.2536046,
  "lon": 6.0012699,
  "tags": {
    "bus": "yes",
    "highway": "bus_stop",
    "name": "Lycée Ledoux",
    "public_transport": "platform",
    "public_transport:version": "2"
  }
},
{
  "type": "node",
  "id": 738552938,
  "lat": 47.2559325,
  "lon": 6.0334905,
  "tags": {
    "bench": "yes",
    "bus": "yes",
    "highway": "bus_stop",
    "name": "Les Oiseaux",
    "public_transport": "platform",
    "shelter": "yes"
  }
},
{
  "type": "node",
  "id": 738552948,
  "lat": 47.2562620,
  "lon": 6.0343488,
  "tags": {
    "bus": "yes",
    "highway": "bus_stop",
    "name": "Les Oiseaux",
    "public_transport": "platform"
  }
},
{
  "type": "node",
  "id": 740506576,
  "lat": 47.2593344,
  "lon": 6.0438805,
  "tags": {
    "bus": "yes",
    "highway": "bus_stop",
    "name": "Corvée",
    "public_transport": "platform",
    "public_transport:version": "2"
  }
},
{
  "type": "node",
  "id": 740506611,
  "lat": 47.2567718,
  "lon": 6.0413645,
  "tags": {
    "bench": "yes",
    "bus": "yes",
    "highway": "bus_stop",
    "name": "Croix de Palente",
    "public_transport": "platform",
    "public_transport:version": "2",
    "shelter": "yes"
  }
},
{
  "type": "node",
  "id": 740506685,
  "lat": 47.2609043,
  "lon": 6.0450946,
  "tags": {
    "bus": "yes",
    "highway": "bus_stop",
    "name": "Pierre et Marie Curie",
    "public_transport": "platform",
    "public_transport:version": "2"
  }
},
{
  "type": "node",
  "id": 740506719,
  "lat": 47.2593489,
  "lon": 6.0437356,
  "tags": {
    "bench": "yes",
    "bus": "yes",
    "highway": "bus_stop",
    "name": "Corvée",
    "public_transport": "platform",
    "public_transport:version": "2",
    "shelter": "yes"
  }
},
{
  "type": "node",
  "id": 740506760,
  "lat": 47.2568588,
  "lon": 6.0415420,
  "tags": {
    "bus": "yes",
    "highway": "bus_stop",
    "name": "Croix de Palente",
    "public_transport": "platform",
    "public_transport:version": "2"
  }
},
{
  "type": "node",
  "id": 740506800,
  "lat": 47.2607750,
  "lon": 6.0448106,
  "tags": {
    "bus": "yes",
    "highway": "bus_stop",
    "name": "Pierre et Marie Curie",
    "public_transport": "platform",
    "public_transport:version": "2"
  }
},
{
  "type": "node",
  "id": 740659623,
  "lat": 47.2628890,
  "lon": 6.0467055,
  "tags": {
    "bus": "yes",
    "highway": "bus_stop",
    "name": "Saint-Pie X",
    "public_transport": "platform",
    "public_transport:version": "2"
  }
},
{
  "type": "node",
  "id": 740659637,
  "lat": 47.2630941,
  "lon": 6.0467305,
  "tags": {
    "bus": "yes",
    "highway": "bus_stop",
    "name": "Saint-Pie X",
    "public_transport": "platform",
    "public_transport:version": "2"
  }
},
{
  "type": "node",
  "id": 740671180,
  "lat": 47.2525505,
  "lon": 6.0305940,
  "tags": {
    "bus": "yes",
    "highway": "bus_stop",
    "name": "Pont des Cras",
    "public_transport": "platform",
    "public_transport:version": "2"
  }
},
{
  "type": "node",
  "id": 740671210,
  "lat": 47.2535346,
  "lon": 6.0309835,
  "tags": {
    "bench": "yes",
    "bus": "yes",
    "highway": "bus_stop",
    "name": "Pont des Cras",
    "public_transport": "platform",
    "public_transport:version": "2",
    "shelter": "yes"
  }
},
{
  "type": "node",
  "id": 746715268,
  "lat": 47.2235397,
  "lon": 5.9792250,
  "tags": {
    "bench": "yes",
    "bus": "yes",
    "covered": "yes",
    "highway": "bus_stop",
    "name": "Parc des Expositions",
    "public_transport": "platform",
    "shelter": "yes"
  }
},
{
  "type": "node",
  "id": 791243568,
  "lat": 47.2442840,
  "lon": 6.0438097,
  "tags": {
    "bench": "no",
    "bus": "yes",
    "highway": "bus_stop",
    "name": "Heitz",
    "public_transport": "platform",
    "shelter": "no"
  }
},
{
  "type": "node",
  "id": 791243569,
  "lat": 47.2425865,
  "lon": 6.0411779,
  "tags": {
    "bus": "yes",
    "highway": "bus_stop",
    "name": "Gaiffe",
    "public_transport": "platform",
    "shelter": "no"
  }
},
{
  "type": "node",
  "id": 791243570,
  "lat": 47.2441419,
  "lon": 6.0436609,
  "tags": {
    "bench": "no",
    "bus": "yes",
    "highway": "bus_stop",
    "name": "Heitz",
    "public_transport": "platform",
    "shelter": "no"
  }
},
{
  "type": "node",
  "id": 791243572,
  "lat": 47.2427432,
  "lon": 6.0413226,
  "tags": {
    "bus": "yes",
    "highway": "bus_stop",
    "name": "Gaiffe",
    "public_transport": "platform",
    "shelter": "no"
  }
},
{
  "type": "node",
  "id": 935673545,
  "lat": 47.2362572,
  "lon": 6.0260487,
  "tags": {
    "bench": "yes",
    "bus": "yes",
    "highway": "bus_stop",
    "name": "Carmes",
    "public_transport": "platform",
    "public_transport:version": "2",
    "shelter": "yes"
  }
},
{
  "type": "node",
  "id": 996125297,
  "lat": 47.2433224,
  "lon": 5.9874988,
  "tags": {
    "bus": "yes",
    "highway": "bus_stop",
    "name": "Beaux Arts",
    "public_transport": "platform"
  }
},
{
  "type": "node",
  "id": 996125300,
  "lat": 47.2433424,
  "lon": 5.9880701,
  "tags": {
    "bus": "yes",
    "highway": "bus_stop",
    "name": "Beaux Arts",
    "public_transport": "platform",
    "shelter": "yes"
  }
},
{
  "type": "node",
  "id": 996125302,
  "lat": 47.2432827,
  "lon": 5.9861951,
  "tags": {
    "bus": "yes",
    "highway": "bus_stop",
    "name": "Papin",
    "public_transport": "platform"
  }
},
{
  "type": "node",
  "id": 996125304,
  "lat": 47.2434007,
  "lon": 5.9931554,
  "tags": {
    "bench": "yes",
    "bus": "yes",
    "highway": "bus_stop",
    "name": "Sécurité Sociale",
    "public_transport": "platform",
    "shelter": "yes"
  }
},
{
  "type": "node",
  "id": 996125307,
  "lat": 47.2431976,
  "lon": 5.9861098,
  "tags": {
    "bus": "yes",
    "highway": "bus_stop",
    "name": "Papin",
    "public_transport": "platform"
  }
},
{
  "type": "node",
  "id": 996125309,
  "lat": 47.2432499,
  "lon": 5.9938307,
  "tags": {
    "bench": "yes",
    "bus": "yes",
    "highway": "bus_stop",
    "name": "Sécurité Sociale",
    "public_transport": "platform",
    "shelter": "yes"
  }
},
{
  "type": "node",
  "id": 996181267,
  "lat": 47.2449001,
  "lon": 5.9983508,
  "tags": {
    "bus": "yes",
    "highway": "bus_stop",
    "name": "Piscine Mallarmé",
    "public_transport": "platform"
  }
},
{
  "type": "node",
  "id": 996181315,
  "lat": 47.2447035,
  "lon": 5.9977468,
  "tags": {
    "bus": "yes",
    "highway": "bus_stop",
    "name": "Piscine Mallarmé",
    "public_transport": "platform"
  }
},
{
  "type": "node",
  "id": 1059664610,
  "lat": 47.2501952,
  "lon": 5.9762126,
  "tags": {
    "bench": "no",
    "bus": "yes",
    "covered": "no",
    "highway": "bus_stop",
    "name": "Clairière",
    "public_transport": "platform",
    "route_ref": "63",
    "shelter": "no"
  }
},
{
  "type": "node",
  "id": 1086000679,
  "lat": 47.2353723,
  "lon": 6.0253786,
  "tags": {
    "bus": "yes",
    "highway": "bus_stop",
    "name": "Granvelle",
    "public_transport": "platform",
    "public_transport:version": "2",
    "shelter": "yes"
  }
},
{
  "type": "node",
  "id": 1086000685,
  "lat": 47.2410542,
  "lon": 6.0265656,
  "tags": {
    "bench": "no",
    "bus": "yes",
    "highway": "bus_stop",
    "name": "République",
    "public_transport": "platform",
    "public_transport:version": "2",
    "shelter": "no"
  }
},
{
  "type": "node",
  "id": 1086000717,
  "lat": 47.2315646,
  "lon": 6.0261995,
  "tags": {
    "bus": "yes",
    "highway": "bus_stop",
    "name": "Lecourbe",
    "public_transport": "platform",
    "route_ref": "21 ; 81 ; 82 ; 83 ; 85 ; 86"
  }
},
{
  "type": "node",
  "id": 1086000720,
  "lat": 47.2305321,
  "lon": 6.0281416,
  "tags": {
    "bus": "yes",
    "highway": "bus_stop",
    "name": "Lecourbe",
    "public_transport": "platform",
    "route_ref": "21 ; 81 ; 82 ; 83 ; 85 ; 86"
  }
},
{
  "type": "node",
  "id": 1086000726,
  "lat": 47.2347464,
  "lon": 6.0208860,
  "tags": {
    "bench": "yes",
    "bin": "yes",
    "bus": "yes",
    "covered": "yes",
    "highway": "bus_stop",
    "lit": "yes",
    "name": "Chamars Esplanade",
    "public_transport": "platform",
    "public_transport:version": "2",
    "shelter": "yes",
    "tactile_paving": "no"
  }
},
{
  "type": "node",
  "id": 1086000754,
  "lat": 47.2425127,
  "lon": 6.0145341,
  "tags": {
    "bench": "yes",
    "bin": "yes",
    "bus": "yes",
    "highway": "bus_stop",
    "name": "Leclerc",
    "public_transport": "platform",
    "public_transport:version": "2",
    "shelter": "yes",
    "tactile_paving": "no"
  }
},
{
  "type": "node",
  "id": 1086000764,
  "lat": 47.2352776,
  "lon": 6.0253904,
  "tags": {
    "bus": "yes",
    "highway": "bus_stop",
    "name": "Granvelle",
    "public_transport": "platform",
    "public_transport:version": "2",
    "shelter": "yes"
  }
},
{
  "type": "node",
  "id": 1086000771,
  "lat": 47.2415879,
  "lon": 6.0144582,
  "tags": {
    "bench": "yes",
    "bus": "yes",
    "covered": "yes",
    "highway": "bus_stop",
    "name": "Lycée Jules Haag",
    "public_transport": "platform",
    "public_transport:version": "2",
    "shelter": "yes"
  }
},
{
  "type": "node",
  "id": 1086038046,
  "lat": 47.2331896,
  "lon": 5.9892246,
  "tags": {
    "bench": "yes",
    "bus": "yes",
    "highway": "bus_stop",
    "lit": "no",
    "name": "Basilique",
    "public_transport": "platform",
    "shelter": "yes",
    "tactile_paving": "no"
  }
},
{
  "type": "node",
  "id": 1086038052,
  "lat": 47.2350921,
  "lon": 5.9845526,
  "tags": {
    "bench": "yes",
    "bus": "yes",
    "departures_board": "timetable",
    "highway": "bus_stop",
    "name": "Lavoisier",
    "public_transport": "platform",
    "shelter": "yes"
  }
},
{
  "type": "node",
  "id": 1086038064,
  "lat": 47.2374530,
  "lon": 5.9882749,
  "tags": {
    "bench": "yes",
    "bus": "yes",
    "highway": "bus_stop",
    "name": "Ampère",
    "public_transport": "platform"
  }
},
{
  "type": "node",
  "id": 1086038065,
  "lat": 47.2360715,
  "lon": 5.9774164,
  "tags": {
    "bench": "no",
    "bus": "yes",
    "highway": "bus_stop",
    "name": "Fresnel",
    "public_transport": "platform",
    "shelter": "no"
  }
},
{
  "type": "node",
  "id": 1086038084,
  "lat": 47.2329097,
  "lon": 5.9885457,
  "tags": {
    "bench": "yes",
    "bus": "yes",
    "highway": "bus_stop",
    "lit": "yes",
    "name": "Basilique",
    "public_transport": "platform",
    "shelter": "yes",
    "tactile_paving": "no"
  }
},
{
  "type": "node",
  "id": 1086038090,
  "lat": 47.2375842,
  "lon": 5.9884447,
  "tags": {
    "bench": "yes",
    "bus": "yes",
    "highway": "bus_stop",
    "name": "Ampère",
    "public_transport": "platform",
    "shelter": "yes"
  }
},
{
  "type": "node",
  "id": 1086038096,
  "lat": 47.2349774,
  "lon": 5.9847537,
  "tags": {
    "bench": "yes",
    "bus": "yes",
    "highway": "bus_stop",
    "name": "Lavoisier",
    "public_transport": "platform",
    "shelter": "yes"
  }
},
{
  "type": "node",
  "id": 1086183091,
  "lat": 47.2141590,
  "lon": 5.9678489,
  "tags": {
    "bench": "no",
    "bus": "yes",
    "highway": "bus_stop",
    "name": "Patinoire/Piscine",
    "public_transport": "platform",
    "shelter": "no"
  }
},
{
  "type": "node",
  "id": 1086183176,
  "lat": 47.2138523,
  "lon": 5.9687823,
  "tags": {
    "bench": "no",
    "bus": "yes",
    "highway": "bus_stop",
    "name": "Patinoire/Piscine",
    "public_transport": "platform",
    "shelter": "no"
  }
},
{
  "type": "node",
  "id": 1157260161,
  "lat": 47.2424064,
  "lon": 6.0209466,
  "tags": {
    "bench": "yes",
    "bus": "yes",
    "covered": "no",
    "highway": "bus_stop",
    "name": "Bacchus",
    "public_transport": "platform",
    "public_transport:version": "2",
    "shelter": "no"
  }
},
{
  "type": "node",
  "id": 1203186581,
  "lat": 47.2187115,
  "lon": 5.9648370,
  "tags": {
    "bench": "yes",
    "bus": "yes",
    "highway": "bus_stop",
    "lit": "yes",
    "name": "Languedoc",
    "public_transport": "platform",
    "route_ref": "4 ; 7 ; 22 ; 58",
    "shelter": "yes",
    "tactile_paving": "yes"
  }
},
{
  "type": "node",
  "id": 1203187195,
  "lat": 47.2188637,
  "lon": 5.9650859,
  "tags": {
    "bench": "yes",
    "bus": "yes",
    "highway": "bus_stop",
    "name": "Languedoc",
    "public_transport": "platform",
    "route_ref": "4 ; 7 ; 22 ; 58",
    "shelter": "yes"
  }
},
{
  "type": "node",
  "id": 1216045694,
  "lat": 47.2392536,
  "lon": 6.0268971,
  "tags": {
    "bench": "yes",
    "bus": "yes",
    "highway": "bus_stop",
    "name": "Saint-Amour",
    "public_transport": "platform",
    "public_transport:version": "2",
    "shelter": "yes"
  }
},
{
  "type": "node",
  "id": 1315561773,
  "lat": 47.2435680,
  "lon": 5.9785070,
  "tags": {
    "bench": "no",
    "bus": "yes",
    "covered": "no",
    "highway": "bus_stop",
    "name": "Baverez",
    "public_transport": "platform",
    "shelter": "no"
  }
},
{
  "type": "node",
  "id": 1323672326,
  "lat": 47.2416470,
  "lon": 6.0397833,
  "tags": {
    "bus": "yes",
    "highway": "bus_stop",
    "name": "Salins de Bregille",
    "public_transport": "platform"
  }
},
{
  "type": "node",
  "id": 1323672491,
  "lat": 47.2417029,
  "lon": 6.0401573,
  "tags": {
    "bus": "yes",
    "highway": "bus_stop",
    "name": "Salins de Bregille",
    "public_transport": "platform"
  }
},
{
  "type": "node",
  "id": 1404305777,
  "lat": 47.2223277,
  "lon": 5.9667569,
  "tags": {
    "bench": "yes",
    "bin": "yes",
    "bus": "yes",
    "covered": "yes",
    "highway": "bus_stop",
    "name": "Île-de-France",
    "passenger_information_display": "yes",
    "public_transport": "platform",
    "shelter": "yes",
    "tactile_paving": "yes",
    "wheelchair": "yes"
  }
},
{
  "type": "node",
  "id": 1411234395,
  "lat": 47.2446599,
  "lon": 6.0129778,
  "tags": {
    "bus": "yes",
    "highway": "bus_stop",
    "name": "Weiss",
    "public_transport": "platform",
    "public_transport:version": "2"
  }
},
{
  "type": "node",
  "id": 1411234397,
  "lat": 47.2449462,
  "lon": 6.0129690,
  "tags": {
    "bus": "yes",
    "highway": "bus_stop",
    "name": "Weiss",
    "public_transport": "platform",
    "public_transport:version": "2"
  }
},
{
  "type": "node",
  "id": 1411234407,
  "lat": 47.2466228,
  "lon": 6.0115902,
  "tags": {
    "bus": "yes",
    "highway": "bus_stop",
    "name": "Fanart",
    "public_transport": "platform",
    "public_transport:version": "2"
  }
},
{
  "type": "node",
  "id": 1419563317,
  "lat": 47.2397377,
  "lon": 6.0265871,
  "tags": {
    "bench": "yes",
    "bin": "yes",
    "bus": "yes",
    "highway": "bus_stop",
    "name": "Poste",
    "public_transport": "platform",
    "public_transport:version": "2",
    "shelter": "yes",
    "tactile_paving": "no"
  }
},
{
  "type": "node",
  "id": 1419597364,
  "lat": 47.2378633,
  "lon": 6.0263965,
  "tags": {
    "bench": "no",
    "bus": "yes",
    "highway": "bus_stop",
    "name": "Granges",
    "public_transport": "platform",
    "public_transport:version": "2",
    "shelter": "no"
  }
},
{
  "type": "node",
  "id": 1424276001,
  "lat": 47.2579784,
  "lon": 5.9990982,
  "tags": {
    "bench": "no",
    "bus": "yes",
    "covered": "no",
    "highway": "bus_stop",
    "name": "Batiment CFA",
    "public_transport": "platform",
    "public_transport:version": "2",
    "shelter": "no"
  }
},
{
  "type": "node",
  "id": 1424276003,
  "lat": 47.2581617,
  "lon": 5.9991210,
  "tags": {
    "bench": "no",
    "bus": "yes",
    "covered": "no",
    "highway": "bus_stop",
    "name": "Batiment CFA",
    "public_transport": "platform",
    "public_transport:version": "2",
    "shelter": "no"
  }
},
{
  "type": "node",
  "id": 1424276007,
  "lat": 47.2610332,
  "lon": 5.9960030,
  "tags": {
    "bus": "yes",
    "highway": "bus_stop",
    "name": "Founottes",
    "public_transport": "platform",
    "public_transport:version": "2"
  }
},
{
  "type": "node",
  "id": 1424276017,
  "lat": 47.2595323,
  "lon": 5.9977235,
  "tags": {
    "bench": "no",
    "bus": "yes",
    "covered": "no",
    "highway": "bus_stop",
    "name": "Mercator",
    "public_transport": "platform",
    "public_transport:version": "2",
    "shelter": "no"
  }
},
{
  "type": "node",
  "id": 1424276019,
  "lat": 47.2595529,
  "lon": 5.9974146,
  "tags": {
    "bench": "yes",
    "bus": "yes",
    "covered": "yes",
    "highway": "bus_stop",
    "name": "Lycée Pâris",
    "public_transport": "platform",
    "public_transport:version": "2",
    "shelter": "yes"
  }
},
{
  "type": "node",
  "id": 1424407777,
  "lat": 47.2521468,
  "lon": 5.9902668,
  "tags": {
    "bench": "yes",
    "bus": "yes",
    "highway": "bus_stop",
    "name": "U-Sports",
    "public_transport": "platform",
    "public_transport:version": "2",
    "shelter": "yes"
  }
},
{
  "type": "node",
  "id": 1424407779,
  "lat": 47.2522742,
  "lon": 5.9902724,
  "tags": {
    "bench": "yes",
    "bus": "yes",
    "highway": "bus_stop",
    "name": "U-Sports",
    "public_transport": "platform",
    "public_transport:version": "2",
    "shelter": "yes"
  }
},
{
  "type": "node",
  "id": 1430934287,
  "lat": 47.2225338,
  "lon": 5.9725802,
  "tags": {
    "bus": "yes",
    "highway": "bus_stop",
    "name": "Bourgogne",
    "public_transport": "platform"
  }
},
{
  "type": "node",
  "id": 1430934290,
  "lat": 47.2193473,
  "lon": 5.9703292,
  "tags": {
    "bus": "yes",
    "highway": "bus_stop",
    "name": "Cassin",
    "public_transport": "platform",
    "route_ref": "52 ; 54 ; 55 ; 56 57 ; 58"
  }
},
{
  "type": "node",
  "id": 1430934291,
  "lat": 47.2192316,
  "lon": 5.9695344,
  "tags": {
    "bus": "yes",
    "highway": "bus_stop",
    "name": "Cassin",
    "public_transport": "platform",
    "route_ref": "52 ; 54 ; 55 ; 56 57 ; 58"
  }
},
{
  "type": "node",
  "id": 1430934293,
  "lat": 47.2214995,
  "lon": 5.9599598,
  "tags": {
    "bus": "yes",
    "highway": "bus_stop",
    "name": "Croizat",
    "public_transport": "platform",
    "route_ref": "7 ; 58"
  }
},
{
  "type": "node",
  "id": 1430934294,
  "lat": 47.2216388,
  "lon": 5.9599480,
  "tags": {
    "bus": "yes",
    "highway": "bus_stop",
    "name": "Croizat",
    "public_transport": "platform",
    "route_ref": "7 ; 58"
  }
},
{
  "type": "node",
  "id": 1430934295,
  "lat": 47.2230376,
  "lon": 5.9602794,
  "tags": {
    "bench": "no",
    "bus": "yes",
    "highway": "bus_stop",
    "lit": "yes",
    "name": "Dolto",
    "public_transport": "platform",
    "shelter": "no",
    "tactile_paving": "no"
  }
},
{
  "type": "node",
  "id": 1430934296,
  "lat": 47.2230670,
  "lon": 5.9600417,
  "tags": {
    "bench": "no",
    "bus": "yes",
    "highway": "bus_stop",
    "lit": "yes",
    "name": "Dolto",
    "public_transport": "platform",
    "shelter": "no",
    "tactile_paving": "no"
  }
},
{
  "type": "node",
  "id": 1430934298,
  "lat": 47.2195515,
  "lon": 5.9741172,
  "tags": {
    "bench": "yes",
    "bus": "yes",
    "covered": "yes",
    "highway": "bus_stop",
    "name": "Allende",
    "public_transport": "platform",
    "shelter": "yes"
  }
},
{
  "type": "node",
  "id": 1430934299,
  "lat": 47.2199453,
  "lon": 5.9733770,
  "tags": {
    "bench": "yes",
    "bus": "yes",
    "covered": "yes",
    "highway": "bus_stop",
    "name": "Allende",
    "public_transport": "platform",
    "route_ref": "52 ; 54 ; 55 ; 56 57 ; 58",
    "shelter": "yes"
  }
},
{
  "type": "node",
  "id": 1430934302,
  "lat": 47.2202153,
  "lon": 5.9619654,
  "tags": {
    "bench": "yes",
    "bus": "yes",
    "highway": "bus_stop",
    "lit": "yes",
    "name": "Pavie",
    "public_transport": "platform",
    "route_ref": "4 ; 7 ; 22 ; 58",
    "shelter": "yes",
    "tactile_paving": "yes"
  }
},
{
  "type": "node",
  "id": 1430934303,
  "lat": 47.2206083,
  "lon": 5.9617539,
  "tags": {
    "bus": "yes",
    "highway": "bus_stop",
    "name": "Pavie",
    "public_transport": "platform",
    "route_ref": "4 ; 7 ; 22 ; 58"
  }
},
{
  "type": "node",
  "id": 1430958099,
  "lat": 47.2482181,
  "lon": 5.9970498,
  "tags": {
    "bench": "yes",
    "bin": "yes",
    "bus": "yes",
    "highway": "bus_stop",
    "lit": "no",
    "name": "Kepler",
    "public_transport": "platform",
    "public_transport:version": "2",
    "shelter": "yes",
    "tactile_paving": "no"
  }
},
{
  "type": "node",
  "id": 1430958101,
  "lat": 47.2540884,
  "lon": 6.0386320,
  "tags": {
    "bus": "yes",
    "highway": "bus_stop",
    "name": "Papillon",
    "public_transport": "platform",
    "public_transport:version": "2"
  }
},
{
  "type": "node",
  "id": 1430999665,
  "lat": 47.2462821,
  "lon": 6.0221175,
  "tags": {
    "bench": "yes",
    "bin": "yes",
    "bus": "yes",
    "covered": "yes",
    "highway": "bus_stop",
    "name": "Gare Viotte",
    "passenger_information_display": "yes",
    "public_transport": "platform",
    "railway": "platform",
    "route_ref": "3;5;T2;Plan B Tram",
    "shelter": "yes",
    "start_date": "2014-08-30",
    "tram": "yes",
    "wheelchair": "yes"
  }
},
{
  "type": "node",
  "id": 1430999682,
  "lat": 47.2606849,
  "lon": 6.0149886,
  "tags": {
    "bus": "yes",
    "highway": "bus_stop",
    "name": "Reclus",
    "public_transport": "platform"
  }
},
{
  "type": "node",
  "id": 1431093152,
  "lat": 47.2616598,
  "lon": 5.9874527,
  "tags": {
    "bench": "no",
    "bus": "yes",
    "highway": "bus_stop",
    "name": "Naitoure",
    "public_transport": "platform",
    "route_ref": "61 ; 64",
    "shelter": "no"
  }
},
{
  "type": "node",
  "id": 1431093179,
  "lat": 47.2586998,
  "lon": 5.9900995,
  "tags": {
    "bench": "no",
    "bus": "yes",
    "highway": "bus_stop",
    "name": "École des Montboucons",
    "public_transport": "platform",
    "public_transport:version": "2",
    "route_ref": "61 ; 64",
    "shelter": "no"
  }
},
{
  "type": "node",
  "id": 1431093181,
  "lat": 47.2589116,
  "lon": 5.9901299,
  "tags": {
    "bench": "no",
    "bus": "yes",
    "highway": "bus_stop",
    "name": "École des Montboucons",
    "public_transport": "platform",
    "public_transport:version": "2",
    "route_ref": "61 ; 64",
    "shelter": "no"
  }
},
{
  "type": "node",
  "id": 1446081196,
  "lat": 47.2566343,
  "lon": 6.0421514,
  "tags": {
    "bus": "yes",
    "highway": "bus_stop",
    "name": "Belfort",
    "public_transport": "platform",
    "public_transport:version": "2"
  }
},
{
  "type": "node",
  "id": 1446106328,
  "lat": 47.2583349,
  "lon": 6.0229647,
  "tags": {
    "bench": "no",
    "bus": "yes",
    "highway": "bus_stop",
    "name": "Seiler",
    "public_transport": "platform",
    "public_transport:version": "2",
    "shelter": "no"
  }
},
{
  "type": "node",
  "id": 1446106329,
  "lat": 47.2583516,
  "lon": 6.0228275,
  "tags": {
    "bench": "yes",
    "bus": "yes",
    "highway": "bus_stop",
    "name": "Seiler",
    "public_transport": "platform",
    "public_transport:version": "2",
    "shelter": "yes"
  }
},
{
  "type": "node",
  "id": 1446106344,
  "lat": 47.2551082,
  "lon": 6.0231646,
  "tags": {
    "bench": "yes",
    "bus": "yes",
    "highway": "bus_stop",
    "name": "Francis Clerc",
    "public_transport": "platform",
    "public_transport:version": "2",
    "shelter": "yes"
  }
},
{
  "type": "node",
  "id": 1446106370,
  "lat": 47.2553624,
  "lon": 6.0226489,
  "tags": {
    "bench": "no",
    "bus": "yes",
    "highway": "bus_stop",
    "name": "Francis Clerc",
    "public_transport": "platform",
    "public_transport:version": "2",
    "shelter": "no"
  }
},
{
  "type": "node",
  "id": 1446106406,
  "lat": 47.2565111,
  "lon": 6.0247814,
  "tags": {
    "bus": "yes",
    "highway": "bus_stop",
    "name": "Bruyères",
    "public_transport": "platform",
    "public_transport:version": "2"
  }
},
{
  "type": "node",
  "id": 1446106410,
  "lat": 47.2566891,
  "lon": 6.0251912,
  "tags": {
    "bus": "yes",
    "highway": "bus_stop",
    "name": "Bruyères",
    "public_transport": "platform",
    "public_transport:version": "2"
  }
},
{
  "type": "node",
  "id": 1470163885,
  "lat": 47.2627251,
  "lon": 6.0407413,
  "tags": {
    "bench": "yes",
    "bus": "yes",
    "highway": "bus_stop",
    "name": "Chopin",
    "public_transport": "platform",
    "public_transport:version": "2",
    "shelter": "yes"
  }
},
{
  "type": "node",
  "id": 1499756426,
  "lat": 47.2442760,
  "lon": 6.0116549,
  "tags": {
    "bench": "yes",
    "bus": "yes",
    "highway": "bus_stop",
    "name": "Demangel",
    "public_transport": "platform",
    "public_transport:version": "2",
    "shelter": "yes"
  }
},
{
  "type": "node",
  "id": 1499756427,
  "lat": 47.2446417,
  "lon": 6.0113904,
  "tags": {
    "bench": "yes",
    "bus": "yes",
    "highway": "bus_stop",
    "name": "Demangel",
    "public_transport": "platform",
    "public_transport:version": "2",
    "shelter": "yes"
  }
},
{
  "type": "node",
  "id": 1623915318,
  "lat": 47.2440550,
  "lon": 6.0215518,
  "tags": {
    "bench": "no",
    "bus": "yes",
    "covered": "no",
    "highway": "bus_stop",
    "name": "Remparts",
    "public_transport": "platform",
    "public_transport:version": "2",
    "shelter": "no"
  }
},
{
  "type": "node",
  "id": 1632847788,
  "lat": 47.2362912,
  "lon": 5.9953019,
  "tags": {
    "bench": "yes",
    "bus": "yes",
    "highway": "bus_stop",
    "name": "Ateliers Municipaux",
    "public_transport": "platform",
    "shelter": "yes"
  }
},
{
  "type": "node",
  "id": 1632847796,
  "lat": 47.2363984,
  "lon": 5.9954090,
  "tags": {
    "bus": "yes",
    "highway": "bus_stop",
    "name": "Ateliers Municipaux",
    "public_transport": "platform"
  }
},
{
  "type": "node",
  "id": 1632847808,
  "lat": 47.2489818,
  "lon": 6.0034877,
  "tags": {
    "bus": "yes",
    "highway": "bus_stop",
    "name": "Brossolette-Greta",
    "public_transport": "platform",
    "public_transport:version": "2"
  }
},
{
  "type": "node",
  "id": 1632847810,
  "lat": 47.2513845,
  "lon": 6.0578969,
  "tags": {
    "bench": "yes",
    "bus": "yes",
    "highway": "bus_stop",
    "name": "Bois St Paul",
    "public_transport": "platform",
    "ref": "5 ; 76",
    "shelter": "yes"
  }
},
{
  "type": "node",
  "id": 1632847819,
  "lat": 47.2514039,
  "lon": 6.0583133,
  "tags": {
    "bench": "yes",
    "bus": "yes",
    "highway": "bus_stop",
    "name": "Bois St Paul",
    "public_transport": "platform",
    "ref": "5 ; 76",
    "shelter": "yes"
  }
},
{
  "type": "node",
  "id": 1632847820,
  "lat": 47.2499585,
  "lon": 6.0588088,
  "tags": {
    "bench": "yes",
    "bus": "yes",
    "highway": "bus_stop",
    "name": "Clairs Soleils",
    "public_transport": "platform",
    "shelter": "yes"
  }
},
{
  "type": "node",
  "id": 1632847829,
  "lat": 47.2503402,
  "lon": 6.0592704,
  "tags": {
    "bench": "yes",
    "bus": "yes",
    "highway": "bus_stop",
    "name": "Clairs Soleils",
    "public_transport": "platform",
    "shelter": "yes"
  }
},
{
  "type": "node",
  "id": 1632847839,
  "lat": 47.2493033,
  "lon": 6.0514541,
  "tags": {
    "bus": "yes",
    "highway": "bus_stop",
    "name": "Donzelot",
    "public_transport": "platform"
  }
},
{
  "type": "node",
  "id": 1632847843,
  "lat": 47.2495456,
  "lon": 6.0500369,
  "tags": {
    "bench": "yes",
    "bus": "yes",
    "highway": "bus_stop",
    "name": "Donzelot",
    "public_transport": "platform",
    "shelter": "yes"
  }
},
{
  "type": "node",
  "id": 1632847844,
  "lat": 47.2482412,
  "lon": 6.0433380,
  "tags": {
    "bus": "yes",
    "highway": "bus_stop",
    "name": "Duet",
    "public_transport": "platform"
  }
},
{
  "type": "node",
  "id": 1632847856,
  "lat": 47.2472336,
  "lon": 5.9928921,
  "tags": {
    "bench": "yes",
    "bus": "yes",
    "highway": "bus_stop",
    "name": "IUT",
    "public_transport": "platform",
    "public_transport:version": "2",
    "shelter": "yes"
  }
},
{
  "type": "node",
  "id": 1632847862,
  "lat": 47.2473392,
  "lon": 5.9928223,
  "tags": {
    "bench": "yes",
    "bus": "yes",
    "highway": "bus_stop",
    "name": "IUT",
    "public_transport": "platform",
    "public_transport:version": "2",
    "shelter": "yes"
  }
},
{
  "type": "node",
  "id": 1632847865,
  "lat": 47.2382043,
  "lon": 5.9941095,
  "tags": {
    "bus": "yes",
    "highway": "bus_stop",
    "name": "Jacquard",
    "public_transport": "platform"
  }
},
{
  "type": "node",
  "id": 1632847869,
  "lat": 47.2384469,
  "lon": 5.9940493,
  "tags": {
    "bus": "yes",
    "highway": "bus_stop",
    "name": "Jacquard",
    "public_transport": "platform"
  }
},
{
  "type": "node",
  "id": 1632847872,
  "lat": 47.2399208,
  "lon": 5.9936243,
  "tags": {
    "bus": "yes",
    "highway": "bus_stop",
    "name": "Maty",
    "public_transport": "platform"
  }
},
{
  "type": "node",
  "id": 1632847875,
  "lat": 47.2402510,
  "lon": 5.9937530,
  "tags": {
    "bus": "yes",
    "highway": "bus_stop",
    "name": "Maty",
    "public_transport": "platform"
  }
},
{
  "type": "node",
  "id": 1632847878,
  "lat": 47.2462243,
  "lon": 6.0087247,
  "tags": {
    "bench": "yes",
    "bus": "yes",
    "highway": "bus_stop",
    "name": "Métin",
    "public_transport": "platform",
    "public_transport:version": "2",
    "shelter": "yes",
    "tactile_paving": "no"
  }
},
{
  "type": "node",
  "id": 1632847883,
  "lat": 47.2467377,
  "lon": 5.9963728,
  "tags": {
    "bench": "yes",
    "bin": "yes",
    "bus": "yes",
    "highway": "bus_stop",
    "name": "AFPA",
    "public_transport": "platform",
    "public_transport:version": "2",
    "shelter": "yes",
    "tactile_paving": "no"
  }
},
{
  "type": "node",
  "id": 1632847887,
  "lat": 47.2468527,
  "lon": 5.9963053,
  "tags": {
    "bench": "yes",
    "bin": "yes",
    "bus": "yes",
    "highway": "bus_stop",
    "name": "AFPA",
    "public_transport": "platform",
    "public_transport:version": "2",
    "shelter": "yes",
    "tactile_paving": "no"
  }
},
{
  "type": "node",
  "id": 1632847910,
  "lat": 47.2413577,
  "lon": 6.0069524,
  "tags": {
    "bench": "yes",
    "bus": "yes",
    "covered": "yes",
    "highway": "bus_stop",
    "name": "Trépillot",
    "public_transport": "platform",
    "shelter": "yes"
  }
},
{
  "type": "node",
  "id": 1632848005,
  "lat": 47.2474860,
  "lon": 6.0063912,
  "tags": {
    "bench": "yes",
    "bin": "yes",
    "bus": "yes",
    "covered": "yes",
    "highway": "bus_stop",
    "lit": "yes",
    "name": "Deville",
    "public_transport": "platform",
    "public_transport:version": "2",
    "tactile_paving": "no"
  }
},
{
  "type": "node",
  "id": 1632848012,
  "lat": 47.2477587,
  "lon": 6.0060227,
  "tags": {
    "bench": "no",
    "bus": "yes",
    "highway": "bus_stop",
    "name": "Deville",
    "public_transport": "platform",
    "public_transport:version": "2",
    "shelter": "no",
    "tactile_paving": "no"
  }
},
{
  "type": "node",
  "id": 1675614875,
  "lat": 47.2247966,
  "lon": 5.9754096,
  "tags": {
    "bus": "yes",
    "highway": "bus_stop",
    "name": "Champagne",
    "public_transport": "platform"
  }
},
{
  "type": "node",
  "id": 1675614936,
  "lat": 47.2249004,
  "lon": 5.9735696,
  "tags": {
    "bench": "yes",
    "bus": "yes",
    "covered": "yes",
    "highway": "bus_stop",
    "name": "Flandres",
    "public_transport": "platform",
    "shelter": "yes"
  }
},
{
  "type": "node",
  "id": 1675614955,
  "lat": 47.2245871,
  "lon": 5.9754122,
  "tags": {
    "bus": "yes",
    "highway": "bus_stop",
    "name": "Champagne",
    "public_transport": "platform"
  }
},
{
  "type": "node",
  "id": 1675614984,
  "lat": 47.2240571,
  "lon": 5.9716008,
  "tags": {
    "bench": "yes",
    "bus": "yes",
    "highway": "bus_stop",
    "lit": "yes",
    "name": "Artois",
    "public_transport": "platform",
    "shelter": "yes",
    "tactile_paving": "yes"
  }
},
{
  "type": "node",
  "id": 1675615111,
  "lat": 47.2244883,
  "lon": 5.9716383,
  "tags": {
    "bench": "no",
    "bus": "yes",
    "covered": "no",
    "highway": "bus_stop",
    "name": "Artois",
    "public_transport": "platform",
    "shelter": "no"
  }
},
{
  "type": "node",
  "id": 1675621071,
  "lat": 47.2228497,
  "lon": 5.9657117,
  "tags": {
    "bus": "yes",
    "highway": "bus_stop",
    "name": "Piémont",
    "public_transport": "stop_position"
  }
},
{
  "type": "node",
  "id": 1675656921,
  "lat": 47.2204302,
  "lon": 5.9656168,
  "tags": {
    "bus": "yes",
    "highway": "bus_stop",
    "name": "Savoie",
    "public_transport": "platform"
  }
},
{
  "type": "node",
  "id": 1675656944,
  "lat": 47.2204010,
  "lon": 5.9653486,
  "tags": {
    "bus": "yes",
    "highway": "bus_stop",
    "name": "Savoie",
    "public_transport": "platform"
  }
},
{
  "type": "node",
  "id": 1675667874,
  "lat": 47.2218456,
  "lon": 5.9704743,
  "tags": {
    "bus": "yes",
    "highway": "bus_stop",
    "name": "Collège Diderot",
    "public_transport": "platform",
    "shelter": "yes"
  }
},
{
  "type": "node",
  "id": 1675667896,
  "lat": 47.2216580,
  "lon": 5.9704904,
  "tags": {
    "bus": "yes",
    "highway": "bus_stop",
    "name": "Collège Diderot",
    "public_transport": "platform",
    "shelter": "yes"
  }
},
{
  "type": "node",
  "id": 1675672232,
  "lat": 47.2229509,
  "lon": 5.9751490,
  "tags": {
    "bus": "yes",
    "highway": "bus_stop",
    "name": "Franche Comté",
    "public_transport": "platform"
  }
},
{
  "type": "node",
  "id": 1763901159,
  "lat": 47.2370461,
  "lon": 6.0042557,
  "tags": {
    "bench": "no",
    "bin": "yes",
    "bus": "yes",
    "highway": "bus_stop",
    "name": "Casernes",
    "public_transport": "platform",
    "shelter": "no",
    "tactile_paving": "no"
  }
},
{
  "type": "node",
  "id": 1763901160,
  "lat": 47.2371028,
  "lon": 6.0036006,
  "tags": {
    "bench": "no",
    "bin": "no",
    "bus": "yes",
    "highway": "bus_stop",
    "name": "Casernes",
    "public_transport": "platform",
    "shelter": "no",
    "tactile_paving": "no"
  }
},
{
  "type": "node",
  "id": 1775347523,
  "lat": 47.2444715,
  "lon": 5.9862626,
  "tags": {
    "bench": "yes",
    "bus": "yes",
    "highway": "bus_stop",
    "name": "UFR Sciences",
    "public_transport": "platform",
    "shelter": "yes",
    "wheelchair": "yes"
  }
},
{
  "type": "node",
  "id": 1775347528,
  "lat": 47.2444042,
  "lon": 5.9866896,
  "tags": {
    "bench": "yes",
    "bus": "yes",
    "highway": "bus_stop",
    "name": "UFR Sciences",
    "public_transport": "platform",
    "shelter": "yes",
    "wheelchair": "yes"
  }
},
{
  "type": "node",
  "id": 1796427586,
  "lat": 47.2505516,
  "lon": 6.0096737,
  "tags": {
    "bus": "yes",
    "highway": "bus_stop",
    "name": "Fontaine Ecu",
    "public_transport": "platform",
    "public_transport:version": "2"
  }
},
{
  "type": "node",
  "id": 1831135008,
  "lat": 47.2508101,
  "lon": 6.0004439,
  "tags": {
    "bench": "yes",
    "bus": "yes",
    "covered": "yes",
    "highway": "bus_stop",
    "name": "Pôle Sportif",
    "public_transport": "platform",
    "public_transport:version": "2",
    "shelter": "yes"
  }
},
{
  "type": "node",
  "id": 1831135009,
  "lat": 47.2508101,
  "lon": 6.0005843,
  "tags": {
    "bench": "no",
    "bus": "yes",
    "highway": "bus_stop",
    "name": "Pôle Sportif",
    "public_transport": "platform",
    "public_transport:version": "2",
    "shelter": "no"
  }
},
{
  "type": "node",
  "id": 1870502438,
  "lat": 47.2436310,
  "lon": 5.9955756,
  "tags": {
    "bench": "yes",
    "bus": "yes",
    "highway": "bus_stop",
    "name": "Saint-Martin",
    "public_transport": "platform",
    "shelter": "yes"
  }
},
{
  "type": "node",
  "id": 1904430357,
  "lat": 47.2181568,
  "lon": 6.0458599,
  "tags": {
    "bench": "no",
    "bin": "yes",
    "bus": "yes",
    "highway": "bus_stop",
    "lit": "no",
    "name": "Chapelle",
    "public_transport": "platform",
    "shelter": "no",
    "tactile_paving": "no"
  }
},
{
  "type": "node",
  "id": 1904430365,
  "lat": 47.2265495,
  "lon": 6.0354660,
  "tags": {
    "bus": "yes",
    "highway": "bus_stop",
    "name": "Malpas",
    "public_transport": "platform"
  }
},
{
  "type": "node",
  "id": 1904430370,
  "lat": 47.2191433,
  "lon": 6.0419293,
  "tags": {
    "bus": "yes",
    "highway": "bus_stop",
    "name": "Mialottes",
    "public_transport": "platform"
  }
},
{
  "type": "node",
  "id": 1904430375,
  "lat": 47.2249529,
  "lon": 6.0361228,
  "tags": {
    "bus": "yes",
    "highway": "bus_stop",
    "name": "Trois-Châtels",
    "public_transport": "platform"
  }
},
{
  "type": "node",
  "id": 2263285956,
  "lat": 47.2511536,
  "lon": 6.0094392,
  "tags": {
    "bench": "yes",
    "bus": "yes",
    "covered": "yes",
    "highway": "bus_stop",
    "name": "Churchill",
    "public_transport": "platform",
    "public_transport:version": "2",
    "shelter": "yes"
  }
},
{
  "type": "node",
  "id": 2263285962,
  "lat": 47.2509976,
  "lon": 6.0098576,
  "tags": {
    "bench": "yes",
    "bus": "yes",
    "covered": "yes",
    "highway": "bus_stop",
    "name": "Churchill",
    "public_transport": "platform",
    "public_transport:version": "2",
    "shelter": "yes"
  }
},
{
  "type": "node",
  "id": 2423370580,
  "lat": 47.2476370,
  "lon": 6.0284739,
  "tags": {
    "bench": "yes",
    "bin": "yes",
    "bus": "yes",
    "covered": "yes",
    "highway": "bus_stop",
    "name": "Liberté",
    "public_transport": "platform",
    "public_transport:version": "2",
    "shelter": "yes"
  }
},
{
  "type": "node",
  "id": 2423370595,
  "lat": 47.2474267,
  "lon": 6.0284618,
  "tags": {
    "bus": "yes",
    "highway": "bus_stop",
    "name": "Liberté",
    "public_transport": "platform",
    "public_transport:version": "2"
  }
},
{
  "type": "node",
  "id": 2813659716,
  "lat": 47.2361524,
  "lon": 6.0333074,
  "tags": {
    "bus": "yes",
    "highway": "bus_stop",
    "name": "Cité des Arts",
    "public_transport": "platform",
    "shelter": "yes"
  }
},
{
  "type": "node",
  "id": 3128348477,
  "lat": 47.2348238,
  "lon": 6.0081350,
  "tags": {
    "bus": "yes",
    "highway": "bus_stop",
    "name": "Haras",
    "public_transport": "platform",
    "shelter": "no"
  }
},
{
  "type": "node",
  "id": 3157074939,
  "lat": 47.2772796,
  "lon": 6.0168301,
  "tags": {
    "bus": "yes",
    "highway": "bus_stop",
    "name": "Antoine",
    "public_transport": "platform"
  }
},
{
  "type": "node",
  "id": 3157074940,
  "lat": 47.2773632,
  "lon": 6.0168559,
  "tags": {
    "bus": "yes",
    "highway": "bus_stop",
    "name": "Antoine",
    "public_transport": "platform"
  }
},
{
  "type": "node",
  "id": 3157074941,
  "lat": 47.2780478,
  "lon": 6.0279750,
  "tags": {
    "bus": "yes",
    "highway": "bus_stop",
    "name": "Chailluz",
    "public_transport": "platform"
  }
},
{
  "type": "node",
  "id": 3157074942,
  "lat": 47.2780781,
  "lon": 6.0280872,
  "tags": {
    "bus": "yes",
    "highway": "bus_stop",
    "name": "Chailluz",
    "public_transport": "platform"
  }
},
{
  "type": "node",
  "id": 3157074943,
  "lat": 47.2707389,
  "lon": 6.0274687,
  "tags": {
    "bus": "yes",
    "highway": "bus_stop",
    "name": "Chemin de la Croix",
    "public_transport": "platform"
  }
},
{
  "type": "node",
  "id": 3157074944,
  "lat": 47.2707989,
  "lon": 6.0273936,
  "tags": {
    "bus": "yes",
    "highway": "bus_stop",
    "name": "Chemin de la Croix",
    "public_transport": "platform"
  }
},
{
  "type": "node",
  "id": 3157074945,
  "lat": 47.2592914,
  "lon": 6.0107534,
  "tags": {
    "bus": "yes",
    "highway": "bus_stop",
    "name": "Collège Camus",
    "public_transport": "platform",
    "public_transport:version": "2"
  }
},
{
  "type": "node",
  "id": 3157074946,
  "lat": 47.2593605,
  "lon": 6.0106777,
  "tags": {
    "bus": "yes",
    "highway": "bus_stop",
    "name": "Collège Camus",
    "public_transport": "platform"
  }
},
{
  "type": "node",
  "id": 3157074947,
  "lat": 47.2779232,
  "lon": 6.0182484,
  "tags": {
    "bus": "yes",
    "highway": "bus_stop",
    "name": "Combe Maçon",
    "public_transport": "platform"
  }
},
{
  "type": "node",
  "id": 3157074948,
  "lat": 47.2781386,
  "lon": 6.0183091,
  "tags": {
    "bus": "yes",
    "highway": "bus_stop",
    "name": "Combe Maçon",
    "public_transport": "platform"
  }
},
{
  "type": "node",
  "id": 3157074949,
  "lat": 47.2809449,
  "lon": 6.0210915,
  "tags": {
    "bus": "yes",
    "highway": "bus_stop",
    "name": "Domoy",
    "public_transport": "platform"
  }
},
{
  "type": "node",
  "id": 3157074950,
  "lat": 47.2810500,
  "lon": 6.0210250,
  "tags": {
    "bus": "yes",
    "highway": "bus_stop",
    "name": "Domoy",
    "public_transport": "platform"
  }
},
{
  "type": "node",
  "id": 3157074951,
  "lat": 47.2692410,
  "lon": 6.0249169,
  "tags": {
    "bus": "yes",
    "highway": "bus_stop",
    "name": "Grange Borée",
    "public_transport": "platform"
  }
},
{
  "type": "node",
  "id": 3157074952,
  "lat": 47.2692989,
  "lon": 6.0248376,
  "tags": {
    "bus": "yes",
    "highway": "bus_stop",
    "name": "Grange Borée",
    "public_transport": "platform"
  }
},
{
  "type": "node",
  "id": 3157074953,
  "lat": 47.2620660,
  "lon": 6.0148466,
  "tags": {
    "bus": "yes",
    "highway": "bus_stop",
    "name": "Maison du Miel",
    "public_transport": "platform"
  }
},
{
  "type": "node",
  "id": 3157074954,
  "lat": 47.2620417,
  "lon": 6.0149680,
  "tags": {
    "bus": "yes",
    "highway": "bus_stop",
    "name": "Maison du Miel",
    "public_transport": "platform"
  }
},
{
  "type": "node",
  "id": 3157074955,
  "lat": 47.2751052,
  "lon": 6.0113351,
  "tags": {
    "bus": "yes",
    "highway": "bus_stop",
    "name": "Pillot",
    "public_transport": "platform"
  }
},
{
  "type": "node",
  "id": 3157074956,
  "lat": 47.2642983,
  "lon": 6.0174399,
  "tags": {
    "bus": "yes",
    "highway": "bus_stop",
    "name": "Plénière",
    "public_transport": "platform"
  }
},
{
  "type": "node",
  "id": 3157074957,
  "lat": 47.2644530,
  "lon": 6.0173671,
  "tags": {
    "bus": "yes",
    "highway": "bus_stop",
    "name": "Plénière",
    "public_transport": "platform"
  }
},
{
  "type": "node",
  "id": 3157074958,
  "lat": 47.2662175,
  "lon": 6.0207053,
  "tags": {
    "bus": "yes",
    "highway": "bus_stop",
    "name": "Point du Jour",
    "public_transport": "platform"
  }
},
{
  "type": "node",
  "id": 3157074959,
  "lat": 47.2662990,
  "lon": 6.0206131,
  "tags": {
    "bus": "yes",
    "highway": "bus_stop",
    "name": "Point du Jour",
    "public_transport": "platform"
  }
},
{
  "type": "node",
  "id": 3269647936,
  "lat": 47.2421965,
  "lon": 6.0138613,
  "tags": {
    "bench": "yes",
    "bin": "no",
    "bus": "yes",
    "covered": "yes",
    "highway": "bus_stop",
    "name": "Voirin",
    "public_transport": "platform",
    "public_transport:version": "2",
    "shelter": "yes",
    "tactile_paving": "no"
  }
},
{
  "type": "node",
  "id": 3406853020,
  "lat": 47.2192982,
  "lon": 6.0270277,
  "tags": {
    "bus": "yes",
    "highway": "bus_stop",
    "name": "Casamène",
    "public_transport": "platform"
  }
},
{
  "type": "node",
  "id": 3406868925,
  "lat": 47.2070569,
  "lon": 5.9933377,
  "tags": {
    "bench": "no",
    "bus": "yes",
    "covered": "no",
    "highway": "bus_stop",
    "name": "Port Douvot",
    "network": "Ginko",
    "network:wikidata": "Q3106780",
    "network:wikipedia": "fr:Transports en commun de Besançon",
    "operator": "Keolis Besançon",
    "public_transport": "platform",
    "shelter": "no"
  }
},
{
  "type": "node",
  "id": 3406872449,
  "lat": 47.2105956,
  "lon": 5.9957880,
  "tags": {
    "bench": "no",
    "bus": "yes",
    "covered": "no",
    "departures_board": "timetable",
    "highway": "bus_stop",
    "name": "Pont de Beure",
    "network": "Ginko",
    "network:wikidata": "Q3106780",
    "network:wikipedia": "fr:Transports en commun de Besançon",
    "operator": "Keolis Besançon",
    "public_transport": "platform",
    "shelter": "no"
  }
},
{
  "type": "node",
  "id": 3406872450,
  "lat": 47.2108051,
  "lon": 5.9961351,
  "tags": {
    "bench": "no",
    "bus": "yes",
    "departures_board": "timetable",
    "highway": "bus_stop",
    "name": "Pont de Beure",
    "network": "Ginko",
    "network:wikidata": "Q3106780",
    "network:wikipedia": "fr:Transports en commun de Besançon",
    "operator": "Keolis Besançon",
    "public_transport": "platform",
    "shelter": "no"
  }
},
{
  "type": "node",
  "id": 3406952942,
  "lat": 47.2164646,
  "lon": 6.0027656,
  "tags": {
    "bench": "no",
    "bus": "yes",
    "covered": "no",
    "departures_board": "timetable",
    "highway": "bus_stop",
    "name": "Cras Rougeot",
    "network": "Ginko",
    "network:wikidata": "Q3106780",
    "network:wikipedia": "fr:Transports en commun de Besançon",
    "operator": "Keolis Besançon",
    "public_transport": "platform",
    "shelter": "no"
  }
},
{
  "type": "node",
  "id": 3406952943,
  "lat": 47.2167693,
  "lon": 6.0036026,
  "tags": {
    "bench": "no",
    "bus": "yes",
    "highway": "bus_stop",
    "name": "Cras Rougeot",
    "network": "Ginko",
    "network:wikidata": "Q3106780",
    "network:wikipedia": "fr:Transports en commun de Besançon",
    "operator": "Keolis Besançon",
    "public_transport": "platform",
    "shelter": "no"
  }
},
{
  "type": "node",
  "id": 3406968382,
  "lat": 47.2195150,
  "lon": 6.0115723,
  "tags": {
    "bench": "no",
    "bin": "yes",
    "bus": "yes",
    "covered": "no",
    "departures_board": "timetable",
    "highway": "bus_stop",
    "name": "Velotte",
    "network": "Ginko",
    "network:wikidata": "Q3106780",
    "network:wikipedia": "fr:Transports en commun de Besançon",
    "operator": "Keolis Besançon",
    "public_transport": "platform",
    "shelter": "no"
  }
},
{
  "type": "node",
  "id": 3406968793,
  "lat": 47.2190034,
  "lon": 6.0111609,
  "tags": {
    "bench": "yes",
    "bus": "yes",
    "covered": "yes",
    "departures_board": "timetable",
    "highway": "bus_stop",
    "name": "Velotte",
    "network": "Ginko",
    "network:wikidata": "Q3106780",
    "network:wikipedia": "fr:Transports en commun de Besançon",
    "operator": "Keolis Besançon",
    "public_transport": "platform",
    "shelter": "yes"
  }
},
{
  "type": "node",
  "id": 3406989742,
  "lat": 47.2195699,
  "lon": 6.0136391,
  "tags": {
    "bench": "no",
    "bin": "yes",
    "bus": "yes",
    "covered": "no",
    "departures_board": "timetable",
    "highway": "bus_stop",
    "lit": "no",
    "name": "Journaux",
    "network": "Ginko",
    "network:wikidata": "Q3106780",
    "network:wikipedia": "fr:Transports en commun de Besançon",
    "operator": "Keolis Besançon",
    "public_transport": "platform",
    "shelter": "no",
    "tactile_paving": "yes"
  }
},
{
  "type": "node",
  "id": 3406989743,
  "lat": 47.2193739,
  "lon": 6.0142377,
  "tags": {
    "bench": "yes",
    "bin": "yes",
    "bus": "yes",
    "covered": "yes",
    "departures_board": "timetable",
    "highway": "bus_stop",
    "lit": "no",
    "name": "Journaux",
    "network": "Ginko",
    "network:wikidata": "Q3106780",
    "network:wikipedia": "fr:Transports en commun de Besançon",
    "operator": "Keolis Besançon",
    "public_transport": "platform",
    "shelter": "yes",
    "tactile_paving": "yes"
  }
},
{
  "type": "node",
  "id": 3408404031,
  "lat": 47.2561987,
  "lon": 5.9945412,
  "tags": {
    "bench": "no",
    "bin": "no",
    "bus": "yes",
    "covered": "no",
    "highway": "bus_stop",
    "lit": "no",
    "name": "Montboucons",
    "public_transport": "platform",
    "public_transport:version": "2",
    "shelter": "no",
    "tactile_paving": "no"
  }
},
{
  "type": "node",
  "id": 3408404032,
  "lat": 47.2562565,
  "lon": 5.9947572,
  "tags": {
    "bench": "no",
    "bin": "no",
    "bus": "yes",
    "covered": "no",
    "highway": "bus_stop",
    "lit": "no",
    "name": "Montboucons",
    "public_transport": "platform",
    "public_transport:version": "2",
    "shelter": "no",
    "tactile_paving": "no"
  }
},
{
  "type": "node",
  "id": 3408479990,
  "lat": 47.2213873,
  "lon": 5.9511201,
  "tags": {
    "bench": "yes",
    "bus": "yes",
    "covered": "yes",
    "highway": "bus_stop",
    "name": "Hauts du Chazal",
    "public_transport": "platform",
    "shelter": "yes"
  }
},
{
  "type": "node",
  "id": 3408576045,
  "lat": 47.2280039,
  "lon": 5.9953831,
  "tags": {
    "bench": "yes",
    "bus": "yes",
    "covered": "yes",
    "highway": "bus_stop",
    "name": "Bourgeois",
    "public_transport": "platform",
    "shelter": "yes"
  }
},
{
  "type": "node",
  "id": 3408576046,
  "lat": 47.2280871,
  "lon": 5.9955891,
  "tags": {
    "bench": "no",
    "bus": "yes",
    "covered": "no",
    "highway": "bus_stop",
    "name": "Bourgeois",
    "public_transport": "platform",
    "shelter": "no"
  }
},
{
  "type": "node",
  "id": 3408576047,
  "lat": 47.2275919,
  "lon": 5.9971240,
  "tags": {
    "bench": "yes",
    "bus": "yes",
    "covered": "no",
    "highway": "bus_stop",
    "name": "Duplain",
    "public_transport": "platform",
    "shelter": "no"
  }
},
{
  "type": "node",
  "id": 3408576048,
  "lat": 47.2274878,
  "lon": 5.9981273,
  "tags": {
    "bench": "yes",
    "bus": "yes",
    "covered": "yes",
    "highway": "bus_stop",
    "name": "Duplain",
    "public_transport": "platform",
    "shelter": "yes"
  }
},
{
  "type": "node",
  "id": 3408598578,
  "lat": 47.2177861,
  "lon": 5.9759208,
  "tags": {
    "bus": "yes",
    "highway": "bus_stop",
    "name": "Gauguin",
    "public_transport": "platform"
  }
},
{
  "type": "node",
  "id": 3408598579,
  "lat": 47.2176564,
  "lon": 5.9760719,
  "tags": {
    "bus": "yes",
    "highway": "bus_stop",
    "name": "Gauguin",
    "public_transport": "platform"
  }
},
{
  "type": "node",
  "id": 3408858997,
  "lat": 47.2224383,
  "lon": 6.0137763,
  "tags": {
    "bench": "no",
    "bus": "yes",
    "covered": "no",
    "highway": "bus_stop",
    "name": "Caisse d'Épargne",
    "network": "Ginko",
    "network:wikidata": "Q3106780",
    "network:wikipedia": "fr:Transports en commun de Besançon",
    "operator": "Keolis Besançon",
    "public_transport": "platform",
    "shelter": "no"
  }
},
{
  "type": "node",
  "id": 3408858998,
  "lat": 47.2229055,
  "lon": 6.0136141,
  "tags": {
    "bench": "yes",
    "bus": "yes",
    "covered": "no",
    "highway": "bus_stop",
    "name": "Caisse d'Épargne",
    "network": "Ginko",
    "network:wikidata": "Q3106780",
    "network:wikipedia": "fr:Transports en commun de Besançon",
    "operator": "Keolis Besançon",
    "public_transport": "platform",
    "shelter": "no"
  }
},
{
  "type": "node",
  "id": 3408867525,
  "lat": 47.2242462,
  "lon": 6.0119446,
  "tags": {
    "bench": "no",
    "bus": "yes",
    "covered": "no",
    "highway": "bus_stop",
    "name": "Résidence Moingeon",
    "network": "Ginko",
    "network:wikidata": "Q3106780",
    "network:wikipedia": "fr:Transports en commun de Besançon",
    "operator": "Keolis Besançon",
    "public_transport": "platform",
    "shelter": "no"
  }
},
{
  "type": "node",
  "id": 3408867526,
  "lat": 47.2245389,
  "lon": 6.0116880,
  "tags": {
    "bench": "yes",
    "bus": "yes",
    "covered": "no",
    "highway": "bus_stop",
    "name": "Résidence Moingeon",
    "network": "Ginko",
    "network:wikidata": "Q3106780",
    "network:wikipedia": "fr:Transports en commun de Besançon",
    "operator": "Keolis Besançon",
    "public_transport": "platform",
    "shelter": "no"
  }
},
{
  "type": "node",
  "id": 3409315394,
  "lat": 47.2354679,
  "lon": 5.9644196,
  "tags": {
    "bench": "no",
    "bus": "yes",
    "covered": "yes",
    "highway": "bus_stop",
    "name": "Prolabor",
    "public_transport": "platform",
    "shelter": "yes"
  }
},
{
  "type": "node",
  "id": 3409315395,
  "lat": 47.2354670,
  "lon": 5.9645149,
  "tags": {
    "bench": "no",
    "bus": "yes",
    "covered": "no",
    "highway": "bus_stop",
    "name": "Prolabor",
    "public_transport": "platform",
    "shelter": "no"
  }
},
{
  "type": "node",
  "id": 3409340236,
  "lat": 47.2355735,
  "lon": 5.9617568,
  "tags": {
    "bench": "yes",
    "bus": "yes",
    "highway": "bus_stop",
    "name": "Tilleroyes",
    "public_transport": "platform",
    "shelter": "yes"
  }
},
{
  "type": "node",
  "id": 3409354202,
  "lat": 47.2362845,
  "lon": 5.9663236,
  "tags": {
    "bench": "no",
    "bus": "yes",
    "covered": "no",
    "highway": "bus_stop",
    "name": "Kosma",
    "public_transport": "platform",
    "shelter": "no"
  }
},
{
  "type": "node",
  "id": 3409354203,
  "lat": 47.2364507,
  "lon": 5.9656733,
  "tags": {
    "bench": "no",
    "bus": "yes",
    "covered": "no",
    "highway": "bus_stop",
    "name": "Kosma",
    "public_transport": "platform",
    "shelter": "no"
  }
},
{
  "type": "node",
  "id": 3444522748,
  "lat": 47.2313901,
  "lon": 6.0389551,
  "tags": {
    "bench": "yes",
    "bus": "yes",
    "covered": "yes",
    "highway": "bus_stop",
    "name": "Parking Rodia",
    "public_transport": "platform",
    "shelter": "yes"
  }
},
{
  "type": "node",
  "id": 3444524603,
  "lat": 47.2283144,
  "lon": 6.0500565,
  "tags": {
    "bench": "no",
    "bus": "yes",
    "covered": "no",
    "highway": "bus_stop",
    "name": "Charmarin",
    "public_transport": "platform",
    "shelter": "no"
  }
},
{
  "type": "node",
  "id": 3444524604,
  "lat": 47.2282099,
  "lon": 6.0500193,
  "tags": {
    "bench": "no",
    "bus": "yes",
    "covered": "no",
    "highway": "bus_stop",
    "name": "Charmarin",
    "public_transport": "platform",
    "shelter": "no"
  }
},
{
  "type": "node",
  "id": 3444527761,
  "lat": 47.2305895,
  "lon": 6.0401188,
  "tags": {
    "bench": "no",
    "bus": "yes",
    "covered": "no",
    "highway": "bus_stop",
    "name": "Chardonnet",
    "public_transport": "platform",
    "shelter": "no"
  }
},
{
  "type": "node",
  "id": 3444527763,
  "lat": 47.2310645,
  "lon": 6.0398241,
  "tags": {
    "bench": "no",
    "bus": "yes",
    "covered": "no",
    "highway": "bus_stop",
    "name": "Chardonnet",
    "public_transport": "platform",
    "shelter": "no"
  }
},
{
  "type": "node",
  "id": 3444531256,
  "lat": 47.2282714,
  "lon": 6.0440230,
  "tags": {
    "bench": "yes",
    "bus": "yes",
    "covered": "yes",
    "highway": "bus_stop",
    "name": "Cité des Gacognes",
    "public_transport": "platform",
    "shelter": "yes"
  }
},
{
  "type": "node",
  "id": 3444531257,
  "lat": 47.2282973,
  "lon": 6.0437823,
  "tags": {
    "bench": "no",
    "bus": "yes",
    "covered": "no",
    "highway": "bus_stop",
    "name": "Cité des Gacognes",
    "public_transport": "platform",
    "shelter": "no"
  }
},
{
  "type": "node",
  "id": 3444531258,
  "lat": 47.2290225,
  "lon": 6.0423774,
  "tags": {
    "bench": "yes",
    "bin": "yes",
    "bus": "yes",
    "covered": "yes",
    "highway": "bus_stop",
    "name": "Place Guyon",
    "public_transport": "platform",
    "shelter": "yes",
    "tactile_paving": "no"
  }
},
{
  "type": "node",
  "id": 3444531259,
  "lat": 47.2289002,
  "lon": 6.0424122,
  "tags": {
    "bench": "no",
    "bin": "no",
    "bus": "yes",
    "covered": "no",
    "highway": "bus_stop",
    "name": "Place Guyon",
    "public_transport": "platform",
    "shelter": "no",
    "tactile_paving": "no"
  }
},
{
  "type": "node",
  "id": 3461130484,
  "lat": 47.2402661,
  "lon": 6.0200168,
  "tags": {
    "bench": "yes",
    "bus": "yes",
    "covered": "no",
    "highway": "bus_stop",
    "name": "Centre-Ville Battant",
    "public_transport": "platform",
    "public_transport:version": "2",
    "shelter": "no"
  }
},
{
  "type": "node",
  "id": 3461155268,
  "lat": 47.2440836,
  "lon": 6.0217015,
  "tags": {
    "bench": "yes",
    "bus": "yes",
    "covered": "yes",
    "highway": "bus_stop",
    "name": "Remparts",
    "public_transport": "platform",
    "public_transport:version": "2",
    "shelter": "yes"
  }
},
{
  "type": "node",
  "id": 3467826925,
  "lat": 47.2376364,
  "lon": 5.9762561,
  "tags": {
    "bench": "no",
    "bus": "yes",
    "highway": "bus_stop",
    "name": "Chaille",
    "public_transport": "platform"
  }
},
{
  "type": "node",
  "id": 3467831446,
  "lat": 47.2406988,
  "lon": 5.9779326,
  "tags": {
    "bench": "no",
    "bus": "yes",
    "covered": "no",
    "highway": "bus_stop",
    "name": "Thouret",
    "public_transport": "platform",
    "shelter": "no"
  }
},
{
  "type": "node",
  "id": 3467840443,
  "lat": 47.2419907,
  "lon": 5.9788063,
  "tags": {
    "bench": "no",
    "bus": "yes",
    "covered": "no",
    "highway": "bus_stop",
    "name": "Baverez",
    "public_transport": "platform",
    "shelter": "no"
  }
},
{
  "type": "node",
  "id": 3467840444,
  "lat": 47.2444957,
  "lon": 5.9802054,
  "tags": {
    "bench": "yes",
    "bus": "yes",
    "covered": "yes",
    "highway": "bus_stop",
    "name": "Clinique Saint-Vincent",
    "public_transport": "platform",
    "shelter": "yes"
  }
},
{
  "type": "node",
  "id": 3467840445,
  "lat": 47.2445492,
  "lon": 5.9799259,
  "tags": {
    "bench": "no",
    "bus": "yes",
    "covered": "no",
    "highway": "bus_stop",
    "name": "Clinique Saint-Vincent",
    "public_transport": "platform",
    "shelter": "no"
  }
},
{
  "type": "node",
  "id": 3483099478,
  "lat": 47.2362681,
  "lon": 5.9983528,
  "tags": {
    "bench": "no",
    "bin": "yes",
    "bus": "yes",
    "highway": "bus_stop",
    "name": "Centre de Tri",
    "public_transport": "platform",
    "shelter": "no",
    "tactile_paving": "no"
  }
},