{
  "version": 0.6,
  "generator": "Overpass API 0.7.57.1 74a55df1",
  "osm3s": {
    "timestamp_osm_base": "2022-02-13T13:28:39Z",
    "timestamp_areas_base": "2022-02-13T06:29:09Z",
    "copyright": "The data included in this document is from www.openstreetmap.org. The data is made available under ODbL."
  },
  "elements": [

{
  "type": "node",
  "id": 152557,
  "lat": 43.9494689,
  "lon": 4.8193184,
  "tags": {
    "bus": "yes",
    "highway": "bus_stop",
    "name": "Université",
    "public_transport": "stop_position"
  }
},
{
  "type": "node",
  "id": 152586,
  "lat": 43.9536046,
  "lon": 4.8110424,
  "tags": {
    "bus": "yes",
    "highway": "bus_stop",
    "name": "Aubanel",
    "public_transport": "stop_position"
  }
},
{
  "type": "node",
  "id": 152619,
  "lat": 43.9504436,
  "lon": 4.8243480,
  "tags": {
    "bus": "yes",
    "highway": "bus_stop",
    "name": "Clos des Trams",
    "public_transport": "stop_position"
  }
},
{
  "type": "node",
  "id": 152628,
  "lat": 43.9546580,
  "lon": 4.8368942,
  "tags": {
    "bus": "yes",
    "highway": "bus_stop",
    "name": "Croix Verte",
    "public_transport": "stop_position"
  }
},
{
  "type": "node",
  "id": 25288738,
  "lat": 43.9262728,
  "lon": 4.8006125,
  "tags": {
    "bus": "yes",
    "highway": "bus_stop",
    "name": "Baigne Pieds",
    "public_transport": "stop_position"
  }
},
{
  "type": "node",
  "id": 92960374,
  "lat": 43.9419101,
  "lon": 4.8231686,
  "tags": {
    "bus": "yes",
    "highway": "bus_stop",
    "name": "Galaxie",
    "public_transport": "stop_position"
  }
},
{
  "type": "node",
  "id": 264900821,
  "lat": 43.9461392,
  "lon": 4.8352471,
  "tags": {
    "bus": "yes",
    "highway": "bus_stop",
    "name": "Stade Gorlier",
    "public_transport": "stop_position"
  }
},
{
  "type": "node",
  "id": 264900823,
  "lat": 43.9462302,
  "lon": 4.8336542,
  "tags": {
    "bus": "yes",
    "highway": "bus_stop",
    "name": "Reine Jeanne",
    "public_transport": "stop_position"
  }
},
{
  "type": "node",
  "id": 313092033,
  "lat": 43.9173120,
  "lon": 4.8823058,
  "tags": {
    "bus": "yes",
    "highway": "bus_stop",
    "name": "Durançole",
    "public_transport": "stop_position"
  }
},
{
  "type": "node",
  "id": 313092042,
  "lat": 43.9186406,
  "lon": 4.8786701,
  "tags": {
    "bus": "yes",
    "highway": "bus_stop",
    "name": "Magnanarelles",
    "public_transport": "stop_position"
  }
},
{
  "type": "node",
  "id": 313092089,
  "lat": 43.9331615,
  "lon": 4.8577013,
  "tags": {
    "bus": "yes",
    "highway": "bus_stop",
    "name": "Sainte-Claire",
    "public_transport": "stop_position"
  }
},
{
  "type": "node",
  "id": 315134190,
  "lat": 43.9742900,
  "lon": 4.8272573,
  "tags": {
    "bus": "yes",
    "highway": "bus_stop",
    "name": "Rhodes",
    "public_transport": "stop_position"
  }
},
{
  "type": "node",
  "id": 324457919,
  "lat": 43.9274807,
  "lon": 4.8430454,
  "tags": {
    "bus": "yes",
    "highway": "bus_stop",
    "name": "Parc des Sports",
    "public_transport": "stop_position"
  }
},
{
  "type": "node",
  "id": 364482454,
  "lat": 43.9340724,
  "lon": 4.8235704,
  "tags": {
    "bus": "yes",
    "highway": "bus_stop",
    "name": "Croix des Oiseaux",
    "public_transport": "stop_position"
  }
},
{
  "type": "node",
  "id": 431132384,
  "lat": 43.9207203,
  "lon": 4.8085329,
  "tags": {
    "bus": "yes",
    "highway": "bus_stop",
    "name": "Follereau",
    "public_transport": "stop_position"
  }
},
{
  "type": "node",
  "id": 440115060,
  "lat": 43.9286156,
  "lon": 4.8762410,
  "tags": {
    "bus": "yes",
    "highway": "bus_stop",
    "name": "Croix de Joannis",
    "public_transport": "stop_position"
  }
},
{
  "type": "node",
  "id": 506015611,
  "lat": 43.9566636,
  "lon": 4.8345491,
  "tags": {
    "bus": "yes",
    "highway": "bus_stop",
    "name": "Vercors",
    "public_transport": "stop_position"
  }
},
{
  "type": "node",
  "id": 635101884,
  "lat": 43.9190323,
  "lon": 4.8720731,
  "tags": {
    "bus": "yes",
    "highway": "bus_stop",
    "name": "Valente",
    "public_transport": "stop_position"
  }
},
{
  "type": "node",
  "id": 635115779,
  "lat": 43.9213275,
  "lon": 4.8682871,
  "tags": {
    "bus": "yes",
    "highway": "bus_stop",
    "name": "Castelette",
    "public_transport": "stop_position"
  }
},
{
  "type": "node",
  "id": 638356915,
  "lat": 43.9564250,
  "lon": 4.8387243,
  "tags": {
    "bus": "yes",
    "highway": "bus_stop",
    "name": "Bonaventure",
    "public_transport": "stop_position"
  }
},
{
  "type": "node",
  "id": 638358084,
  "lat": 43.9505965,
  "lon": 4.8250353,
  "tags": {
    "bus": "yes",
    "highway": "bus_stop",
    "name": "Clos des Trams",
    "public_transport": "stop_position"
  }
},
{
  "type": "node",
  "id": 659296561,
  "lat": 43.9502801,
  "lon": 4.8519009,
  "tags": {
    "bus": "yes",
    "highway": "bus_stop",
    "name": "Renoir",
    "public_transport": "stop_position"
  }
},
{
  "type": "node",
  "id": 659297674,
  "lat": 43.9490134,
  "lon": 4.8517902,
  "tags": {
    "bus": "yes",
    "highway": "bus_stop",
    "name": "Carpeaux",
    "public_transport": "stop_position"
  }
},
{
  "type": "node",
  "id": 717458166,
  "lat": 43.9712993,
  "lon": 4.8260647,
  "tags": {
    "bus": "yes",
    "highway": "bus_stop",
    "name": "Cave",
    "public_transport": "stop_position"
  }
},
{
  "type": "node",
  "id": 752882815,
  "lat": 43.9351208,
  "lon": 4.7819609,
  "tags": {
    "bus": "yes",
    "highway": "bus_stop",
    "name": "Petit Mas",
    "public_transport": "stop_position"
  }
},
{
  "type": "node",
  "id": 924063739,
  "lat": 43.9430922,
  "lon": 4.8043723,
  "tags": {
    "bus": "yes",
    "highway": "bus_stop",
    "local_ref": "2",
    "name": "Avignon Poste",
    "public_transport": "stop_position"
  }
},
{
  "type": "node",
  "id": 925386837,
  "lat": 43.9409899,
  "lon": 4.8032188,
  "tags": {
    "bus": "yes",
    "highway": "bus_stop",
    "name": "Champfleury",
    "public_transport": "stop_position"
  }
},
{
  "type": "node",
  "id": 926089549,
  "lat": 43.9380634,
  "lon": 4.7995676,
  "tags": {
    "bus": "yes",
    "highway": "bus_stop",
    "name": "Ferry",
    "public_transport": "stop_position"
  }
},
{
  "type": "node",
  "id": 935020938,
  "lat": 43.9504078,
  "lon": 4.8297639,
  "tags": {
    "bus": "yes",
    "highway": "bus_stop",
    "name": "St Véran",
    "note": "Sur le panneau en 2019 est bien marqué St Véran et pas Saint-Véran !",
    "public_transport": "stop_position"
  }
},
{
  "type": "node",
  "id": 935202429,
  "lat": 43.9470759,
  "lon": 4.8350601,
  "tags": {
    "bus": "yes",
    "highway": "bus_stop",
    "name": "Droits de l'Homme",
    "public_transport": "stop_position"
  }
},
{
  "type": "node",
  "id": 937057634,
  "lat": 43.9318549,
  "lon": 4.8286497,
  "tags": {
    "bus": "yes",
    "highway": "bus_stop",
    "name": "Parrocel",
    "public_transport": "stop_position"
  }
},
{
  "type": "node",
  "id": 963108221,
  "lat": 43.9284466,
  "lon": 4.7993938,
  "tags": {
    "bus": "yes",
    "highway": "bus_stop",
    "name": "Monteverdi",
    "public_transport": "stop_position"
  }
},
{
  "type": "node",
  "id": 963507027,
  "lat": 43.9334084,
  "lon": 4.7986097,
  "tags": {
    "bus": "yes",
    "highway": "bus_stop",
    "name": "Quiot",
    "public_transport": "stop_position"
  }
},
{
  "type": "node",
  "id": 964924884,
  "lat": 43.9513711,
  "lon": 4.8193279,
  "tags": {
    "bench": "yes",
    "highway": "bus_stop",
    "name": "Saint-Lazare",
    "note": "allobus ligne 2,3,5",
    "public_transport": "platform",
    "shelter": "yes",
    "shelter:colour": "brown",
    "shelter:operator": "JCDecaux",
    "shelter:ref": "96",
    "source": "survey 2014",
    "survey:date": "2017-08-07",
    "tactile_paving": "no",
    "waste_basket": "yes",
    "wheelchair": "no"
  }
},
{
  "type": "node",
  "id": 968868003,
  "lat": 43.9489728,
  "lon": 4.8072737,
  "tags": {
    "bench": "no",
    "bus": "yes",
    "highway": "bus_stop",
    "name": "Favart",
    "public_transport": "platform",
    "shelter": "no",
    "survey:date": "2018-04-13"
  }
},
{
  "type": "node",
  "id": 968868200,
  "lat": 43.9500851,
  "lon": 4.8130894,
  "tags": {
    "bench": "yes",
    "highway": "bus_stop",
    "name": "Carmes",
    "name:oc": "Carmes",
    "network": "TCRA",
    "note": "ligne La Baladine passe aussi à cet arret",
    "shelter": "yes",
    "source": "cadastre-dgi-fr source : Direction Générale des Impôts - Cadastre. Mise à jour : 2010",
    "source:name:oc": "ieo-bdtopoc",
    "survey:date": "2017-08-07",
    "tactile_paving": "no"
  }
},
{
  "type": "node",
  "id": 976835423,
  "lat": 43.9421667,
  "lon": 4.8046096,
  "tags": {
    "alt_name": "Cour de la gare",
    "bench": "yes",
    "highway": "bus_stop",
    "name": "Gare d'Avignon-Centre",
    "name:oc": "Gara d'Avinhon Centre",
    "public_transport": "platform",
    "shelter": "yes",
    "source:name:oc": "ieo-bdtopoc",
    "wheelchair": "no"
  }
},
{
  "type": "node",
  "id": 976835867,
  "lat": 43.9429774,
  "lon": 4.8044003,
  "tags": {
    "bus": "yes",
    "highway": "bus_stop",
    "local_ref": "12",
    "name": "Avignon Poste",
    "public_transport": "stop_position"
  }
},
{
  "type": "node",
  "id": 1052049711,
  "lat": 43.9358100,
  "lon": 4.7955735,
  "tags": {
    "bus": "yes",
    "highway": "bus_stop",
    "name": "Gymnase Giéra",
    "public_transport": "platform"
  }
},
{
  "type": "node",
  "id": 1052049754,
  "lat": 43.9331017,
  "lon": 4.7956758,
  "tags": {
    "bus": "yes",
    "highway": "bus_stop",
    "name": "La Fabrica",
    "public_transport": "platform"
  }
},
{
  "type": "node",
  "id": 1052049804,
  "lat": 43.9309541,
  "lon": 4.7970033,
  "tags": {
    "bench": "no",
    "bin": "no",
    "bus": "yes",
    "highway": "bus_stop",
    "name": "Levant",
    "public_transport": "platform",
    "shelter": "no",
    "tactile_paving": "no"
  }
},
{
  "type": "node",
  "id": 1052049839,
  "lat": 43.9294495,
  "lon": 4.7990997,
  "tags": {
    "bench": "no",
    "bus": "yes",
    "highway": "bus_stop",
    "name": "Églantines",
    "public_transport": "platform",
    "shelter": "no"
  }
},
{
  "type": "node",
  "id": 1052049879,
  "lat": 43.9357891,
  "lon": 4.7956240,
  "tags": {
    "bus": "yes",
    "highway": "bus_stop",
    "name": "Gymnase Giéra",
    "public_transport": "platform"
  }
},
{
  "type": "node",
  "id": 1052049894,
  "lat": 43.9309518,
  "lon": 4.7971542,
  "tags": {
    "bus": "yes",
    "highway": "bus_stop",
    "name": "Levant",
    "public_transport": "platform"
  }
},
{
  "type": "node",
  "id": 1052049919,
  "lat": 43.9331141,
  "lon": 4.7957612,
  "tags": {
    "bus": "yes",
    "highway": "bus_stop",
    "name": "La Fabrica",
    "public_transport": "platform"
  }
},
{
  "type": "node",
  "id": 1052049925,
  "lat": 43.9295205,
  "lon": 4.7991329,
  "tags": {
    "bus": "yes",
    "highway": "bus_stop",
    "name": "Églantines",
    "public_transport": "platform"
  }
},
{
  "type": "node",
  "id": 1054962021,
  "lat": 43.9239731,
  "lon": 4.8090786,
  "tags": {
    "bus": "yes",
    "highway": "bus_stop",
    "name": "Stade Gillardeaux",
    "public_transport": "stop_position"
  }
},
{
  "type": "node",
  "id": 1060054925,
  "lat": 43.9293929,
  "lon": 4.8659653,
  "tags": {
    "highway": "bus_stop",
    "source": "cadastre-dgi-fr source : Direction Générale des Impôts - Cadastre. Mise à jour : 2010"
  }
},
{
  "type": "node",
  "id": 1066131255,
  "lat": 43.9257463,
  "lon": 4.8825198,
  "tags": {
    "bus": "yes",
    "highway": "bus_stop",
    "name": "Les Granges",
    "public_transport": "stop_position"
  }
},
{
  "type": "node",
  "id": 1073153537,
  "lat": 43.9445053,
  "lon": 4.8813026,
  "tags": {
    "bus": "yes",
    "highway": "bus_stop",
    "name": "Lou Castelet",
    "public_transport": "stop_position"
  }
},
{
  "type": "node",
  "id": 1073158264,
  "lat": 43.9395269,
  "lon": 4.7975472,
  "tags": {
    "bus": "yes",
    "highway": "bus_stop",
    "name": "Eisenhower",
    "public_transport": "stop_position"
  }
},
{
  "type": "node",
  "id": 1391276703,
  "lat": 43.9225551,
  "lon": 4.7856158,
  "tags": {
    "bus": "yes",
    "highway": "bus_stop",
    "name": "Avignon Gare TGV",
    "public_transport": "stop_position"
  }
},
{
  "type": "node",
  "id": 1416955207,
  "lat": 43.9228900,
  "lon": 4.7845712,
  "tags": {
    "bus": "yes",
    "highway": "bus_stop",
    "name": "Avignon Gare TGV",
    "public_transport": "stop_position"
  }
},
{
  "type": "node",
  "id": 1416955208,
  "lat": 43.9226250,
  "lon": 4.7853979,
  "tags": {
    "bus": "yes",
    "highway": "bus_stop",
    "name": "Avignon Gare TGV",
    "public_transport": "stop_position"
  }
},
{
  "type": "node",
  "id": 1439680403,
  "lat": 43.9723074,
  "lon": 4.8198530,
  "tags": {
    "bus": "yes",
    "highway": "bus_stop",
    "name": "EDF",
    "public_transport": "stop_position"
  }
},
{
  "type": "node",
  "id": 1494246524,
  "lat": 43.9227560,
  "lon": 4.7849894,
  "tags": {
    "bus": "yes",
    "highway": "bus_stop",
    "name": "Avignon Gare TGV",
    "public_transport": "stop_position"
  }
},
{
  "type": "node",
  "id": 1549410839,
  "lat": 43.9276885,
  "lon": 4.7908991,
  "tags": {
    "bus": "yes",
    "highway": "bus_stop",
    "name": "P+R Courtine",
    "public_transport": "stop_position"
  }
},
{
  "type": "node",
  "id": 1672854221,
  "lat": 43.9387477,
  "lon": 4.8402396,
  "tags": {
    "bus": "yes",
    "highway": "bus_stop",
    "name": "Fontcouverte",
    "public_transport": "stop_position"
  }
},
{
  "type": "node",
  "id": 1672854241,
  "lat": 43.9395761,
  "lon": 4.8381399,
  "tags": {
    "bus": "yes",
    "highway": "bus_stop",
    "name": "Pompiers",
    "public_transport": "stop_position"
  }
},
{
  "type": "node",
  "id": 1672854425,
  "lat": 43.9424588,
  "lon": 4.8063756,
  "tags": {
    "alt_name": "Gare Centre - République",
    "bus": "yes",
    "highway": "bus_stop",
    "name": "Gare Centre",
    "public_transport": "stop_position"
  }
},
{
  "type": "node",
  "id": 1674101718,
  "lat": 43.9272527,
  "lon": 4.8440905,
  "tags": {
    "bus": "yes",
    "highway": "bus_stop",
    "name": "Parc des Sports",
    "public_transport": "stop_position"
  }
},
{
  "type": "node",
  "id": 1674102052,
  "lat": 43.9425546,
  "lon": 4.8210840,
  "tags": {
    "bus": "yes",
    "highway": "bus_stop",
    "name": "L'Épi",
    "public_transport": "stop_position"
  }
},
{
  "type": "node",
  "id": 1674102056,
  "lat": 43.9427829,
  "lon": 4.8208887,
  "tags": {
    "bus": "yes",
    "highway": "bus_stop",
    "name": "L'Épi",
    "public_transport": "stop_position"
  }
},
{
  "type": "node",
  "id": 1674102113,
  "lat": 43.9440533,
  "lon": 4.8187687,
  "tags": {
    "bus": "yes",
    "highway": "bus_stop",
    "name": "Maison de Retraite",
    "public_transport": "stop_position"
  }
},
{
  "type": "node",
  "id": 1674102121,
  "lat": 43.9445247,
  "lon": 4.8168673,
  "tags": {
    "bus": "yes",
    "highway": "bus_stop",
    "name": "Palais de Justice",
    "name:oc": "Palais de Justícia",
    "public_transport": "stop_position"
  }
},
{
  "type": "node",
  "id": 1674102214,
  "lat": 43.9472205,
  "lon": 4.8178806,
  "tags": {
    "bus": "yes",
    "highway": "bus_stop",
    "name": "Thiers",
    "public_transport": "stop_position",
    "survey:date": "2018-04-18"
  }
},
{
  "type": "node",
  "id": 1674102220,
  "lat": 43.9493338,
  "lon": 4.8193447,
  "tags": {
    "bus": "yes",
    "highway": "bus_stop",
    "name": "Université",
    "public_transport": "stop_position"
  }
},
{
  "type": "node",
  "id": 1675484885,
  "lat": 43.9437154,
  "lon": 4.8144996,
  "tags": {
    "bus": "yes",
    "highway": "bus_stop",
    "name": "Limbert",
    "public_transport": "stop_position"
  }
},
{
  "type": "node",
  "id": 1713492162,
  "lat": 43.9162588,
  "lon": 4.8874277,
  "tags": {
    "bus": "yes",
    "highway": "bus_stop",
    "name": "Agroparc Centre",
    "public_transport": "stop_position"
  }
},
{
  "type": "node",
  "id": 1721632278,
  "lat": 43.9427912,
  "lon": 4.8022548,
  "tags": {
    "bus": "yes",
    "fixme": "2012-04 arrêt encore actif ?",
    "highway": "bus_stop",
    "name": "Blanchissage",
    "public_transport": "platform"
  }
},
{
  "type": "node",
  "id": 1721632325,
  "lat": 43.9431775,
  "lon": 4.8034665,
  "tags": {
    "bus": "yes",
    "highway": "bus_stop",
    "local_ref": "6",
    "name": "Avignon Poste",
    "public_transport": "stop_position"
  }
},
{
  "type": "node",
  "id": 1721632396,
  "lat": 43.9429813,
  "lon": 4.8002970,
  "tags": {
    "bench": "no",
    "fixme": "arret de bus absent sur les photos en 2018-11 2019-02 2019-04. vérifier s'il a été supprimé ou fusionné avec le nouvel arrêt de tram",
    "highway": "bus_stop",
    "mapillary": "PITaQXaH1LRmInG3SdzWZQ",
    "name": "Saint-Roch",
    "name:oc": "Sant Ròc",
    "public_transport": "platform",
    "shelter": "no",
    "source:name:oc": "ieo-bdtopoc",
    "tactile_paving": "no"
  }
},
{
  "type": "node",
  "id": 1721894477,
  "lat": 43.9228185,
  "lon": 4.7847943,
  "tags": {
    "bus": "yes",
    "highway": "bus_stop",
    "name": "Avignon Gare TGV",
    "public_transport": "stop_position"
  }
},
{
  "type": "node",
  "id": 1721900811,
  "lat": 43.9464108,
  "lon": 4.8522656,
  "tags": {
    "bus": "yes",
    "highway": "bus_stop",
    "name": "Lycée René Char",
    "public_transport": "stop_position"
  }
},
{
  "type": "node",
  "id": 1731739001,
  "lat": 43.9549225,
  "lon": 4.8253457,
  "tags": {
    "bus": "yes",
    "highway": "bus_stop",
    "name": "Synagogue",
    "public_transport": "stop_position"
  }
},
{
  "type": "node",
  "id": 1770453042,
  "lat": 43.9499939,
  "lon": 4.8022401,
  "tags": {
    "bus": "yes",
    "highway": "bus_stop",
    "name": "Porte de l'Oulle",
    "public_transport": "stop_position"
  }
},
{
  "type": "node",
  "id": 1771474709,
  "lat": 43.9501334,
  "lon": 4.8022515,
  "tags": {
    "bus": "yes",
    "highway": "bus_stop",
    "name": "Porte de l'Oulle",
    "public_transport": "stop_position"
  }
},
{
  "type": "node",
  "id": 1771494693,
  "lat": 43.9501482,
  "lon": 4.8021431,
  "tags": {
    "bus": "yes",
    "highway": "bus_stop",
    "name": "Porte de l'Oulle",
    "public_transport": "stop_position"
  }
},
{
  "type": "node",
  "id": 1832946338,
  "lat": 43.9442818,
  "lon": 4.8276361,
  "tags": {
    "bus": "yes",
    "highway": "bus_stop",
    "name": "Wetzlar",
    "public_transport": "stop_position"
  }
},
{
  "type": "node",
  "id": 2009703195,
  "lat": 43.9612177,
  "lon": 4.8151294,
  "tags": {
    "bus": "yes",
    "highway": "bus_stop",
    "name": "Moutons",
    "public_transport": "stop_position"
  }
},
{
  "type": "node",
  "id": 2009719996,
  "lat": 43.9554750,
  "lon": 4.8089487,
  "tags": {
    "bus": "yes",
    "highway": "bus_stop",
    "name": "Traille",
    "public_transport": "stop_position"
  }
},
{
  "type": "node",
  "id": 2009720005,
  "lat": 43.9555350,
  "lon": 4.8095482,
  "tags": {
    "bus": "yes",
    "highway": "bus_stop",
    "name": "Traille",
    "public_transport": "stop_position"
  }
},
{
  "type": "node",
  "id": 2136273610,
  "lat": 43.9430708,
  "lon": 4.8045987,
  "tags": {
    "bus": "yes",
    "highway": "bus_stop",
    "local_ref": "1",
    "name": "Avignon Poste",
    "public_transport": "stop_position"
  }
},
{
  "type": "node",
  "id": 2136273902,
  "lat": 43.9429593,
  "lon": 4.8045832,
  "tags": {
    "bus": "yes",
    "highway": "bus_stop",
    "local_ref": "13",
    "name": "Avignon Poste",
    "public_transport": "stop_position"
  }
},
{
  "type": "node",
  "id": 2136274342,
  "lat": 43.9430702,
  "lon": 4.8034651,
  "tags": {
    "bus": "yes",
    "highway": "bus_stop",
    "local_ref": "8",
    "name": "Avignon Poste",
    "public_transport": "stop_position"
  }
},
{
  "type": "node",
  "id": 2136274451,
  "lat": 43.9431135,
  "lon": 4.8041458,
  "tags": {
    "bus": "yes",
    "highway": "bus_stop",
    "local_ref": "3",
    "name": "Avignon Poste",
    "public_transport": "stop_position"
  }
},
{
  "type": "node",
  "id": 2136274585,
  "lat": 43.9430029,
  "lon": 4.8041435,
  "tags": {
    "bus": "yes",
    "highway": "bus_stop",
    "local_ref": "11",
    "name": "Avignon Poste",
    "public_transport": "stop_position"
  }
},
{
  "type": "node",
  "id": 2136276228,
  "lat": 43.9431348,
  "lon": 4.8039194,
  "tags": {
    "bus": "yes",
    "highway": "bus_stop",
    "local_ref": "4",
    "name": "Avignon Poste",
    "public_transport": "stop_position"
  }
},
{
  "type": "node",
  "id": 2136276426,
  "lat": 43.9430237,
  "lon": 4.8039340,
  "tags": {
    "bus": "yes",
    "highway": "bus_stop",
    "local_ref": "10",
    "name": "Avignon Poste",
    "public_transport": "stop_position"
  }
},
{
  "type": "node",
  "id": 2136276867,
  "lat": 43.9431561,
  "lon": 4.8036930,
  "tags": {
    "bus": "yes",
    "highway": "bus_stop",
    "local_ref": "5",
    "name": "Avignon Poste",
    "public_transport": "stop_position"
  }
},
{
  "type": "node",
  "id": 2136277092,
  "lat": 43.9430472,
  "lon": 4.8036969,
  "tags": {
    "bus": "yes",
    "highway": "bus_stop",
    "local_ref": "9",
    "name": "Avignon Poste",
    "public_transport": "stop_position"
  }
},
{
  "type": "node",
  "id": 2211188322,
  "lat": 43.9520894,
  "lon": 4.7988300,
  "tags": {
    "highway": "bus_stop",
    "name": "Bagatelle",
    "source": "survey"
  }
},
{
  "type": "node",
  "id": 2446784193,
  "lat": 43.9273063,
  "lon": 4.8096221,
  "tags": {
    "bench": "yes",
    "bus": "yes",
    "highway": "bus_stop",
    "name": "Stade P. Baizet",
    "public_transport": "platform",
    "shelter": "yes"
  }
},
{
  "type": "node",
  "id": 2446784194,
  "lat": 43.9274073,
  "lon": 4.8093958,
  "tags": {
    "bench": "yes",
    "bus": "yes",
    "highway": "bus_stop",
    "name": "Stade P. Baizet",
    "public_transport": "platform",
    "shelter": "yes"
  }
},
{
  "type": "node",
  "id": 2447229174,
  "lat": 43.9468934,
  "lon": 4.8349233,
  "tags": {
    "bus": "yes",
    "highway": "bus_stop",
    "name": "Droits de l'Homme",
    "public_transport": "stop_position"
  }
},
{
  "type": "node",
  "id": 2447851032,
  "lat": 43.9504551,
  "lon": 4.8390959,
  "tags": {
    "bus": "yes",
    "highway": "bus_stop",
    "name": "Auriol",
    "public_transport": "stop_position"
  }
},
{
  "type": "node",
  "id": 2451450305,
  "lat": 43.9371748,
  "lon": 4.7993488,
  "tags": {
    "bus": "yes",
    "highway": "bus_stop",
    "name": "Champfleury",
    "pole": "public_transport",
    "public_transport": "platform",
    "shelter": "no"
  }
},
{
  "type": "node",
  "id": 2451450307,
  "lat": 43.9373466,
  "lon": 4.7993590,
  "tags": {
    "bus": "yes",
    "highway": "bus_stop",
    "name": "Champfleury",
    "public_transport": "platform",
    "shelter": "yes"
  }
},
{
  "type": "node",
  "id": 2486218203,
  "lat": 43.9434828,
  "lon": 4.8054139,
  "tags": {
    "bus": "yes",
    "highway": "bus_stop",
    "name": "Cité Administrative",
    "public_transport": "stop_position"
  }
},
{
  "type": "node",
  "id": 2626814153,
  "lat": 43.9349874,
  "lon": 4.8529329,
  "tags": {
    "bus": "yes",
    "highway": "bus_stop",
    "name": "Lac St Chamand",
    "public_transport": "stop_position"
  }
},
{
  "type": "node",
  "id": 2657327232,
  "lat": 43.9486171,
  "lon": 4.8196529,
  "tags": {
    "bus": "yes",
    "highway": "bus_stop",
    "name": "Préfecture Chabran",
    "public_transport": "stop_position"
  }
},
{
  "type": "node",
  "id": 2689754194,
  "lat": 43.9524855,
  "lon": 4.8040549,
  "tags": {
    "highway": "bus_stop",
    "name": "Saint-Bénézet",
    "source": "survey 2014"
  }
},
{
  "type": "node",
  "id": 2797911981,
  "lat": 43.9429182,
  "lon": 4.8425459,
  "tags": {
    "bus": "yes",
    "highway": "bus_stop",
    "name": "Van Gogh",
    "public_transport": "stop_position"
  }
},
{
  "type": "node",
  "id": 2797911992,
  "lat": 43.9431519,
  "lon": 4.8428092,
  "tags": {
    "bus": "yes",
    "highway": "bus_stop",
    "name": "Van Gogh",
    "public_transport": "stop_position"
  }
},
{
  "type": "node",
  "id": 2801539644,
  "lat": 43.9397567,
  "lon": 4.8374224,
  "tags": {
    "bus": "yes",
    "highway": "bus_stop",
    "name": "Pompiers",
    "public_transport": "stop_position"
  }
},
{
  "type": "node",
  "id": 2801547130,
  "lat": 43.9313588,
  "lon": 4.8472970,
  "tags": {
    "bus": "yes",
    "highway": "bus_stop",
    "name": "Bel Air",
    "public_transport": "stop_position"
  }
},
{
  "type": "node",
  "id": 2807363957,
  "lat": 43.9303782,
  "lon": 4.7848516,
  "tags": {
    "bus": "yes",
    "highway": "bus_stop",
    "name": "St Gens",
    "public_transport": "stop_position"
  }
},
{
  "type": "node",
  "id": 3175212379,
  "lat": 43.9226764,
  "lon": 4.7852375,
  "tags": {
    "bus": "yes",
    "highway": "bus_stop",
    "name": "Avignon Gare TGV",
    "public_transport": "stop_position"
  }
},
{
  "type": "node",
  "id": 3175212380,
  "lat": 43.9227080,
  "lon": 4.7854756,
  "tags": {
    "bus": "yes",
    "highway": "bus_stop",
    "name": "Avignon Gare TGV",
    "public_transport": "stop_position"
  }
},
{
  "type": "node",
  "id": 3175212381,
  "lat": 43.9227706,
  "lon": 4.7852823,
  "tags": {
    "bus": "yes",
    "highway": "bus_stop",
    "name": "Avignon Gare TGV",
    "public_transport": "stop_position"
  }
},
{
  "type": "node",
  "id": 3175212382,
  "lat": 43.9228516,
  "lon": 4.7850324,
  "tags": {
    "bus": "yes",
    "highway": "bus_stop",
    "name": "Avignon Gare TGV",
    "public_transport": "stop_position"
  }
},
{
  "type": "node",
  "id": 3175212383,
  "lat": 43.9229135,
  "lon": 4.7848413,
  "tags": {
    "bus": "yes",
    "highway": "bus_stop",
    "name": "Avignon Gare TGV",
    "public_transport": "stop_position"
  }
},
{
  "type": "node",
  "id": 3175212384,
  "lat": 43.9229762,
  "lon": 4.7846478,
  "tags": {
    "bus": "yes",
    "highway": "bus_stop",
    "name": "Avignon Gare TGV",
    "public_transport": "stop_position"
  }
},
{
  "type": "node",
  "id": 3803998326,
  "lat": 43.9400085,
  "lon": 4.8333347,
  "tags": {
    "bus": "yes",
    "highway": "bus_stop",
    "name": "Henri Nodet",
    "public_transport": "stop_position"
  }
},
{
  "type": "node",
  "id": 3804450897,
  "lat": 43.9436322,
  "lon": 4.8146620,
  "tags": {
    "bus": "yes",
    "highway": "bus_stop",
    "name": "Limbert",
    "name:oc": "Limbert",
    "public_transport": "stop_position"
  }
},
{
  "type": "node",
  "id": 3986861143,
  "lat": 43.8892713,
  "lon": 4.9156518,
  "tags": {
    "bus": "yes",
    "highway": "bus_stop",
    "name": "Bonpas",
    "public_transport": "stop_position"
  }
},
{
  "type": "node",
  "id": 4377188831,
  "lat": 43.9510779,
  "lon": 4.7934927,
  "tags": {
    "bus": "yes",
    "highway": "bus_stop",
    "name": "Parking Île Piot",
    "public_transport": "stop_position"
  }
},
{
  "type": "node",
  "id": 4379150192,
  "lat": 43.9276594,
  "lon": 4.7855622,
  "tags": {
    "bus": "yes",
    "highway": "bus_stop",
    "name": "Bonne Fleur",
    "old_name": "Bonne Fleur - Courtine",
    "public_transport": "stop_position"
  }
},
{
  "type": "node",
  "id": 4379150193,
  "lat": 43.9276589,
  "lon": 4.7854842,
  "tags": {
    "bus": "yes",
    "highway": "bus_stop",
    "name": "Bonne Fleur",
    "old_name": "Bonne Fleur - Courtine",
    "public_transport": "stop_position"
  }
},
{
  "type": "node",
  "id": 4568699398,
  "lat": 43.9421937,
  "lon": 4.8080834,
  "tags": {
    "bus": "yes",
    "highway": "bus_stop",
    "local_ref": "6",
    "name": "Avignon - Gare Routière",
    "public_transport": "stop_position"
  }
},
{
  "type": "node",
  "id": 4823556326,
  "lat": 43.9461225,
  "lon": 4.8525257,
  "tags": {
    "bus": "yes",
    "highway": "bus_stop",
    "name": "Lycée René Char",
    "public_transport": "stop_position"
  }
},
{
  "type": "node",
  "id": 4848485511,
  "lat": 43.9182806,
  "lon": 4.8042195,
  "tags": {
    "bus": "yes",
    "highway": "bus_stop",
    "name": "Hôpital",
    "public_transport": "stop_position"
  }
},
{
  "type": "node",
  "id": 4902911477,
  "lat": 43.9290068,
  "lon": 4.8252175,
  "tags": {
    "bus": "yes",
    "highway": "bus_stop",
    "name": "François 1er",
    "public_transport": "stop_position"
  }
},
{
  "type": "node",
  "id": 4903428233,
  "lat": 43.9440114,
  "lon": 4.8153805,
  "tags": {
    "bus": "yes",
    "highway": "bus_stop",
    "name": "Limbert",
    "public_transport": "stop_position"
  }
},
{
  "type": "node",
  "id": 4905308399,
  "lat": 43.9239126,
  "lon": 4.8262448,
  "tags": {
    "bus": "yes",
    "highway": "bus_stop",
    "name": "St Gabriel",
    "public_transport": "stop_position"
  }
},
{
  "type": "node",
  "id": 4907828835,
  "lat": 43.9226410,
  "lon": 4.7856825,
  "tags": {
    "bus": "yes",
    "highway": "bus_stop",
    "name": "Avignon Gare TGV",
    "public_transport": "stop_position"
  }
},
{
  "type": "node",
  "id": 4908199627,
  "lat": 43.9437582,
  "lon": 4.8168269,
  "tags": {
    "bus": "yes",
    "highway": "bus_stop",
    "name": "Palais de Justice",
    "name:oc": "Palais de Justícia",
    "public_transport": "stop_position"
  }
},
{
  "type": "node",
  "id": 4914853818,
  "lat": 43.9349546,
  "lon": 4.8708296,
  "tags": {
    "bench": "yes",
    "bin": "yes",
    "highway": "bus_stop",
    "name": "Montfavet Église",
    "public_transport": "platform"
  }
},
{
  "type": "node",
  "id": 4926618964,
  "lat": 43.9468536,
  "lon": 4.8174990,
  "tags": {
    "bus": "yes",
    "highway": "bus_stop",
    "name": "Thiers",
    "public_transport": "stop_position"
  }
},
{
  "type": "node",
  "id": 4934953794,
  "lat": 43.9354158,
  "lon": 4.8716929,
  "tags": {
    "bus": "yes",
    "highway": "bus_stop",
    "name": "Mairie de Montfavet",
    "public_transport": "stop_position"
  }
},
{
  "type": "node",
  "id": 5224513930,
  "lat": 43.9400988,
  "lon": 4.8334349,
  "tags": {
    "bus": "yes",
    "highway": "bus_stop",
    "name": "Henri Nodet",
    "public_transport": "stop_position"
  }
},
{
  "type": "node",
  "id": 5334442437,
  "lat": 43.9210091,
  "lon": 4.8673285,
  "tags": {
    "bus": "yes",
    "highway": "bus_stop",
    "public_transport": "platform"
  }
},
{
  "type": "node",
  "id": 5613766230,
  "lat": 43.9421942,
  "lon": 4.8083008,
  "tags": {
    "bus": "yes",
    "highway": "bus_stop",
    "local_ref": "8",
    "name": "Avignon - Gare Routière",
    "public_transport": "stop_position"
  }
},
{
  "type": "node",
  "id": 5615278244,
  "lat": 43.9421939,
  "lon": 4.8081879,
  "tags": {
    "bus": "yes",
    "highway": "bus_stop",
    "local_ref": "7",
    "name": "Avignon - Gare Routière",
    "public_transport": "stop_position"
  }
},
{
  "type": "node",
  "id": 5783264306,
  "lat": 43.9421932,
  "lon": 4.8078748,
  "tags": {
    "bus": "yes",
    "highway": "bus_stop",
    "local_ref": "4",
    "name": "Avignon - Gare Routière",
    "public_transport": "stop_position"
  }
},
{
  "type": "node",
  "id": 5853825918,
  "lat": 43.9534881,
  "lon": 4.8230328,
  "tags": {
    "bus": "yes",
    "highway": "bus_stop",
    "name": "P+R Italiens Terminus",
    "public_transport": "stop_position"
  }
},
{
  "type": "node",
  "id": 5853837646,
  "lat": 43.9535370,
  "lon": 4.8105850,
  "tags": {
    "bus": "yes",
    "highway": "bus_stop",
    "name": "Aubanel",
    "public_transport": "stop_position"
  }
},
{
  "type": "node",
  "id": 6021587760,
  "lat": 43.9337875,
  "lon": 4.8022513,
  "tags": {
    "bus": "yes",
    "highway": "bus_stop",
    "name": "Martelange",
    "public_transport": "stop_position"
  }
},
{
  "type": "node",
  "id": 6264392728,
  "lat": 43.9421924,
  "lon": 4.8075480,
  "tags": {
    "bus": "yes",
    "highway": "bus_stop",
    "local_ref": "1",
    "name": "Avignon - Gare Routière",
    "public_transport": "stop_position"
  }
},
{
  "type": "node",
  "id": 6269179876,
  "lat": 43.9421926,
  "lon": 4.8076521,
  "tags": {
    "bus": "yes",
    "highway": "bus_stop",
    "local_ref": "2",
    "name": "Avignon - Gare Routière",
    "public_transport": "stop_position"
  }
},
{
  "type": "node",
  "id": 6272169729,
  "lat": 43.9459870,
  "lon": 4.8168819,
  "tags": {
    "bus": "yes",
    "highway": "bus_stop",
    "name": "CCAS",
    "name:oc": "CCAS",
    "public_transport": "stop_position",
    "source:name:oc": "ieo-bdtopoc"
  }
},
{
  "type": "node",
  "id": 6272174174,
  "lat": 43.9480281,
  "lon": 4.8004420,
  "tags": {
    "bus": "yes",
    "highway": "bus_stop",
    "name": "Saint Dominique",
    "public_transport": "stop_position"
  }
},
{
  "type": "node",
  "id": 6338762603,
  "lat": 43.9326725,
  "lon": 4.8586607,
  "tags": {
    "bus": "yes",
    "highway": "bus_stop",
    "name": "Sainte-Claire",
    "public_transport": "stop_position"
  }
},
{
  "type": "node",
  "id": 6365392147,
  "lat": 43.9421929,
  "lon": 4.8077623,
  "tags": {
    "bus": "yes",
    "highway": "bus_stop",
    "local_ref": "3",
    "name": "Avignon - Gare Routière",
    "public_transport": "stop_position"
  }
},
{
  "type": "node",
  "id": 6492240072,
  "lat": 43.8926332,
  "lon": 4.9161703,
  "tags": {
    "bus": "yes",
    "highway": "bus_stop",
    "name": "Péage Avignon Sud",
    "public_transport": "stop_position"
  }
},
{
  "type": "node",
  "id": 6494882424,
  "lat": 43.9445342,
  "lon": 4.8813280,
  "tags": {
    "bus": "yes",
    "highway": "bus_stop",
    "name": "Lou Castelet",
    "public_transport": "stop_position"
  }
},
{
  "type": "node",
  "id": 6532075170,
  "lat": 43.9421947,
  "lon": 4.8085115,
  "tags": {
    "bus": "yes",
    "highway": "bus_stop",
    "local_ref": "10",
    "name": "Avignon - Gare Routière",
    "public_transport": "stop_position"
  }
},
{
  "type": "node",
  "id": 6796241340,
  "lat": 43.9322596,
  "lon": 4.8321138,
  "tags": {
    "bench": "no",
    "highway": "bus_stop",
    "name": "Mazarin",
    "public_transport": "platform",
    "shelter": "no"
  }
},
{
  "type": "node",
  "id": 6948431303,
  "lat": 43.9378600,
  "lon": 4.8160016,
  "tags": {
    "bus": "yes",
    "fixme": "Position approximative",
    "highway": "bus_stop",
    "name": "Echo",
    "public_transport": "stop_position"
  }
},
{
  "type": "node",
  "id": 7473958811,
  "lat": 43.9652701,
  "lon": 4.8180923,
  "tags": {
    "bus": "yes",
    "highway": "bus_stop",
    "name": "Les Deux Rhône",
    "public_transport": "stop_position"
  }
},
{
  "type": "node",
  "id": 7503274992,
  "lat": 43.9309716,
  "lon": 4.8258406,
  "tags": {
    "bus": "yes",
    "highway": "bus_stop",
    "name": "Les Sources",
    "public_transport": "stop_position"
  }
},
{
  "type": "node",
  "id": 7503462948,
  "lat": 43.9323610,
  "lon": 4.8019615,
  "tags": {
    "bus": "yes",
    "highway": "bus_stop",
    "name": "Lopy",
    "public_transport": "stop_position"
  }
},
{
  "type": "node",
  "id": 7503462954,
  "lat": 43.9327613,
  "lon": 4.8026937,
  "tags": {
    "bus": "yes",
    "highway": "bus_stop",
    "name": "Lopy",
    "public_transport": "stop_position"
  }
},
{
  "type": "node",
  "id": 7523474603,
  "lat": 43.9478047,
  "lon": 4.8240039,
  "tags": {
    "bus": "yes",
    "highway": "bus_stop",
    "name": "Fourrière",
    "public_transport": "stop_position"
  }
},
{
  "type": "node",
  "id": 7523474604,
  "lat": 43.9473248,
  "lon": 4.8272735,
  "tags": {
    "bus": "yes",
    "highway": "bus_stop",
    "name": "St Jean",
    "note": "Sur le panneau en 2019 est bien marqué St Jean et pas Saint-Jean !",
    "public_transport": "stop_position"
  }
},
{
  "type": "node",
  "id": 7523474605,
  "lat": 43.9472285,
  "lon": 4.8276822,
  "tags": {
    "bus": "yes",
    "highway": "bus_stop",
    "name": "St Jean",
    "note": "Sur le panneau en 2019 est bien marqué St Jean et pas Saint-Jean !",
    "public_transport": "stop_position"
  }
},
{
  "type": "node",
  "id": 7523474606,
  "lat": 43.9478307,
  "lon": 4.8289706,
  "tags": {
    "bus": "yes",
    "highway": "bus_stop",
    "name": "Boccace",
    "public_transport": "stop_position"
  }
},
{
  "type": "node",
  "id": 7523474607,
  "lat": 43.9516122,
  "lon": 4.8340253,
  "tags": {
    "bus": "yes",
    "highway": "bus_stop",
    "name": "Esprit Requiem",
    "public_transport": "stop_position"
  }
},
{
  "type": "node",
  "id": 7523474611,
  "lat": 43.9520433,
  "lon": 4.8360376,
  "tags": {
    "bus": "yes",
    "highway": "bus_stop",
    "name": "Notre Dame",
    "public_transport": "stop_position"
  }
},
{
  "type": "node",
  "id": 7523474612,
  "lat": 43.9522534,
  "lon": 4.8370949,
  "tags": {
    "bus": "yes",
    "highway": "bus_stop",
    "name": "Notre Dame",
    "public_transport": "stop_position"
  }
},
{
  "type": "node",
  "id": 7525437654,
  "lat": 43.9220177,
  "lon": 4.8030129,
  "tags": {
    "bus": "yes",
    "highway": "bus_stop",
    "name": "Rhône Durance",
    "public_transport": "stop_position"
  }
},
{
  "type": "node",
  "id": 7525437655,
  "lat": 43.9217057,
  "lon": 4.8028909,
  "tags": {
    "bus": "yes",
    "highway": "bus_stop",
    "name": "Rhône Durance",
    "public_transport": "stop_position"
  }
},
{
  "type": "node",
  "id": 7525437656,
  "lat": 43.9250233,
  "lon": 4.8041891,
  "tags": {
    "bus": "yes",
    "highway": "bus_stop",
    "name": "Schumann",
    "public_transport": "stop_position"
  }
},
{
  "type": "node",
  "id": 7525437660,
  "lat": 43.9282715,
  "lon": 4.8044322,
  "tags": {
    "bus": "yes",
    "highway": "bus_stop",
    "name": "Lavarin",
    "public_transport": "stop_position"
  }
},
{
  "type": "node",
  "id": 7525437661,
  "lat": 43.9280461,
  "lon": 4.8044385,
  "tags": {
    "bus": "yes",
    "highway": "bus_stop",
    "name": "Lavarin",
    "public_transport": "stop_position"
  }
},
{
  "type": "node",
  "id": 7525437662,
  "lat": 43.9289864,
  "lon": 4.8026830,
  "tags": {
    "bus": "yes",
    "highway": "bus_stop",
    "name": "Allende",
    "public_transport": "stop_position"
  }
},
{
  "type": "node",
  "id": 7525437663,
  "lat": 43.9291105,
  "lon": 4.8016524,
  "tags": {
    "bus": "yes",
    "highway": "bus_stop",
    "name": "Allende",
    "public_transport": "stop_position"
  }
},
{
  "type": "node",
  "id": 7525437666,
  "lat": 43.9303521,
  "lon": 4.8002362,
  "tags": {
    "bus": "yes",
    "highway": "bus_stop",
    "name": "Monclar",
    "public_transport": "stop_position"
  }
},
{
  "type": "node",
  "id": 7525437668,
  "lat": 43.9316395,
  "lon": 4.7991049,
  "tags": {
    "bus": "yes",
    "highway": "bus_stop",
    "name": "Verdi",
    "public_transport": "stop_position"
  }
},
{
  "type": "node",
  "id": 7525437670,
  "lat": 43.9317530,
  "lon": 4.7987080,
  "tags": {
    "bus": "yes",
    "highway": "bus_stop",
    "name": "Verdi",
    "public_transport": "stop_position"
  }
},
{
  "type": "node",
  "id": 7525437676,
  "lat": 43.9355814,
  "lon": 4.7982761,
  "tags": {
    "bus": "yes",
    "highway": "bus_stop",
    "name": "Scheppler FabricA",
    "public_transport": "stop_position"
  }
},
{
  "type": "node",
  "id": 7525437679,
  "lat": 43.9379093,
  "lon": 4.7967533,
  "tags": {
    "bus": "yes",
    "highway": "bus_stop",
    "name": "Mouret",
    "public_transport": "stop_position"
  }
},
{
  "type": "node",
  "id": 7525437684,
  "lat": 43.9392082,
  "lon": 4.7974990,
  "tags": {
    "bus": "yes",
    "highway": "bus_stop",
    "name": "Eisenhower",
    "public_transport": "stop_position"
  }
},
{
  "type": "node",
  "id": 7525442388,
  "lat": 43.9404872,
  "lon": 4.8013734,
  "tags": {
    "bus": "yes",
    "highway": "bus_stop",
    "name": "Les Lierres",
    "public_transport": "stop_position"
  }
},
{
  "type": "node",
  "id": 7525442389,
  "lat": 43.9424374,
  "lon": 4.8066372,
  "tags": {
    "alt_name": "Gare Centre - République",
    "bus": "yes",
    "highway": "bus_stop",
    "name": "Gare Centre",
    "public_transport": "stop_position"
  }
},
{
  "type": "node",
  "id": 7525442392,
  "lat": 43.9430501,
  "lon": 4.8116751,
  "tags": {
    "bus": "yes",
    "highway": "bus_stop",
    "name": "Magnanen",
    "public_transport": "stop_position"
  }
},
{
  "type": "node",
  "id": 7525442393,
  "lat": 43.9431582,
  "lon": 4.8118682,
  "tags": {
    "bus": "yes",
    "highway": "bus_stop",
    "name": "Magnanen",
    "public_transport": "stop_position"
  }
},
{
  "type": "node",
  "id": 7525442394,
  "lat": 43.9521510,
  "lon": 4.8284590,
  "tags": {
    "bus": "yes",
    "highway": "bus_stop",
    "name": "Croisière",
    "public_transport": "stop_position"
  }
},
{
  "type": "node",
  "id": 7525442395,
  "lat": 43.9519912,
  "lon": 4.8281070,
  "tags": {
    "bus": "yes",
    "highway": "bus_stop",
    "name": "Croisière",
    "public_transport": "stop_position"
  }
},
{
  "type": "node",
  "id": 7525442399,
  "lat": 43.9529941,
  "lon": 4.8316166,
  "tags": {
    "bus": "yes",
    "highway": "bus_stop",
    "name": "Combe",
    "public_transport": "stop_position"
  }
},
{
  "type": "node",
  "id": 7525442400,
  "lat": 43.9532222,
  "lon": 4.8326138,
  "tags": {
    "bus": "yes",
    "highway": "bus_stop",
    "name": "Combe",
    "public_transport": "stop_position"
  }
},
{
  "type": "node",
  "id": 7525442401,
  "lat": 43.9547413,
  "lon": 4.8373801,
  "tags": {
    "bus": "yes",
    "highway": "bus_stop",
    "name": "Croix Verte",
    "public_transport": "stop_position"
  }
},
{
  "type": "node",
  "id": 7526366179,
  "lat": 43.9355012,
  "lon": 4.8294984,
  "tags": {
    "bus": "yes",
    "highway": "bus_stop",
    "name": "Maria Casarès",
    "public_transport": "stop_position"
  }
},
{
  "type": "node",
  "id": 7526374001,
  "lat": 43.9358651,
  "lon": 4.8289747,
  "tags": {
    "bus": "yes",
    "highway": "bus_stop",
    "name": "Maria Casarès",
    "public_transport": "stop_position"
  }
},
{
  "type": "node",
  "id": 7526374010,
  "lat": 43.9370086,
  "lon": 4.8255181,
  "tags": {
    "bus": "yes",
    "highway": "bus_stop",
    "name": "Croix Rouge",
    "public_transport": "stop_position"
  }
},
{
  "type": "node",
  "id": 7526374012,
  "lat": 43.9371779,
  "lon": 4.8249950,
  "tags": {
    "bus": "yes",
    "highway": "bus_stop",
    "name": "Croix Rouge",
    "public_transport": "stop_position"
  }
},
{
  "type": "node",
  "id": 7526374093,
  "lat": 43.9395109,
  "lon": 4.8211434,
  "tags": {
    "bus": "yes",
    "highway": "bus_stop",
    "name": "Rotondes",
    "public_transport": "stop_position"
  }
},
{
  "type": "node",
  "id": 7526374094,
  "lat": 43.9392767,
  "lon": 4.8214623,
  "tags": {
    "bus": "yes",
    "highway": "bus_stop",
    "name": "Rotondes",
    "public_transport": "stop_position"
  }
},
{
  "type": "node",
  "id": 7526374095,
  "lat": 43.9409025,
  "lon": 4.8186180,
  "tags": {
    "bus": "yes",
    "highway": "bus_stop",
    "name": "Ventoux",
    "public_transport": "stop_position"
  }
},
{
  "type": "node",
  "id": 7526374096,
  "lat": 43.9410666,
  "lon": 4.8183618,
  "tags": {
    "bus": "yes",
    "highway": "bus_stop",
    "name": "Ventoux",
    "public_transport": "stop_position"
  }
},
{
  "type": "node",
  "id": 7526374101,
  "lat": 43.9433678,
  "lon": 4.8154556,
  "tags": {
    "bus": "yes",
    "highway": "bus_stop",
    "name": "Limbert",
    "name:oc": "Limbert",
    "public_transport": "stop_position"
  }
},
{
  "type": "node",
  "id": 7526374111,
  "lat": 43.9504182,
  "lon": 4.8196376,
  "tags": {
    "bus": "yes",
    "highway": "bus_stop",
    "name": "St Lazare",
    "public_transport": "stop_position"
  }
},
{
  "type": "node",
  "id": 7526556662,
  "lat": 43.9103761,
  "lon": 4.8874562,
  "tags": {
    "bus": "yes",
    "highway": "bus_stop",
    "name": "Grand Avignon",
    "public_transport": "stop_position"
  }
},
{
  "type": "node",
  "id": 7526556663,
  "lat": 43.9113804,
  "lon": 4.8846540,
  "tags": {
    "bus": "yes",
    "highway": "bus_stop",
    "name": "Cité de l'Artisanat",
    "public_transport": "stop_position"
  }
},
{
  "type": "node",
  "id": 7526556664,
  "lat": 43.9116007,
  "lon": 4.8849356,
  "tags": {
    "bus": "yes",
    "highway": "bus_stop",
    "name": "Cité de l'Artisanat",
    "public_transport": "stop_position"
  }
},
{
  "type": "node",
  "id": 7526556669,
  "lat": 43.9132252,
  "lon": 4.8869681,
  "tags": {
    "bus": "yes",
    "highway": "bus_stop",
    "name": "Demonque",
    "public_transport": "stop_position"
  }
},
{
  "type": "node",
  "id": 7526597599,
  "lat": 43.9236884,
  "lon": 4.8648579,
  "tags": {
    "bus": "yes",
    "highway": "bus_stop",
    "name": "Mistral 7",
    "public_transport": "stop_position"
  }
},
{
  "type": "node",
  "id": 7526597600,
  "lat": 43.9255912,
  "lon": 4.8562881,
  "tags": {
    "bus": "yes",
    "highway": "bus_stop",
    "name": "Souvine",
    "public_transport": "stop_position"
  }
},
{
  "type": "node",
  "id": 7526597601,
  "lat": 43.9254942,
  "lon": 4.8566460,
  "tags": {
    "bus": "yes",
    "highway": "bus_stop",
    "name": "Souvine",
    "public_transport": "stop_position"
  }
},
{
  "type": "node",
  "id": 7526597602,
  "lat": 43.9258197,
  "lon": 4.8498087,
  "tags": {
    "bus": "yes",
    "highway": "bus_stop",
    "name": "Cristole",
    "public_transport": "stop_position"
  }
},
{
  "type": "node",
  "id": 7526597604,
  "lat": 43.9276810,
  "lon": 4.8459363,
  "tags": {
    "bus": "yes",
    "highway": "bus_stop",
    "name": "Campus CCI",
    "public_transport": "stop_position"
  }
},
{
  "type": "node",
  "id": 7526597605,
  "lat": 43.9279369,
  "lon": 4.8461294,
  "tags": {
    "bus": "yes",
    "highway": "bus_stop",
    "name": "Campus CCI",
    "public_transport": "stop_position"
  }
},
{
  "type": "node",
  "id": 7526597606,
  "lat": 43.9303738,
  "lon": 4.8451832,
  "tags": {
    "bus": "yes",
    "highway": "bus_stop",
    "name": "Coubertin",
    "public_transport": "stop_position"
  }
},
{
  "type": "node",
  "id": 7526597611,
  "lat": 43.9305544,
  "lon": 4.8411358,
  "tags": {
    "bus": "yes",
    "highway": "bus_stop",
    "name": "St Chamand",
    "public_transport": "stop_position"
  }
},
{
  "type": "node",
  "id": 7526597612,
  "lat": 43.9306201,
  "lon": 4.8411392,
  "tags": {
    "bus": "yes",
    "highway": "bus_stop",
    "name": "St Chamand",
    "public_transport": "stop_position"
  }
},
{
  "type": "node",
  "id": 7526597624,
  "lat": 43.9304714,
  "lon": 4.8374176,
  "tags": {
    "bus": "yes",
    "highway": "bus_stop",
    "name": "Cap Sud",
    "public_transport": "stop_position"
  }
},
{
  "type": "node",
  "id": 7526597625,
  "lat": 43.9304617,
  "lon": 4.8370689,
  "tags": {
    "bus": "yes",
    "highway": "bus_stop",
    "name": "Cap Sud",
    "public_transport": "stop_position"
  }
},
{
  "type": "node",
  "id": 7526758034,
  "lat": 43.9318419,
  "lon": 4.8733109,
  "tags": {
    "bus": "yes",
    "highway": "bus_stop",
    "name": "Primevères",
    "public_transport": "stop_position"
  }
},
{
  "type": "node",
  "id": 7526758035,
  "lat": 43.9315318,
  "lon": 4.8735939,
  "tags": {
    "bus": "yes",
    "highway": "bus_stop",
    "name": "Primevères",
    "public_transport": "stop_position"
  }
},
{
  "type": "node",
  "id": 7526758042,
  "lat": 43.9295007,
  "lon": 4.8754386,
  "tags": {
    "bus": "yes",
    "highway": "bus_stop",
    "name": "Croix de Joannis",
    "public_transport": "stop_position"
  }
},
{
  "type": "node",
  "id": 7526758043,
  "lat": 43.9264369,
  "lon": 4.8771479,
  "tags": {
    "bus": "yes",
    "highway": "bus_stop",
    "name": "La Halte",
    "public_transport": "stop_position"
  }
},
{
  "type": "node",
  "id": 7526758044,
  "lat": 43.9260616,
  "lon": 4.8772088,
  "tags": {
    "bus": "yes",
    "highway": "bus_stop",
    "name": "La Halte",
    "public_transport": "stop_position"
  }
},
{
  "type": "node",
  "id": 7526758062,
  "lat": 43.9262234,
  "lon": 4.8807460,
  "tags": {
    "bus": "yes",
    "highway": "bus_stop",
    "name": "Boutons d'Or",
    "public_transport": "stop_position"
  }
},
{
  "type": "node",
  "id": 7526758063,
  "lat": 43.9262447,
  "lon": 4.8801559,
  "tags": {
    "bus": "yes",
    "highway": "bus_stop",
    "name": "Boutons d'Or",
    "public_transport": "stop_position"
  }
},
{
  "type": "node",
  "id": 7526758064,
  "lat": 43.9260964,
  "lon": 4.8825558,
  "tags": {
    "bus": "yes",
    "highway": "bus_stop",
    "name": "Les Granges",
    "public_transport": "stop_position"
  }
},
{
  "type": "node",
  "id": 7526758068,
  "lat": 43.9241858,
  "lon": 4.8863458,
  "tags": {
    "bus": "yes",
    "highway": "bus_stop",
    "name": "Valentin",
    "public_transport": "stop_position"
  }
},
{
  "type": "node",
  "id": 7526758069,
  "lat": 43.9242303,
  "lon": 4.8859911,
  "tags": {
    "bus": "yes",
    "highway": "bus_stop",
    "name": "Valentin",
    "public_transport": "stop_position"
  }
},
{
  "type": "node",
  "id": 7526764392,
  "lat": 43.9209165,
  "lon": 4.8889033,
  "tags": {
    "bus": "yes",
    "highway": "bus_stop",
    "name": "Pont Bleu",
    "public_transport": "stop_position"
  }
},
{
  "type": "node",
  "id": 7526764393,
  "lat": 43.9211271,
  "lon": 4.8887705,
  "tags": {
    "bus": "yes",
    "highway": "bus_stop",
    "name": "Pont Bleu",
    "public_transport": "stop_position"
  }
},
{
  "type": "node",
  "id": 7526764459,
  "lat": 43.9170071,
  "lon": 4.8888889,
  "tags": {
    "bus": "yes",
    "highway": "bus_stop",
    "name": "Salle de Montfavet",
    "public_transport": "stop_position"
  }
},
{
  "type": "node",
  "id": 7526764460,
  "lat": 43.9168447,
  "lon": 4.8889073,
  "tags": {
    "bus": "yes",
    "highway": "bus_stop",
    "name": "Salle de Montfavet",
    "public_transport": "stop_position"
  }
},
{
  "type": "node",
  "id": 7526764463,
  "lat": 43.9119987,
  "lon": 4.8904341,
  "tags": {
    "bus": "yes",
    "highway": "bus_stop",
    "name": "Agrosciences",
    "public_transport": "stop_position"
  }
},
{
  "type": "node",
  "id": 7526764469,
  "lat": 43.9141372,
  "lon": 4.8928795,
  "tags": {
    "bus": "yes",
    "highway": "bus_stop",
    "name": "Félons",
    "public_transport": "stop_position"
  }
},
{
  "type": "node",
  "id": 7526764470,
  "lat": 43.9143084,
  "lon": 4.8928544,
  "tags": {
    "bus": "yes",
    "highway": "bus_stop",
    "name": "Félons",
    "public_transport": "stop_position"
  }
},
{
  "type": "node",
  "id": 7528402990,
  "lat": 43.9440949,
  "lon": 4.8185885,
  "tags": {
    "bus": "yes",
    "highway": "bus_stop",
    "name": "Maison de Retraite",
    "public_transport": "stop_position"
  }
},
{
  "type": "node",
  "id": 7528403013,
  "lat": 43.9415938,
  "lon": 4.8242876,
  "tags": {
    "bus": "yes",
    "highway": "bus_stop",
    "name": "Galaxie",
    "public_transport": "stop_position"
  }
},
{
  "type": "node",
  "id": 7528403017,
  "lat": 43.9410207,
  "lon": 4.8263681,
  "tags": {
    "bus": "yes",
    "highway": "bus_stop",
    "name": "Colchester",
    "public_transport": "stop_position"
  }
},
{
  "type": "node",
  "id": 7528403018,
  "lat": 43.9409446,
  "lon": 4.8266692,
  "tags": {
    "bus": "yes",
    "highway": "bus_stop",
    "name": "Colchester",
    "public_transport": "stop_position"
  }
},
{
  "type": "node",
  "id": 7528403029,
  "lat": 43.9402936,
  "lon": 4.8292248,
  "tags": {
    "bus": "yes",
    "highway": "bus_stop",
    "name": "Deux Frères",
    "public_transport": "stop_position"
  }
},
{
  "type": "node",
  "id": 7528403044,
  "lat": 43.9385177,
  "lon": 4.8405759,
  "tags": {
    "bus": "yes",
    "highway": "bus_stop",
    "name": "Fontcouverte",
    "public_transport": "stop_position"
  }
},
{
  "type": "node",
  "id": 7528403049,
  "lat": 43.9369904,
  "lon": 4.8444557,
  "tags": {
    "bus": "yes",
    "highway": "bus_stop",
    "name": "Berton Sicard",
    "public_transport": "stop_position"
  }
},
{
  "type": "node",
  "id": 7528403050,
  "lat": 43.9372524,
  "lon": 4.8440292,
  "tags": {
    "bus": "yes",
    "highway": "bus_stop",
    "name": "Berton Sicard",
    "public_transport": "stop_position"
  }
},
{
  "type": "node",
  "id": 7528403064,
  "lat": 43.9357547,
  "lon": 4.8475979,
  "tags": {
    "bus": "yes",
    "highway": "bus_stop",
    "name": "Chemin de l'Amandier",
    "public_transport": "stop_position"
  }
},
{
  "type": "node",
  "id": 7528403065,
  "lat": 43.9357569,
  "lon": 4.8478323,
  "tags": {
    "bus": "yes",
    "highway": "bus_stop",
    "name": "Chemin de l'Amandier",
    "public_transport": "stop_position"
  }
},
{
  "type": "node",
  "id": 7528403071,
  "lat": 43.9351323,
  "lon": 4.8518036,
  "tags": {
    "bus": "yes",
    "highway": "bus_stop",
    "name": "Lac St Chamand",
    "public_transport": "stop_position"
  }
},
{
  "type": "node",
  "id": 7528403084,
  "lat": 43.9331278,
  "lon": 4.8702018,
  "tags": {
    "bus": "yes",
    "highway": "bus_stop",
    "name": "Cimetière de Montfavet",
    "public_transport": "stop_position"
  }
},
{
  "type": "node",
  "id": 7528403085,
  "lat": 43.9329100,
  "lon": 4.8702157,
  "tags": {
    "bus": "yes",
    "highway": "bus_stop",
    "name": "Cimetière de Montfavet",
    "public_transport": "stop_position"
  }
},
{
  "type": "node",
  "id": 7528403086,
  "lat": 43.9344418,
  "lon": 4.8698536,
  "tags": {
    "bus": "yes",
    "highway": "bus_stop",
    "name": "Souspirous",
    "public_transport": "stop_position"
  }
},
{
  "type": "node",
  "id": 7528403101,
  "lat": 43.9353655,
  "lon": 4.8719571,
  "tags": {
    "bus": "yes",
    "highway": "bus_stop",
    "name": "Mairie de Montfavet",
    "public_transport": "stop_position"
  }
},
{
  "type": "node",
  "id": 7528403102,
  "lat": 43.9356340,
  "lon": 4.8718712,
  "tags": {
    "bus": "yes",
    "highway": "bus_stop",
    "name": "Mairie de Montfavet",
    "public_transport": "stop_position"
  }
},
{
  "type": "node",
  "id": 7528403111,
  "lat": 43.9334586,
  "lon": 4.8725478,
  "tags": {
    "bus": "yes",
    "highway": "bus_stop",
    "name": "Gare de Montavet",
    "public_transport": "stop_position"
  }
},
{
  "type": "node",
  "id": 7528403112,
  "lat": 43.9332167,
  "lon": 4.8726209,
  "tags": {
    "bus": "yes",
    "highway": "bus_stop",
    "name": "Gare de Montavet",
    "public_transport": "stop_position"
  }
},
{
  "type": "node",
  "id": 7528415280,
  "lat": 43.9524974,
  "lon": 4.7964646,
  "tags": {
    "bus": "yes",
    "highway": "bus_stop",
    "name": "Barthelasse",
    "public_transport": "stop_position"
  }
},
{
  "type": "node",
  "id": 7528826148,
  "lat": 43.9503947,
  "lon": 4.8026280,
  "tags": {
    "bus": "yes",
    "highway": "bus_stop",
    "name": "Porte de l'Oulle",
    "public_transport": "stop_position"
  }
},
{
  "type": "node",
  "id": 7529128889,
  "lat": 43.9400816,
  "lon": 4.8060753,
  "tags": {
    "bus": "yes",
    "highway": "bus_stop",
    "name": "Maison Pour Tous",
    "public_transport": "stop_position"
  }
},
{
  "type": "node",
  "id": 7529128890,
  "lat": 43.9379574,
  "lon": 4.8052961,
  "tags": {
    "bus": "yes",
    "highway": "bus_stop",
    "name": "Mairie Ouest",
    "public_transport": "stop_position"
  }
},
{
  "type": "node",
  "id": 7529128891,
  "lat": 43.9378550,
  "lon": 4.8052501,
  "tags": {
    "bus": "yes",
    "highway": "bus_stop",
    "name": "Mairie Ouest",
    "public_transport": "stop_position"
  }
},
{
  "type": "node",
  "id": 7529128892,
  "lat": 43.9374211,
  "lon": 4.8077443,
  "tags": {
    "bus": "yes",
    "highway": "bus_stop",
    "name": "Monod",
    "public_transport": "stop_position"
  }
},
{
  "type": "node",
  "id": 7529128909,
  "lat": 43.9375650,
  "lon": 4.8121170,
  "tags": {
    "bus": "yes",
    "fixme": "Position approximative",
    "highway": "bus_stop",
    "name": "Sixte Isnard",
    "public_transport": "stop_position"
  }
},
{
  "type": "node",
  "id": 7529128927,
  "lat": 43.9363767,
  "lon": 4.8156287,
  "tags": {
    "bus": "yes",
    "highway": "bus_stop",
    "name": "Echo",
    "public_transport": "stop_position"
  }
},
{
  "type": "node",
  "id": 7529128931,
  "lat": 43.9376770,
  "lon": 4.8137793,
  "tags": {
    "bus": "yes",
    "highway": "bus_stop",
    "name": "Sixte Isnard",
    "public_transport": "stop_position"
  }
},
{
  "type": "node",
  "id": 7529128938,
  "lat": 43.9345900,
  "lon": 4.8162241,
  "tags": {
    "bus": "yes",
    "highway": "bus_stop",
    "name": "Loti",
    "public_transport": "stop_position"
  }
},
{
  "type": "node",
  "id": 7529128950,
  "lat": 43.9352113,
  "lon": 4.8191853,
  "tags": {
    "bus": "yes",
    "highway": "bus_stop",
    "name": "L'Herminier",
    "public_transport": "stop_position"
  }
},
{
  "type": "node",
  "id": 7529128955,
  "lat": 43.9353385,
  "lon": 4.8201408,
  "tags": {
    "bus": "yes",
    "highway": "bus_stop",
    "name": "L'Herminier",
    "public_transport": "stop_position"
  }
},
{
  "type": "node",
  "id": 7529128959,
  "lat": 43.9358238,
  "lon": 4.8228465,
  "tags": {
    "bus": "yes",
    "highway": "bus_stop",
    "name": "Péguy",
    "public_transport": "stop_position"
  }
},
{
  "type": "node",
  "id": 7529128960,
  "lat": 43.9355355,
  "lon": 4.8232160,
  "tags": {
    "bus": "yes",
    "highway": "bus_stop",
    "name": "Péguy",
    "public_transport": "stop_position"
  }
},
{
  "type": "node",
  "id": 7529128975,
  "lat": 43.9325392,
  "lon": 4.8289834,
  "tags": {
    "bus": "yes",
    "highway": "bus_stop",
    "name": "Parrocel",
    "public_transport": "stop_position"
  }
},
{
  "type": "node",
  "id": 7529128984,
  "lat": 43.9311730,
  "lon": 4.8257802,
  "tags": {
    "bus": "yes",
    "highway": "bus_stop",
    "name": "Les Sources",
    "public_transport": "stop_position"
  }
},
{
  "type": "node",
  "id": 7529129291,
  "lat": 43.9341163,
  "lon": 4.8278931,
  "tags": {
    "bus": "yes",
    "highway": "bus_stop",
    "name": "Roumanille",
    "public_transport": "stop_position"
  }
},
{
  "type": "node",
  "id": 7529129315,
  "lat": 43.9348363,
  "lon": 4.8282887,
  "tags": {
    "bus": "yes",
    "highway": "bus_stop",
    "name": "Bavardages",
    "public_transport": "stop_position"
  }
},
{
  "type": "node",
  "id": 7529129320,
  "lat": 43.9348059,
  "lon": 4.8304921,
  "tags": {
    "bus": "yes",
    "highway": "bus_stop",
    "name": "Cité SNCF",
    "public_transport": "stop_position"
  }
},
{
  "type": "node",
  "id": 7529129348,
  "lat": 43.9259216,
  "lon": 4.8451216,
  "tags": {
    "bus": "yes",
    "highway": "bus_stop",
    "name": "P+R Amandier",
    "public_transport": "stop_position"
  }
},
{
  "type": "node",
  "id": 7529365834,
  "lat": 43.9504536,
  "lon": 4.8391999,
  "tags": {
    "bus": "yes",
    "highway": "bus_stop",
    "name": "Auriol",
    "public_transport": "stop_position"
  }
},
{
  "type": "node",
  "id": 7529365837,
  "lat": 43.9488658,
  "lon": 4.8371078,
  "tags": {
    "bus": "yes",
    "highway": "bus_stop",
    "name": "Albert Lebrun",
    "public_transport": "stop_position"
  }
},
{
  "type": "node",
  "id": 7529365882,
  "lat": 43.9463404,
  "lon": 4.8332226,
  "tags": {
    "bus": "yes",
    "highway": "bus_stop",
    "name": "Reine Jeanne",
    "public_transport": "stop_position"
  }
},
{
  "type": "node",
  "id": 7529365883,
  "lat": 43.9465350,
  "lon": 4.8313813,
  "tags": {
    "bus": "yes",
    "highway": "bus_stop",
    "name": "Passerelle",
    "public_transport": "stop_position"
  }
},
{
  "type": "node",
  "id": 7529369487,
  "lat": 43.9458233,
  "lon": 4.8281915,
  "tags": {
    "bus": "yes",
    "highway": "bus_stop",
    "name": "Place de Sienne",
    "public_transport": "stop_position"
  }
},
{
  "type": "node",
  "id": 7529369508,
  "lat": 43.9438110,
  "lon": 4.8275927,
  "tags": {
    "bus": "yes",
    "highway": "bus_stop",
    "name": "Wetzlar",
    "public_transport": "stop_position"
  }
},
{
  "type": "node",
  "id": 7529369527,
  "lat": 43.9418517,
  "lon": 4.8274217,
  "tags": {
    "bus": "yes",
    "highway": "bus_stop",
    "name": "Neuf Peyres",
    "public_transport": "stop_position"
  }
},
{
  "type": "node",
  "id": 7529369528,
  "lat": 43.9415611,
  "lon": 4.8273989,
  "tags": {
    "bus": "yes",
    "highway": "bus_stop",
    "name": "Neuf Peyres",
    "public_transport": "stop_position"
  }
},
{
  "type": "node",
  "id": 7544990745,
  "lat": 43.9442562,
  "lon": 4.8514368,
  "tags": {
    "bus": "yes",
    "highway": "bus_stop",
    "name": "Chasseriau",
    "public_transport": "stop_position"
  }
},
{
  "type": "node",
  "id": 7544990746,
  "lat": 43.9442026,
  "lon": 4.8507247,
  "tags": {
    "bus": "yes",
    "highway": "bus_stop",
    "name": "Chasseriau",
    "public_transport": "stop_position"
  }
},
{
  "type": "node",
  "id": 7544990788,
  "lat": 43.9438516,
  "lon": 4.8486789,
  "tags": {
    "bus": "yes",
    "highway": "bus_stop",
    "name": "Pellenc",
    "public_transport": "stop_position"
  }
},
{
  "type": "node",
  "id": 7544990800,
  "lat": 43.9432393,
  "lon": 4.8451759,
  "tags": {
    "bus": "yes",
    "highway": "bus_stop",
    "name": "Picasso",
    "public_transport": "stop_position"
  }
},
{
  "type": "node",
  "id": 7544990801,
  "lat": 43.9432717,
  "lon": 4.8446522,
  "tags": {
    "bus": "yes",
    "highway": "bus_stop",
    "name": "Picasso",
    "public_transport": "stop_position"
  }
},
{
  "type": "node",
  "id": 7544990808,
  "lat": 43.9453927,
  "lon": 4.8431696,
  "tags": {
    "bus": "yes",
    "highway": "bus_stop",
    "name": "Florence",
    "public_transport": "stop_position"
  }
},
{
  "type": "node",
  "id": 7545598735,
  "lat": 43.9354042,
  "lon": 4.8042125,
  "tags": {
    "bus": "yes",
    "highway": "bus_stop",
    "name": "Lopofa",
    "public_transport": "stop_position"
  }
},
{
  "type": "node",
  "id": 7545598736,
  "lat": 43.9356944,
  "lon": 4.8043279,
  "tags": {
    "bus": "yes",
    "highway": "bus_stop",
    "name": "Lopofa",
    "public_transport": "stop_position"
  }
},
{
  "type": "node",
  "id": 7545598740,
  "lat": 43.9375013,
  "lon": 4.8045874,
  "tags": {
    "bus": "yes",
    "highway": "bus_stop",
    "name": "Violette",
    "public_transport": "stop_position"
  }
},
{
  "type": "node",
  "id": 7545598743,
  "lat": 43.9381512,
  "lon": 4.7980937,
  "tags": {
    "bus": "yes",
    "highway": "bus_stop",
    "name": "Ferry",
    "public_transport": "stop_position"
  }
},
{
  "type": "node",
  "id": 7548369311,
  "lat": 43.9360986,
  "lon": 4.8908492,
  "tags": {
    "bus": "yes",
    "highway": "bus_stop",
    "name": "Prés Verts",
    "public_transport": "stop_position"
  }
},
{
  "type": "node",
  "id": 7548369313,
  "lat": 43.9361861,
  "lon": 4.8905450,
  "tags": {
    "bus": "yes",
    "highway": "bus_stop",
    "name": "Prés Verts",
    "public_transport": "stop_position"
  }
},
{
  "type": "node",
  "id": 7548369315,
  "lat": 43.9373780,
  "lon": 4.8868790,
  "tags": {
    "bus": "yes",
    "highway": "bus_stop",
    "name": "Saint-Louis",
    "public_transport": "stop_position"
  }
},
{
  "type": "node",
  "id": 7548369332,
  "lat": 43.9373887,
  "lon": 4.8808126,
  "tags": {
    "bus": "yes",
    "highway": "bus_stop",
    "name": "Bastide",
    "public_transport": "stop_position"
  }
},
{
  "type": "node",
  "id": 7548369352,
  "lat": 43.9369793,
  "lon": 4.8780611,
  "tags": {
    "bus": "yes",
    "highway": "bus_stop",
    "name": "Vertes Rives",
    "public_transport": "stop_position"
  }
},
{
  "type": "node",
  "id": 7548369362,
  "lat": 43.9364380,
  "lon": 4.8758805,
  "tags": {
    "bus": "yes",
    "highway": "bus_stop",
    "name": "Cantonne",
    "public_transport": "stop_position"
  }
},
{
  "type": "node",
  "id": 7548369364,
  "lat": 43.9363125,
  "lon": 4.8753393,
  "tags": {
    "bus": "yes",
    "highway": "bus_stop",
    "name": "Cantonne",
    "public_transport": "stop_position"
  }
},
{
  "type": "node",
  "id": 7548369378,
  "lat": 43.9347653,
  "lon": 4.8479996,
  "tags": {
    "bus": "yes",
    "highway": "bus_stop",
    "name": "Chemin de l'Amandier",
    "public_transport": "stop_position"
  }
},
{
  "type": "node",
  "id": 7548369379,
  "lat": 43.9347108,
  "lon": 4.8480130,
  "tags": {
    "bus": "yes",
    "highway": "bus_stop",
    "name": "Chemin de l'Amandier",
    "public_transport": "stop_position"
  }
},
{
  "type": "node",
  "id": 7548369383,
  "lat": 43.9311532,
  "lon": 4.8473485,
  "tags": {
    "bus": "yes",
    "highway": "bus_stop",
    "name": "Bel Air",
    "public_transport": "stop_position"
  }
},
{
  "type": "node",
  "id": 7549202779,
  "lat": 43.9039343,
  "lon": 4.8950596,
  "tags": {
    "bus": "yes",
    "highway": "bus_stop",
    "name": "Aéroport",
    "public_transport": "stop_position"
  }
},
{
  "type": "node",
  "id": 7549227089,
  "lat": 43.9453833,
  "lon": 4.8635718,
  "tags": {
    "bus": "yes",
    "highway": "bus_stop",
    "name": "St Maurice",
    "public_transport": "stop_position"
  }
},
{
  "type": "node",
  "id": 7549227094,
  "lat": 43.9386263,
  "lon": 4.8776829,
  "tags": {
    "bus": "yes",
    "highway": "bus_stop",
    "name": "Sœurs",
    "public_transport": "stop_position"
  }
},
{
  "type": "node",
  "id": 7549227096,
  "lat": 43.9384916,
  "lon": 4.8777672,
  "tags": {
    "bus": "yes",
    "highway": "bus_stop",
    "name": "Sœurs",
    "public_transport": "stop_position"
  }
},
{
  "type": "node",
  "id": 7549227098,
  "lat": 43.9400343,
  "lon": 4.8762962,
  "tags": {
    "bus": "yes",
    "highway": "bus_stop",
    "name": "Étoiles",
    "public_transport": "stop_position"
  }
},
{
  "type": "node",
  "id": 7549227100,
  "lat": 43.9402063,
  "lon": 4.8762293,
  "tags": {
    "bus": "yes",
    "highway": "bus_stop",
    "name": "Étoiles",
    "public_transport": "stop_position"
  }
},
{
  "type": "node",
  "id": 7549227103,
  "lat": 43.9416500,
  "lon": 4.8756846,
  "tags": {
    "bus": "yes",
    "highway": "bus_stop",
    "name": "Les Martines",
    "public_transport": "stop_position"
  }
},
{
  "type": "node",
  "id": 7549227115,
  "lat": 43.9409878,
  "lon": 4.8724679,
  "tags": {
    "bus": "yes",
    "highway": "bus_stop",
    "name": "Préfète",
    "public_transport": "stop_position"
  }
},
{
  "type": "node",
  "id": 7549227176,
  "lat": 43.9406438,
  "lon": 4.8707787,
  "tags": {
    "bus": "yes",
    "highway": "bus_stop",
    "name": "Jarretière",
    "public_transport": "stop_position"
  }
},
{
  "type": "node",
  "id": 7549227193,
  "lat": 43.9461410,
  "lon": 4.8524125,
  "tags": {
    "bus": "yes",
    "highway": "bus_stop",
    "name": "Lycée René Char",
    "public_transport": "stop_position"
  }
},
{
  "type": "node",
  "id": 7549227196,
  "lat": 43.9461341,
  "lon": 4.8524721,
  "tags": {
    "bus": "yes",
    "highway": "bus_stop",
    "name": "Lycée René Char",
    "public_transport": "stop_position"
  }
},
{
  "type": "node",
  "id": 7549227199,
  "lat": 43.9460773,
  "lon": 4.8525724,
  "tags": {
    "bus": "yes",
    "highway": "bus_stop",
    "name": "Lycée René Char",
    "public_transport": "stop_position"
  }
},
{
  "type": "node",
  "id": 7549843547,
  "lat": 43.9383835,
  "lon": 4.8419928,
  "tags": {
    "bus": "yes",
    "highway": "bus_stop",
    "name": "Cinq Cantons",
    "public_transport": "stop_position"
  }
},
{
  "type": "node",
  "id": 7549843550,
  "lat": 43.9385826,
  "lon": 4.8420350,
  "tags": {
    "bus": "yes",
    "highway": "bus_stop",
    "name": "Cinq Cantons",
    "public_transport": "stop_position"
  }
},
{
  "type": "node",
  "id": 7549843554,
  "lat": 43.9406900,
  "lon": 4.8421121,
  "tags": {
    "bus": "yes",
    "highway": "bus_stop",
    "name": "Les Oeillets",
    "public_transport": "stop_position"
  }
},
{
  "type": "node",
  "id": 7553228085,
  "lat": 43.9299874,
  "lon": 4.7843850,
  "tags": {
    "bus": "yes",
    "highway": "bus_stop",
    "name": "St Gens",
    "public_transport": "stop_position"
  }
},
{
  "type": "node",
  "id": 7553228087,
  "lat": 43.9310037,
  "lon": 4.7837513,
  "tags": {
    "bus": "yes",
    "highway": "bus_stop",
    "name": "St Gens",
    "public_transport": "stop_position"
  }
},
{
  "type": "node",
  "id": 7553228089,
  "lat": 43.9346008,
  "lon": 4.7820213,
  "tags": {
    "bus": "yes",
    "highway": "bus_stop",
    "name": "Petit Mas",
    "public_transport": "stop_position"
  }
},
{
  "type": "node",
  "id": 7553369037,
  "lat": 43.9304264,
  "lon": 4.8450948,
  "tags": {
    "bus": "yes",
    "highway": "bus_stop",
    "name": "Coubertin",
    "public_transport": "stop_position"
  }
},
{
  "type": "node",
  "id": 7553370410,
  "lat": 43.8896497,
  "lon": 4.9133992,
  "tags": {
    "bus": "yes",
    "highway": "bus_stop",
    "name": "Bonpas",
    "public_transport": "stop_position"
  }
},
{
  "type": "node",
  "id": 7553370415,
  "lat": 43.9108326,
  "lon": 4.8835422,
  "tags": {
    "bus": "yes",
    "highway": "bus_stop",
    "name": "Lycée Agricole",
    "public_transport": "stop_position"
  }
},
{
  "type": "node",
  "id": 7553370416,
  "lat": 43.9104106,
  "lon": 4.8835851,
  "tags": {
    "bus": "yes",
    "highway": "bus_stop",
    "name": "Lycée Agricole",
    "public_transport": "stop_position"
  }
},
{
  "type": "node",
  "id": 7553700997,
  "lat": 43.9650191,
  "lon": 4.8176135,
  "tags": {
    "bus": "yes",
    "highway": "bus_stop",
    "name": "Les Deux Rhône",
    "public_transport": "stop_position"
  }
},
{
  "type": "node",
  "id": 7553701006,
  "lat": 43.9720102,
  "lon": 4.8197727,
  "tags": {
    "bus": "yes",
    "highway": "bus_stop",
    "name": "EDF",
    "public_transport": "stop_position"
  }
},
{
  "type": "node",
  "id": 7553701008,
  "lat": 43.9745929,
  "lon": 4.8219594,
  "tags": {
    "bus": "yes",
    "highway": "bus_stop",
    "name": "Mont Blanc",
    "public_transport": "stop_position"
  }
},
{
  "type": "node",
  "id": 7553701010,
  "lat": 43.9744708,
  "lon": 4.8222913,
  "tags": {
    "bus": "yes",
    "highway": "bus_stop",
    "name": "Mont Blanc",
    "public_transport": "stop_position"
  }
},
{
  "type": "node",
  "id": 7553701012,
  "lat": 43.9686880,
  "lon": 4.8309320,
  "tags": {
    "bus": "yes",
    "highway": "bus_stop",
    "name": "Barthelasse École",
    "public_transport": "stop_position"
  }
},
{
  "type": "node",
  "id": 7553701014,
  "lat": 43.9686841,
  "lon": 4.8301542,
  "tags": {
    "bus": "yes",
    "highway": "bus_stop",
    "name": "Barthelasse École",
    "public_transport": "stop_position"
  }
},
{
  "type": "node",
  "id": 7553701044,
  "lat": 43.9583785,
  "lon": 4.8147871,
  "tags": {
    "bus": "yes",
    "highway": "bus_stop",
    "name": "Dardenne",
    "public_transport": "stop_position"
  }
},
{
  "type": "node",
  "id": 7553701048,
  "lat": 43.9569290,
  "lon": 4.8024919,
  "tags": {
    "bus": "yes",
    "highway": "bus_stop",
    "name": "Islon",
    "public_transport": "stop_position"
  }
},
{
  "type": "node",
  "id": 7554170759,
  "lat": 43.9515234,
  "lon": 4.8210964,
  "tags": {
    "bus": "yes",
    "highway": "bus_stop",
    "name": "Granier",
    "public_transport": "stop_position"
  }
},
{
  "type": "node",
  "id": 7554195791,
  "lat": 43.9554963,
  "lon": 4.8283222,
  "tags": {
    "bus": "yes",
    "highway": "bus_stop",
    "name": "Courbet",
    "public_transport": "stop_position"
  }
},
{
  "type": "node",
  "id": 7554195796,
  "lat": 43.9555673,
  "lon": 4.8302454,
  "tags": {
    "bus": "yes",
    "highway": "bus_stop",
    "name": "Troënes",
    "public_transport": "stop_position"
  }
},
{
  "type": "node",
  "id": 7554195803,
  "lat": 43.9562933,
  "lon": 4.8329356,
  "tags": {
    "bus": "yes",
    "highway": "bus_stop",
    "name": "Jardins Neufs",
    "public_transport": "stop_position"
  }
},
{
  "type": "node",
  "id": 7554195810,
  "lat": 43.9570888,
  "lon": 4.8363863,
  "tags": {
    "bus": "yes",
    "highway": "bus_stop",
    "name": "Chemin Croix Verte",
    "public_transport": "stop_position"
  }
},
{
  "type": "node",
  "id": 7572383637,
  "lat": 43.9247673,
  "lon": 4.8252048,
  "tags": {
    "bus": "yes",
    "highway": "bus_stop",
    "name": "Provençales",
    "public_transport": "stop_position"
  }
},
{
  "type": "node",
  "id": 7572383643,
  "lat": 43.9252595,
  "lon": 4.8281459,
  "tags": {
    "bus": "yes",
    "highway": "bus_stop",
    "name": "Garance",
    "public_transport": "stop_position"
  }
},
{
  "type": "node",
  "id": 7572383650,
  "lat": 43.9265543,
  "lon": 4.8276865,
  "tags": {
    "bus": "yes",
    "highway": "bus_stop",
    "name": "Booth",
    "public_transport": "stop_position"
  }
},
{
  "type": "node",
  "id": 7572383657,
  "lat": 43.9255772,
  "lon": 4.8283651,
  "tags": {
    "bus": "yes",
    "highway": "bus_stop",
    "name": "Garance",
    "public_transport": "stop_position"
  }
},
{
  "type": "node",
  "id": 7572410798,
  "lat": 43.9290351,
  "lon": 4.8207678,
  "tags": {
    "bus": "yes",
    "highway": "bus_stop",
    "name": "Trillade",
    "public_transport": "stop_position"
  }
},
{
  "type": "node",
  "id": 7572410799,
  "lat": 43.9288507,
  "lon": 4.8207671,
  "tags": {
    "bus": "yes",
    "highway": "bus_stop",
    "name": "Trillade",
    "public_transport": "stop_position"
  }
},
{
  "type": "node",
  "id": 7572410814,
  "lat": 43.9310412,
  "lon": 4.8199832,
  "tags": {
    "bus": "yes",
    "highway": "bus_stop",
    "name": "Curtis",
    "public_transport": "stop_position"
  }
},
{
  "type": "node",
  "id": 7572410832,
  "lat": 43.9332650,
  "lon": 4.8166345,
  "tags": {
    "bus": "yes",
    "highway": "bus_stop",
    "name": "Piscine Folard",
    "public_transport": "stop_position"
  }
},
{
  "type": "node",
  "id": 7572410842,
  "lat": 43.9326290,
  "lon": 4.8167860,
  "tags": {
    "bus": "yes",
    "highway": "bus_stop",
    "name": "Piscine Folard",
    "public_transport": "stop_position"
  }
},
{
  "type": "node",
  "id": 7572410843,
  "lat": 43.9367756,
  "lon": 4.8183861,
  "tags": {
    "bus": "yes",
    "highway": "bus_stop",
    "name": "Bonneaud",
    "public_transport": "stop_position"
  }
},
{
  "type": "node",
  "id": 7572410844,
  "lat": 43.9366040,
  "lon": 4.8184502,
  "tags": {
    "bus": "yes",
    "highway": "bus_stop",
    "name": "Bonneaud",
    "public_transport": "stop_position"
  }
},
{
  "type": "node",
  "id": 7572410862,
  "lat": 43.9379038,
  "lon": 4.8179921,
  "tags": {
    "bus": "yes",
    "highway": "bus_stop",
    "name": "1ère DB",
    "public_transport": "stop_position"
  }
},
{
  "type": "node",
  "id": 7572477061,
  "lat": 43.9289183,
  "lon": 4.8135178,
  "tags": {
    "bus": "yes",
    "highway": "bus_stop",
    "name": "Olivades",
    "public_transport": "stop_position"
  }
},
{
  "type": "node",
  "id": 7572477065,
  "lat": 43.9296011,
  "lon": 4.8201469,
  "tags": {
    "bus": "yes",
    "highway": "bus_stop",
    "name": "Trillade",
    "public_transport": "stop_position"
  }
},
{
  "type": "node",
  "id": 7572477072,
  "lat": 43.9288323,
  "lon": 4.8135325,
  "tags": {
    "bus": "yes",
    "highway": "bus_stop",
    "name": "Olivades",
    "public_transport": "stop_position"
  }
},
{
  "type": "node",
  "id": 7572566685,
  "lat": 43.9283962,
  "lon": 4.8127735,
  "tags": {
    "bus": "yes",
    "highway": "bus_stop",
    "name": "Cabrière",
    "public_transport": "stop_position"
  }
},
{
  "type": "node",
  "id": 7572566701,
  "lat": 43.9264355,
  "lon": 4.8120030,
  "tags": {
    "bus": "yes",
    "highway": "bus_stop",
    "name": "D'Arbaud",
    "public_transport": "stop_position"
  }
},
{
  "type": "node",
  "id": 7572566702,
  "lat": 43.9264649,
  "lon": 4.8116664,
  "tags": {
    "bus": "yes",
    "highway": "bus_stop",
    "name": "D'Arbaud",
    "public_transport": "stop_position"
  }
},
{
  "type": "node",
  "id": 7572566705,
  "lat": 43.9251918,
  "lon": 4.8093413,
  "tags": {
    "bus": "yes",
    "highway": "bus_stop",
    "name": "Campus Sciences et Techniques",
    "public_transport": "stop_position"
  }
},
{
  "type": "node",
  "id": 7572566706,
  "lat": 43.9254507,
  "lon": 4.8094435,
  "tags": {
    "bus": "yes",
    "highway": "bus_stop",
    "name": "Campus Sciences et Techniques",
    "public_transport": "stop_position"
  }
},
{
  "type": "node",
  "id": 7572566711,
  "lat": 43.9235034,
  "lon": 4.8093054,
  "tags": {
    "bus": "yes",
    "highway": "bus_stop",
    "name": "Stade Gillardeaux",
    "public_transport": "stop_position"
  }
},
{
  "type": "node",
  "id": 7572566712,
  "lat": 43.9231728,
  "lon": 4.8093956,
  "tags": {
    "bus": "yes",
    "highway": "bus_stop",
    "name": "Stade Gillardeaux",
    "public_transport": "stop_position"
  }
},
{
  "type": "node",
  "id": 7572566720,
  "lat": 43.9206141,
  "lon": 4.8087206,
  "tags": {
    "bus": "yes",
    "highway": "bus_stop",
    "name": "Follereau",
    "public_transport": "stop_position"
  }
},
{
  "type": "node",
  "id": 7572566727,
  "lat": 43.9249117,
  "lon": 4.8041086,
  "tags": {
    "bus": "yes",
    "highway": "bus_stop",
    "name": "Schumann",
    "public_transport": "stop_position"
  }
},
{
  "type": "node",
  "id": 7573489208,
  "lat": 43.9432155,
  "lon": 4.8032620,
  "tags": {
    "bus": "yes",
    "highway": "bus_stop",
    "local_ref": "7",
    "name": "Avignon Poste",
    "public_transport": "stop_position"
  }
},
{
  "type": "node",
  "id": 7573489210,
  "lat": 43.9445656,
  "lon": 4.8019702,
  "tags": {
    "bus": "yes",
    "highway": "bus_stop",
    "name": "Observance",
    "public_transport": "stop_position"
  }
},
{
  "type": "node",
  "id": 7573489212,
  "lat": 43.9446825,
  "lon": 4.7992256,
  "tags": {
    "bus": "yes",
    "highway": "bus_stop",
    "name": "Raspail",
    "public_transport": "stop_position"
  }
},
{
  "type": "node",
  "id": 7573489214,
  "lat": 43.9467624,
  "lon": 4.7997460,
  "tags": {
    "bus": "yes",
    "highway": "bus_stop",
    "name": "Mistral",
    "public_transport": "stop_position"
  }
},
{
  "type": "node",
  "id": 7573489221,
  "lat": 43.9475758,
  "lon": 4.8032791,
  "tags": {
    "bus": "yes",
    "highway": "bus_stop",
    "name": "Vernet",
    "public_transport": "stop_position"
  }
},
{
  "type": "node",
  "id": 7573489223,
  "lat": 43.9491116,
  "lon": 4.8035956,
  "tags": {
    "bus": "yes",
    "highway": "bus_stop",
    "name": "St Agricol",
    "public_transport": "stop_position"
  }
},
{
  "type": "node",
  "id": 7573489232,
  "lat": 43.9503640,
  "lon": 4.8049428,
  "tags": {
    "bus": "yes",
    "highway": "bus_stop",
    "name": "Racine",
    "public_transport": "stop_position"
  }
},
{
  "type": "node",
  "id": 7573489234,
  "lat": 43.9490150,
  "lon": 4.8054802,
  "tags": {
    "bus": "yes",
    "highway": "bus_stop",
    "name": "Hôtel de Ville",
    "public_transport": "stop_position"
  }
},
{
  "type": "node",
  "id": 7573489241,
  "lat": 43.9482981,
  "lon": 4.8059123,
  "tags": {
    "bus": "yes",
    "highway": "bus_stop",
    "name": "Horloge",
    "public_transport": "stop_position"
  }
},
{
  "type": "node",
  "id": 7573489242,
  "lat": 43.9464673,
  "lon": 4.8057340,
  "tags": {
    "bus": "yes",
    "highway": "bus_stop",
    "name": "St Didier",
    "public_transport": "stop_position"
  }
},
{
  "type": "node",
  "id": 7573489284,
  "lat": 43.9514032,
  "lon": 4.8161792,
  "tags": {
    "bus": "yes",
    "highway": "bus_stop",
    "name": "Carreterie",
    "public_transport": "stop_position"
  }
},
{
  "type": "node",
  "id": 7573509585,
  "lat": 43.9505492,
  "lon": 4.8141823,
  "tags": {
    "bus": "yes",
    "highway": "bus_stop",
    "name": "Carmes",
    "public_transport": "stop_position"
  }
},
{
  "type": "node",
  "id": 7573509592,
  "lat": 43.9470757,
  "lon": 4.8144834,
  "tags": {
    "bus": "yes",
    "highway": "bus_stop",
    "name": "Guillaume Puy",
    "public_transport": "stop_position"
  }
},
{
  "type": "node",
  "id": 7574796253,
  "lat": 43.9437222,
  "lon": 4.8059499,
  "tags": {
    "bus": "yes",
    "highway": "bus_stop",
    "name": "Agence Commerciale",
    "public_transport": "stop_position"
  }
},
{
  "type": "node",
  "id": 7600373880,
  "lat": 43.9132373,
  "lon": 4.8869319,
  "tags": {
    "bus": "yes",
    "highway": "bus_stop",
    "name": "Demonque",
    "public_transport": "stop_position"
  }
},
{
  "type": "node",
  "id": 7600373885,
  "lat": 43.9162274,
  "lon": 4.8874214,
  "tags": {
    "bus": "yes",
    "highway": "bus_stop",
    "name": "Agroparc Centre",
    "public_transport": "stop_position"
  }
},
{
  "type": "node",
  "id": 7600373889,
  "lat": 43.9172577,
  "lon": 4.8823640,
  "tags": {
    "bus": "yes",
    "highway": "bus_stop",
    "name": "Durançole",
    "public_transport": "stop_position"
  }
},
{
  "type": "node",
  "id": 7600373892,
  "lat": 43.9211319,
  "lon": 4.8686405,
  "tags": {
    "bus": "yes",
    "highway": "bus_stop",
    "name": "Castelette",
    "public_transport": "stop_position"
  }
},
{
  "type": "node",
  "id": 7600373912,
  "lat": 43.9189309,
  "lon": 4.8722615,
  "tags": {
    "bus": "yes",
    "highway": "bus_stop",
    "name": "Valente",
    "public_transport": "stop_position"
  }
},
{
  "type": "node",
  "id": 7619875756,
  "lat": 43.9254855,
  "lon": 4.8514603,
  "tags": {
    "bus": "yes",
    "highway": "bus_stop",
    "name": "Bon Vent",
    "public_transport": "stop_position"
  }
},
{
  "type": "node",
  "id": 7619875757,
  "lat": 43.9254657,
  "lon": 4.8514590,
  "tags": {
    "bus": "yes",
    "highway": "bus_stop",
    "name": "Bon Vent",
    "public_transport": "stop_position"
  }
},
{
  "type": "node",
  "id": 7749859094,
  "lat": 43.9053044,
  "lon": 4.8978046,
  "tags": {
    "bus": "yes",
    "highway": "bus_stop",
    "name": "Avignon - Aéroport",
    "public_transport": "stop_position"
  }
},
{
  "type": "node",
  "id": 7974925527,
  "lat": 43.9420032,
  "lon": 4.8083820,
  "tags": {
    "bus": "yes",
    "highway": "bus_stop",
    "local_ref": "17",
    "name": "Avignon - Gare Routière",
    "public_transport": "stop_position",
    "route_ref": "15"
  }
},
{
  "type": "node",
  "id": 8319951334,
  "lat": 43.9332457,
  "lon": 4.7986503,
  "tags": {
    "bus": "yes",
    "highway": "bus_stop",
    "name": "Quiot",
    "public_transport": "stop_position"
  }
},
{
  "type": "node",
  "id": 8322528606,
  "lat": 43.9099933,
  "lon": 4.8910657,
  "tags": {
    "bus": "yes",
    "highway": "bus_stop",
    "name": "Agroparc",
    "public_transport": "stop_position"
  }
},
{
  "type": "node",
  "id": 8322689974,
  "lat": 43.9421944,
  "lon": 4.8084095,
  "tags": {
    "bus": "yes",
    "highway": "bus_stop",
    "local_ref": "9",
    "name": "Avignon - Gare Routière",
    "public_transport": "stop_position"
  }
},
{
  "type": "node",
  "id": 8322689975,
  "lat": 43.9421934,
  "lon": 4.8079750,
  "tags": {
    "bus": "yes",
    "highway": "bus_stop",
    "local_ref": "5",
    "name": "Avignon - Gare Routière",
    "public_transport": "stop_position"
  }
},
{
  "type": "node",
  "id": 8322689976,
  "lat": 43.9420032,
  "lon": 4.8084511,
  "tags": {
    "bus": "yes",
    "highway": "bus_stop",
    "local_ref": "11",
    "name": "Avignon - Gare Routière",
    "public_transport": "stop_position",
    "route_ref": "15"
  }
},
{
  "type": "node",
  "id": 8322689977,
  "lat": 43.9420032,
  "lon": 4.8085141,
  "tags": {
    "bus": "yes",
    "highway": "bus_stop",
    "local_ref": "16",
    "name": "Avignon - Gare Routière",
    "public_transport": "stop_position"
  }
},
{
  "type": "node",
  "id": 8322689978,
  "lat": 43.9420032,
  "lon": 4.8082982,
  "tags": {
    "bus": "yes",
    "highway": "bus_stop",
    "local_ref": "12",
    "name": "Avignon - Gare Routière",
    "public_transport": "stop_position"
  }
},
{
  "type": "node",
  "id": 8322689979,
  "lat": 43.9420033,
  "lon": 4.8081882,
  "tags": {
    "bus": "yes",
    "highway": "bus_stop",
    "local_ref": "18",
    "name": "Avignon - Gare Routière",
    "public_transport": "stop_position"
  }
},
{
  "type": "node",
  "id": 8322689980,
  "lat": 43.9420033,
  "lon": 4.8080984,
  "tags": {
    "bus": "yes",
    "highway": "bus_stop",
    "local_ref": "13",
    "name": "Avignon - Gare Routière",
    "public_transport": "stop_position"
  }
},
{
  "type": "node",
  "id": 8322689981,
  "lat": 43.9420033,
  "lon": 4.8079830,
  "tags": {
    "bus": "yes",
    "highway": "bus_stop",
    "local_ref": "19",
    "name": "Avignon - Gare Routière",
    "public_transport": "stop_position"
  }
},
{
  "type": "node",
  "id": 8322689982,
  "lat": 43.9420033,
  "lon": 4.8078757,
  "tags": {
    "bus": "yes",
    "highway": "bus_stop",
    "local_ref": "14",
    "name": "Avignon - Gare Routière",
    "public_transport": "stop_position"
  }
},
{
  "type": "node",
  "id": 8322689983,
  "lat": 43.9420033,
  "lon": 4.8077617,
  "tags": {
    "bus": "yes",
    "highway": "bus_stop",
    "local_ref": "20",
    "name": "Avignon - Gare Routière",
    "public_transport": "stop_position"
  }
},
{
  "type": "node",
  "id": 8322689984,
  "lat": 43.9420033,
  "lon": 4.8076665,
  "tags": {
    "bus": "yes",
    "highway": "bus_stop",
    "local_ref": "15",
    "name": "Avignon - Gare Routière",
    "public_transport": "stop_position"
  }
},
{
  "type": "node",
  "id": 8322702854,
  "lat": 43.9349986,
  "lon": 4.8303466,
  "tags": {
    "bus": "yes",
    "highway": "bus_stop",
    "name": "Cité SNCF",
    "public_transport": "stop_position"
  }
},
{
  "type": "node",
  "id": 8323712635,
  "lat": 43.9507718,
  "lon": 4.8438415,
  "tags": {
    "bus": "yes",
    "highway": "bus_stop",
    "name": "Toulourenc",
    "public_transport": "stop_position"
  }
},
{
  "type": "node",
  "id": 8324655810,
  "lat": 43.9460430,
  "lon": 4.8526291,
  "tags": {
    "bus": "yes",
    "highway": "bus_stop",
    "name": "Lycée René Char",
    "public_transport": "stop_position"
  }
},
{
  "type": "node",
  "id": 8327217641,
  "lat": 43.9452652,
  "lon": 4.8636945,
  "tags": {
    "bus": "yes",
    "highway": "bus_stop",
    "name": "St Maurice",
    "public_transport": "stop_position"
  }
},
{
  "type": "node",
  "id": 8329609569,
  "lat": 43.9710638,
  "lon": 4.8260222,
  "tags": {
    "bus": "yes",
    "highway": "bus_stop",
    "name": "Cave",
    "public_transport": "stop_position"
  }
},
{
  "type": "node",
  "id": 8329709560,
  "lat": 43.9529301,
  "lon": 4.8205928,
  "tags": {
    "bench": "no",
    "bus": "yes",
    "highway": "bus_stop",
    "name": "P+R Italiens",
    "public_transport": "stop_position",
    "shelter": "no",
    "tactile_paving": "yes",
    "wheelchair": "yes"
  }
},
{
  "type": "node",
  "id": 8330022591,
  "lat": 43.9313500,
  "lon": 4.8174388,
  "tags": {
    "bus": "yes",
    "highway": "bus_stop",
    "name": "Collège Mathieu",
    "public_transport": "stop_position"
  }
},
{
  "type": "node",
  "id": 8330064415,
  "lat": 43.9186012,
  "lon": 4.8787950,
  "tags": {
    "bus": "yes",
    "highway": "bus_stop",
    "name": "Magnanarelles",
    "public_transport": "stop_position"
  }
},
{
  "type": "node",
  "id": 8330303015,
  "lat": 43.9483637,
  "lon": 4.8101751,
  "tags": {
    "bus": "yes",
    "fixme": "Position approximative",
    "highway": "bus_stop",
    "name": "Place Pie",
    "public_transport": "stop_position"
  }
},
{
  "type": "node",
  "id": 8360964033,
  "lat": 43.9512125,
  "lon": 4.8290095,
  "tags": {
    "bus": "yes",
    "highway": "bus_stop",
    "name": "Papes",
    "public_transport": "stop_position"
  }
},
{
  "type": "node",
  "id": 8360964034,
  "lat": 43.9511642,
  "lon": 4.8292027,
  "tags": {
    "bus": "yes",
    "highway": "bus_stop",
    "name": "Papes",
    "public_transport": "stop_position"
  }
},
{
  "type": "node",
  "id": 8465390043,
  "lat": 43.8921538,
  "lon": 4.9158343,
  "tags": {
    "bus": "yes",
    "highway": "bus_stop",
    "name": "Péage Avignon Sud",
    "public_transport": "stop_position"
  }
},
{
  "type": "node",
  "id": 8964321079,
  "lat": 43.9237342,
  "lon": 4.7867943,
  "tags": {
    "bus": "yes",
    "highway": "bus_stop",
    "name": "Confluence",
    "public_transport": "stop_position"
  }
},
{
  "type": "node",
  "id": 8964321081,
  "lat": 43.9240960,
  "lon": 4.7875339,
  "tags": {
    "bus": "yes",
    "highway": "bus_stop",
    "name": "Confluence",
    "public_transport": "stop_position"
  }
},
{
  "type": "node",
  "id": 8964328018,
  "lat": 43.9297006,
  "lon": 4.7872382,
  "tags": {
    "bus": "yes",
    "highway": "bus_stop",
    "name": "Ramatuel",
    "public_transport": "stop_position"
  }
},
{
  "type": "node",
  "id": 8968642253,
  "lat": 43.9398586,
  "lon": 4.8015773,
  "tags": {
    "bus": "yes",
    "highway": "bus_stop",
    "name": "Blanchissage",
    "public_transport": "stop_position"
  }
},
{
  "type": "node",
  "id": 8968642259,
  "lat": 43.9398716,
  "lon": 4.8014975,
  "tags": {
    "bus": "yes",
    "highway": "bus_stop",
    "name": "Blanchissage",
    "public_transport": "stop_position"
  }
},
{
  "type": "node",
  "id": 9294676124,
  "lat": 43.9352861,
  "lon": 4.8172621,
  "tags": {
    "bus": "yes",
    "fixme": "Position approximative",
    "highway": "bus_stop",
    "name": "Loti",
    "public_transport": "stop_position"
  }
}

  ]
}
