{
  "version": 0.6,
  "generator": "Overpass API 0.7.57.1 74a55df1",
  "osm3s": {
    "timestamp_osm_base": "2022-02-13T13:18:30Z",
    "timestamp_areas_base": "2022-02-13T02:36:10Z",
    "copyright": "The data included in this document is from www.openstreetmap.org. The data is made available under ODbL."
  },
  "elements": [

{
  "type": "node",
  "id": 774899506,
  "lat": 48.8029502,
  "lon": 2.4282876,
  "tags": {
    "STIF:zone": "3",
    "bench": "yes",
    "bin": "no",
    "bus": "yes",
    "highway": "bus_stop",
    "lit": "no",
    "name": "Capitaine Deplanque",
    "public_transport": "platform",
    "ref:FR:STIF": "28797;472897",
    "route_ref": "181;N132;N134",
    "shelter": "yes",
    "source:wheelchair": "STIF 2019-01",
    "tactile_paving": "no",
    "wheelchair": "yes",
    "wikidata": "Q56746974"
  }
},
{
  "type": "node",
  "id": 774899508,
  "lat": 48.8014497,
  "lon": 2.4309612,
  "tags": {
    "STIF:zone": "3",
    "bench": "yes",
    "bin": "no",
    "bus": "yes",
    "highway": "bus_stop",
    "lit": "no",
    "name": "Mairie de Maisons-Alfort",
    "public_transport": "platform",
    "ref:FR:STIF": "28795",
    "ref:FR:STIF:stop_id": "StopPoint:59:3619751",
    "route_ref": "181",
    "shelter": "yes",
    "source:wheelchair": "STIF 2019-01",
    "tactile_paving": "no",
    "wheelchair": "yes"
  }
},
{
  "type": "node",
  "id": 774899511,
  "lat": 48.8026173,
  "lon": 2.4335746,
  "tags": {
    "STIF:zone": "3",
    "bench": "yes",
    "bus": "yes",
    "highway": "bus_stop",
    "lit": "yes",
    "name": "République - Blum",
    "public_transport": "platform",
    "ref:FR:STIF": "22463",
    "ref:FR:STIF:stop_id": "StopPoint:59:5688853",
    "route_ref": "172;217;372",
    "shelter": "yes",
    "source:wheelchair": "STIF 2019-01",
    "tactile_paving": "no",
    "wheelchair": "yes"
  }
},
{
  "type": "node",
  "id": 774906274,
  "lat": 48.8016276,
  "lon": 2.4271404,
  "tags": {
    "STIF:zone": "3",
    "bus": "yes",
    "highway": "bus_stop",
    "name": "Maisons-Alfort - Alfortville RER",
    "public_transport": "platform",
    "ref:FR:STIF": "411300",
    "ref:FR:STIF:stop_id": "StopPoint:59:3619901",
    "route_ref": "372;N132;N134",
    "shelter": "no",
    "tactile_paving": "no",
    "wheelchair": "yes"
  }
},
{
  "type": "node",
  "id": 1175125477,
  "lat": 48.8154640,
  "lon": 2.4369480,
  "tags": {
    "STIF:zone": "3",
    "bench": "yes",
    "bus": "yes",
    "highway": "bus_stop",
    "name": "Moulin Brûlé",
    "public_transport": "platform",
    "ref:FR:STIF": "27567",
    "ref:FR:STIF:stop_id": "StopPoint:59:3663597",
    "route_ref": "107;107",
    "shelter": "yes"
  }
},
{
  "type": "node",
  "id": 1191270372,
  "lat": 48.7976520,
  "lon": 2.4333507,
  "tags": {
    "STIF:zone": "3",
    "bench": "yes",
    "bin": "no",
    "bus": "yes",
    "highway": "bus_stop",
    "lit": "no",
    "name": "Général Gallieni",
    "public_transport": "platform",
    "ref:FR:STIF": "39608",
    "ref:FR:STIF:stop_id": "StopPoint:59:3619753",
    "route_ref": "181",
    "shelter": "yes",
    "source": "Bing",
    "source:wheelchair": "STIF 2019-01",
    "tactile_paving": "no",
    "wheelchair": "yes"
  }
},
{
  "type": "node",
  "id": 1191270627,
  "lat": 48.8031358,
  "lon": 2.4338824,
  "tags": {
    "STIF:zone": "3",
    "bench": "yes",
    "bus": "yes",
    "highway": "bus_stop",
    "lit": "yes",
    "name": "République - Blum",
    "public_transport": "platform",
    "ref:FR:STIF": "28796",
    "ref:FR:STIF:stop_id": "StopPoint:59:3619778",
    "route_ref": "181",
    "shelter": "yes",
    "source": "Bing",
    "source:wheelchair": "STIF 2019-01",
    "tactile_paving": "no",
    "wheelchair": "yes"
  }
},
{
  "type": "node",
  "id": 1244137488,
  "lat": 48.8152733,
  "lon": 2.4437055,
  "tags": {
    "STIF:zone": "3",
    "bus": "yes",
    "highway": "bus_stop",
    "name": "Passerelle de Charentonneau",
    "public_transport": "platform",
    "ref:FR:STIF": "27571",
    "ref:FR:STIF:stop_id": "StopPoint:59:3663598",
    "route_ref": "107",
    "shelter": "yes"
  }
},
{
  "type": "node",
  "id": 1244137500,
  "lat": 48.8099154,
  "lon": 2.4441837,
  "tags": {
    "STIF:zone": "3",
    "bus": "yes",
    "highway": "bus_stop",
    "name": "René Coty",
    "public_transport": "platform",
    "ref:FR:STIF": "27572",
    "ref:FR:STIF:stop_id": "StopPoint:59:3663571",
    "route_ref": "107;N35"
  }
},
{
  "type": "node",
  "id": 1244137503,
  "lat": 48.8118492,
  "lon": 2.4435305,
  "tags": {
    "STIF:zone": "3",
    "bus": "yes",
    "highway": "bus_stop",
    "name": "Concorde",
    "public_transport": "platform",
    "ref:FR:STIF": "27569",
    "ref:FR:STIF:stop_id": "StopPoint:59:3663599",
    "route_ref": "107"
  }
},
{
  "type": "node",
  "id": 1244137505,
  "lat": 48.8145575,
  "lon": 2.4234617,
  "tags": {
    "STIF:zone": "3",
    "bus": "yes",
    "departures_board": "realtime",
    "highway": "bus_stop",
    "name": "École Vétérinaire de Maisons-Alfort-Métro",
    "public_transport": "platform",
    "ref:FR:STIF": "22722",
    "route_ref": "24;N32;N35",
    "shelter": "yes",
    "source:wheelchair": "STIF 2019-01",
    "wheelchair": "yes"
  }
},
{
  "type": "node",
  "id": 1244137512,
  "lat": 48.8058081,
  "lon": 2.4556948,
  "tags": {
    "STIF:zone": "3",
    "bus": "yes",
    "highway": "bus_stop",
    "name": "Danielle Casanova",
    "public_transport": "platform",
    "ref:FR:STIF": "39531",
    "ref:FR:STIF:stop_id": "StopPoint:59:3663702",
    "route_ref": "107"
  }
},
{
  "type": "node",
  "id": 1244137517,
  "lat": 48.8099175,
  "lon": 2.4477873,
  "tags": {
    "STIF:zone": "3",
    "bench": "yes",
    "bus": "yes",
    "highway": "bus_stop",
    "name": "Rue de Vincennes",
    "public_transport": "platform",
    "ref:FR:STIF": "28722",
    "ref:FR:STIF:stop_id": "StopPoint:59:3663631",
    "route_ref": "107;N35",
    "shelter": "yes"
  }
},
{
  "type": "node",
  "id": 1244137519,
  "lat": 48.8149588,
  "lon": 2.4438164,
  "tags": {
    "STIF:zone": "3",
    "bus": "yes",
    "highway": "bus_stop",
    "name": "Passerelle de Charentonneau",
    "public_transport": "platform",
    "ref:FR:STIF": "27577",
    "ref:FR:STIF:stop_id": "StopPoint:59:3663709",
    "route_ref": "107",
    "shelter": "yes"
  }
},
{
  "type": "node",
  "id": 1244137522,
  "lat": 48.8132786,
  "lon": 2.4217316,
  "tags": {
    "STIF:zone": "3",
    "bench": "yes",
    "bin": "yes",
    "bus": "yes",
    "highway": "bus_stop",
    "lit": "no",
    "name": "Bouley - École Vétérinaire",
    "public_transport": "platform",
    "ref:FR:STIF": "39345",
    "ref:FR:STIF:stop_id": "StopPoint:59:3619780",
    "route_ref": "104;181",
    "shelter": "yes",
    "source:wheelchair": "STIF 2019-01",
    "tactile_paving": "no",
    "wheelchair": "yes",
    "wikidata": "Q56857078"
  }
},
{
  "type": "node",
  "id": 1244137525,
  "lat": 48.8096660,
  "lon": 2.4480315,
  "tags": {
    "STIF:zone": "3",
    "bench": "no",
    "bus": "yes",
    "highway": "bus_stop",
    "name": "Rue de Vincennes",
    "public_transport": "platform",
    "ref:FR:STIF": "27568",
    "ref:FR:STIF:stop_id": "StopPoint:59:3663706",
    "route_ref": "107",
    "shelter": "no"
  }
},
{
  "type": "node",
  "id": 1244137527,
  "lat": 48.8142776,
  "lon": 2.4234771,
  "tags": {
    "STIF:zone": "3",
    "bus": "yes",
    "highway": "bus_stop",
    "name": "École Vétérinaire de Maisons-Alfort",
    "public_transport": "platform",
    "ref:FR:STIF": "39476",
    "ref:FR:STIF:stop_id": "StopPoint:59:3781668",
    "route_ref": "125",
    "source:wheelchair": "STIF 2019-01",
    "wheelchair": "yes"
  }
},
{
  "type": "node",
  "id": 1244137538,
  "lat": 48.8093908,
  "lon": 2.4536935,
  "tags": {
    "STIF:zone": "3",
    "bus": "yes",
    "highway": "bus_stop",
    "name": "Pont de Maisons-Alfort",
    "public_transport": "platform",
    "ref:FR:STIF": "19777",
    "ref:FR:STIF:stop_id": "StopPoint:59:3619847",
    "route_ref": "281",
    "source:wheelchair": "STIF 2019-01",
    "wheelchair": "yes"
  }
},
{
  "type": "node",
  "id": 1244323250,
  "lat": 48.8098133,
  "lon": 2.4484538,
  "tags": {
    "STIF:zone": "3",
    "bench": "yes",
    "bus": "yes",
    "highway": "bus_stop",
    "name": "Rue de Vincennes",
    "public_transport": "platform",
    "ref:FR:STIF": "27566",
    "ref:FR:STIF:stop_id": "StopPoint:59:3663601",
    "route_ref": "107;N35",
    "shelter": "no"
  }
},
{
  "type": "node",
  "id": 1272118628,
  "lat": 48.8155722,
  "lon": 2.4367893,
  "tags": {
    "STIF:zone": "3",
    "bench": "yes",
    "bus": "yes",
    "highway": "bus_stop",
    "name": "Moulin Brûlé",
    "public_transport": "platform",
    "ref:FR:STIF": "27574",
    "ref:FR:STIF:stop_id": "StopPoint:59:3663710",
    "route_ref": "107",
    "shelter": "yes"
  }
},
{
  "type": "node",
  "id": 1474928493,
  "lat": 48.7940683,
  "lon": 2.4343003,
  "tags": {
    "STIF:zone": "3",
    "bench": "yes",
    "bin": "yes",
    "bus": "yes",
    "highway": "bus_stop",
    "lit": "no",
    "name": "Belfort",
    "public_transport": "platform",
    "ref:FR:STIF": "39605",
    "ref:FR:STIF:stop_id": "StopPoint:59:3619755",
    "route_ref": "181",
    "shelter": "yes",
    "source:wheelchair": "STIF 2019-01",
    "tactile_paving": "no",
    "wheelchair": "yes"
  }
},
{
  "type": "node",
  "id": 1474928496,
  "lat": 48.8125776,
  "lon": 2.4278174,
  "tags": {
    "STIF:zone": "3",
    "bus": "yes",
    "highway": "bus_stop",
    "name": "Ernest Renan",
    "public_transport": "platform",
    "ref:FR:STIF": "25908",
    "ref:FR:STIF:stop_id": "StopPoint:59:4035996",
    "route_ref": "N32;N35;104;181",
    "source:wheelchair": "STIF 2019-01",
    "wheelchair": "yes"
  }
},
{
  "type": "node",
  "id": 1474928497,
  "lat": 48.7969241,
  "lon": 2.4333681,
  "tags": {
    "STIF:zone": "3",
    "bench": "yes",
    "bin": "no",
    "bus": "yes",
    "highway": "bus_stop",
    "lit": "no",
    "name": "Général Gallieni",
    "public_transport": "platform",
    "ref:FR:STIF": "39604",
    "ref:FR:STIF:stop_id": "StopPoint:59:3619752",
    "route_ref": "181",
    "shelter": "yes",
    "source:wheelchair": "STIF 2019-01",
    "tactile_paving": "no",
    "wheelchair": "yes"
  }
},
{
  "type": "node",
  "id": 1474928498,
  "lat": 48.7901025,
  "lon": 2.4351194,
  "tags": {
    "STIF:zone": "3",
    "bench": "yes",
    "bin": "yes",
    "bus": "yes",
    "highway": "bus_stop",
    "lit": "no",
    "name": "Le Vert de Maisons RER",
    "public_transport": "platform",
    "ref:FR:STIF": "28794",
    "ref:FR:STIF:stop_id": "StopPoint:59:3619756",
    "route_ref": "181;N132;N134",
    "shelter": "yes",
    "source:wheelchair": "STIF 2019-01",
    "tactile_paving": "no",
    "wheelchair": "yes"
  }
},
{
  "type": "node",
  "id": 1474928499,
  "lat": 48.7906587,
  "lon": 2.4351833,
  "tags": {
    "STIF:zone": "3",
    "bench": "yes",
    "bin": "yes",
    "bus": "yes",
    "highway": "bus_stop",
    "lit": "no",
    "name": "Le Vert de Maisons RER",
    "public_transport": "platform",
    "ref:FR:STIF": "41804",
    "ref:FR:STIF:stop_id": "StopPoint:59:3619757",
    "route_ref": "N132;181",
    "shelter": "yes",
    "source:wheelchair": "STIF 2019-01",
    "tactile_paving": "no",
    "wheelchair": "yes"
  }
},
{
  "type": "node",
  "id": 1474928500,
  "lat": 48.8097340,
  "lon": 2.4239191,
  "tags": {
    "STIF:zone": "3",
    "bench": "yes",
    "bin": "no",
    "bus": "yes",
    "highway": "bus_stop",
    "lit": "no",
    "name": "Pierre Curie",
    "public_transport": "platform",
    "ref:FR:STIF": "39510",
    "ref:FR:STIF:stop_id": "StopPoint:59:3619747",
    "route_ref": "181",
    "shelter": "yes",
    "source:wheelchair": "STIF 2019-01",
    "tactile_paving": "no",
    "wheelchair": "yes"
  }
},
{
  "type": "node",
  "id": 1474928501,
  "lat": 48.8104546,
  "lon": 2.4240675,
  "tags": {
    "STIF:zone": "3",
    "bench": "yes",
    "bin": "yes",
    "bus": "yes",
    "highway": "bus_stop",
    "lit": "no",
    "name": "Pierre Curie",
    "public_transport": "platform",
    "ref:FR:STIF": "39342",
    "ref:FR:STIF:stop_id": "StopPoint:59:3663638",
    "route_ref": "104;107;181",
    "shelter": "yes",
    "source:wheelchair": "STIF 2019-01",
    "tactile_paving": "no",
    "wheelchair": "yes"
  }
},
{
  "type": "node",
  "id": 1474928502,
  "lat": 48.8061494,
  "lon": 2.4259976,
  "tags": {
    "STIF:zone": "3",
    "bench": "yes",
    "bin": "no",
    "bus": "yes",
    "highway": "bus_stop",
    "lit": "no",
    "name": "Professeur Cadiot",
    "public_transport": "platform",
    "ref:FR:STIF": "39609",
    "ref:FR:STIF:stop_id": "StopPoint:59:3619748",
    "route_ref": "181",
    "shelter": "yes",
    "source:wheelchair": "STIF 2019-01",
    "tactile_paving": "no",
    "wheelchair": "yes"
  }
},
{
  "type": "node",
  "id": 1474928503,
  "lat": 48.8066237,
  "lon": 2.4278775,
  "tags": {
    "STIF:zone": "3",
    "bench": "yes",
    "bus": "yes",
    "highway": "bus_stop",
    "name": "Professeur Cadiot",
    "public_transport": "platform",
    "ref:FR:STIF": "39606",
    "ref:FR:STIF:stop_id": "StopPoint:59:3619749",
    "route_ref": "181",
    "shelter": "yes",
    "source:wheelchair": "STIF 2019-01",
    "wheelchair": "yes"
  }
},
{
  "type": "node",
  "id": 1493804567,
  "lat": 48.8003166,
  "lon": 2.4363308,
  "tags": {
    "STIF:zone": "3",
    "bus": "yes",
    "highway": "bus_stop",
    "name": "Hugo - Blum",
    "public_transport": "platform",
    "ref:FR:STIF": "420277",
    "ref:FR:STIF:stop_id": "StopPoint:59:5944775",
    "route_ref": "172;372",
    "shelter": "no",
    "source:wheelchair": "STIF 2019-01",
    "tactile_paving": "yes",
    "wheelchair": "yes"
  }
},
{
  "type": "node",
  "id": 1493804637,
  "lat": 48.8011617,
  "lon": 2.4324580,
  "tags": {
    "STIF:zone": "3",
    "bench": "yes",
    "bus": "yes",
    "highway": "bus_stop",
    "lit": "yes",
    "name": "Mairie de Maisons-Alfort",
    "public_transport": "platform",
    "ref:FR:STIF": "23232",
    "ref:FR:STIF:stop_id": "StopPoint:59:5688840",
    "route_ref": "172",
    "shelter": "yes",
    "source:wheelchair": "STIF 2019-01",
    "tactile_paving": "no",
    "wheelchair": "yes"
  }
},
{
  "type": "node",
  "id": 1870084535,
  "lat": 48.8092087,
  "lon": 2.4581714,
  "tags": {
    "STIF:zone": "3",
    "bus": "yes",
    "highway": "bus_stop",
    "name": "Planètes",
    "public_transport": "platform",
    "ref:FR:STIF": "7783",
    "ref:FR:STIF:stop_id": "StopPoint:59:3619850",
    "route_ref": "281;372",
    "source:wheelchair": "STIF 2019-01",
    "wheelchair": "yes"
  }
},
{
  "type": "node",
  "id": 1870084590,
  "lat": 48.8038924,
  "lon": 2.4447176,
  "tags": {
    "STIF:zone": "3",
    "bus": "yes",
    "highway": "bus_stop",
    "name": "Les Juilliottes-Métro",
    "public_transport": "platform",
    "ref:FR:STIF": "25903",
    "ref:FR:STIF:stop_id": "StopPoint:59:5675624",
    "route_ref": "104;217;N32;N35",
    "source:wheelchair": "STIF 2019-01",
    "wheelchair": "yes"
  }
},
{
  "type": "node",
  "id": 1870084610,
  "lat": 48.8041650,
  "lon": 2.4437555,
  "tags": {
    "STIF:zone": "3",
    "bench": "yes",
    "bus": "yes",
    "highway": "bus_stop",
    "name": "Les Juilliottes-Métro",
    "public_transport": "platform",
    "ref:FR:STIF": "28718",
    "ref:FR:STIF:stop_id": "StopPoint:59:5675660",
    "route_ref": "N32;104;217;N35",
    "shelter": "yes",
    "source:wheelchair": "STIF 2019-01",
    "tactile_paving": "no",
    "wheelchair": "yes"
  }
},
{
  "type": "node",
  "id": 1870084677,
  "lat": 48.8078372,
  "lon": 2.4620685,
  "tags": {
    "STIF:zone": "3",
    "bus": "yes",
    "highway": "bus_stop",
    "name": "Louis Fliche",
    "public_transport": "platform",
    "ref:FR:STIF": "9894",
    "ref:FR:STIF:stop_id": "StopPoint:59:3619958",
    "route_ref": "281;372",
    "source:wheelchair": "STIF 2019-01",
    "wheelchair": "yes"
  }
},
{
  "type": "node",
  "id": 1870084696,
  "lat": 48.8082458,
  "lon": 2.4567859,
  "tags": {
    "STIF:zone": "3",
    "bus": "yes",
    "highway": "bus_stop",
    "name": "Planètes",
    "public_transport": "platform",
    "ref:FR:STIF": "7782",
    "ref:FR:STIF:stop_id": "StopPoint:59:3663628",
    "route_ref": "281;107;372",
    "source:wheelchair": "STIF 2019-01",
    "wheelchair": "yes"
  }
},
{
  "type": "node",
  "id": 1906548111,
  "lat": 48.8001574,
  "lon": 2.4284654,
  "tags": {
    "STIF:zone": "3",
    "bus": "yes",
    "highway": "bus_stop",
    "name": "Maisons-Alfort - Alfortville RER",
    "public_transport": "platform",
    "ref:FR:STIF": "37273",
    "ref:FR:STIF:stop_id": "StopPoint:59:5688839",
    "route_ref": "172;217",
    "shelter": "yes",
    "source:wheelchair": "STIF 2019-01",
    "tactile_paving": "no",
    "wheelchair": "yes"
  }
},
{
  "type": "node",
  "id": 1925917352,
  "lat": 48.7974598,
  "lon": 2.4400714,
  "tags": {
    "STIF:zone": "3",
    "bus": "yes",
    "highway": "bus_stop",
    "name": "Hector Berlioz",
    "public_transport": "platform",
    "ref:FR:STIF": "23234",
    "ref:FR:STIF:stop_id": "StopPoint:59:5688845",
    "route_ref": "172",
    "shelter": "yes",
    "source:wheelchair": "STIF 2019-01",
    "wheelchair": "yes"
  }
},
{
  "type": "node",
  "id": 1925921569,
  "lat": 48.7973458,
  "lon": 2.4398286,
  "tags": {
    "STIF:zone": "3",
    "bus": "yes",
    "highway": "bus_stop",
    "name": "Hector Berlioz",
    "public_transport": "platform",
    "ref:FR:STIF": "23233",
    "ref:FR:STIF:stop_id": "StopPoint:59:5688844",
    "route_ref": "172",
    "shelter": "yes",
    "source:wheelchair": "STIF 2019-01",
    "wheelchair": "yes"
  }
},
{
  "type": "node",
  "id": 1926010619,
  "lat": 48.8013009,
  "lon": 2.4318722,
  "tags": {
    "STIF:zone": "3",
    "bench": "yes",
    "bin": "yes",
    "bus": "yes",
    "highway": "bus_stop",
    "lit": "yes",
    "name": "Mairie de Maisons-Alfort",
    "public_transport": "platform",
    "ref:FR:STIF": "39430",
    "ref:FR:STIF:stop_id": "StopPoint:59:3619903",
    "route_ref": "217;372",
    "shelter": "yes",
    "source:wheelchair": "STIF 2019-01",
    "tactile_paving": "no",
    "wheelchair": "yes"
  }
},
{
  "type": "node",
  "id": 1926010621,
  "lat": 48.8008582,
  "lon": 2.4310243,
  "tags": {
    "STIF:zone": "3",
    "bench": "yes",
    "bus": "yes",
    "highway": "bus_stop",
    "lit": "yes",
    "name": "Mairie de Maisons-Alfort",
    "public_transport": "platform",
    "ref:FR:STIF": "22246",
    "ref:FR:STIF:stop_id": "StopPoint:59:3619904",
    "route_ref": "172;217;372",
    "shelter": "yes",
    "source:wheelchair": "STIF 2019-01",
    "tactile_paving": "no",
    "wheelchair": "yes"
  }
},
{
  "type": "node",
  "id": 1933474212,
  "lat": 48.8003185,
  "lon": 2.4360875,
  "tags": {
    "STIF:zone": "3",
    "bus": "yes",
    "highway": "bus_stop",
    "name": "Hugo - Blum",
    "public_transport": "platform",
    "ref:FR:STIF": "421256",
    "ref:FR:STIF:stop_id": "StopPoint:59:5944774",
    "route_ref": "172;372",
    "shelter": "no",
    "source:wheelchair": "STIF 2019-01",
    "tactile_paving": "no",
    "wheelchair": "yes"
  }
},
{
  "type": "node",
  "id": 1933509485,
  "lat": 48.8000973,
  "lon": 2.4286852,
  "tags": {
    "STIF:zone": "3",
    "bus": "yes",
    "highway": "bus_stop",
    "name": "Maisons-Alfort - Alfortville RER",
    "public_transport": "platform",
    "ref:FR:STIF": "23235",
    "ref:FR:STIF:stop_id": "StopPoint:59:5688838",
    "route_ref": "172;217",
    "shelter": "yes",
    "source:wheelchair": "STIF 2019-01",
    "tactile_paving": "no",
    "wheelchair": "yes"
  }
},
{
  "type": "node",
  "id": 1966996127,
  "lat": 48.8147986,
  "lon": 2.4218891,
  "tags": {
    "STIF:zone": "3",
    "bench": "yes",
    "bin": "yes",
    "bus": "yes",
    "highway": "bus_stop",
    "lit": "yes",
    "name": "École Veterinaire de Maisons-Alfort-Métro",
    "public_transport": "platform",
    "ref:FR:STIF": "37926",
    "ref:FR:STIF:stop_id": "StopPoint:59:3663565",
    "route_ref": "N32;N35;107",
    "shelter": "yes",
    "tactile_paving": "no"
  }
},
{
  "type": "node",
  "id": 1966996131,
  "lat": 48.8143888,
  "lon": 2.4231203,
  "tags": {
    "STIF:zone": "3",
    "bus": "yes",
    "highway": "bus_stop",
    "name": "École Vétérinaire de Maisons-Alfort",
    "public_transport": "platform",
    "ref:FR:STIF": "39475",
    "ref:FR:STIF:stop_id": "StopPoint:59:3619743",
    "route_ref": "181",
    "source:wheelchair": "STIF 2019-01",
    "wheelchair": "yes"
  }
},
{
  "type": "node",
  "id": 1966996133,
  "lat": 48.8149329,
  "lon": 2.4215539,
  "tags": {
    "STIF:zone": "3",
    "bench": "yes",
    "bin": "yes",
    "bus": "yes",
    "highway": "bus_stop",
    "lit": "yes",
    "name": "École Vétérinaire de Maisons-Alfort",
    "public_transport": "platform",
    "ref:FR:STIF": "39343",
    "ref:FR:STIF:stop_id": "StopPoint:59:3781667",
    "route_ref": "24;103;104;107;125;181",
    "shelter": "yes",
    "source:wheelchair": "STIF 2019-01",
    "tactile_paving": "no",
    "wheelchair": "no"
  }
},
{
  "type": "node",
  "id": 2109454311,
  "lat": 48.8087723,
  "lon": 2.4350271,
  "tags": {
    "STIF:zone": "3",
    "bus": "yes",
    "highway": "bus_stop",
    "name": "Stade - Métro",
    "public_transport": "platform",
    "ref:FR:STIF": "25906",
    "ref:FR:STIF:stop_id": "StopPoint:59:5675657",
    "route_ref": "N32;N35;104;372",
    "source:wheelchair": "STIF 2019-01",
    "wheelchair": "yes"
  }
},
{
  "type": "node",
  "id": 2109454312,
  "lat": 48.8088366,
  "lon": 2.4353466,
  "tags": {
    "STIF:zone": "3",
    "bus": "yes",
    "highway": "bus_stop",
    "name": "Stade - Métro",
    "public_transport": "platform",
    "ref:FR:STIF": "25902",
    "ref:FR:STIF:stop_id": "StopPoint:59:5675627",
    "route_ref": "N32;N35;104;372",
    "source:wheelchair": "STIF 2019-01",
    "wheelchair": "yes"
  }
},
{
  "type": "node",
  "id": 2675756164,
  "lat": 48.8085173,
  "lon": 2.4504429,
  "tags": {
    "STIF:zone": "3",
    "bus": "yes",
    "highway": "bus_stop",
    "name": "Rue de Marseille",
    "public_transport": "platform",
    "ref:FR:STIF": "9893",
    "ref:FR:STIF:stop_id": "StopPoint:59:3619922",
    "route_ref": "372",
    "shelter": "no",
    "source:wheelchair": "STIF 2019-01",
    "wheelchair": "no"
  }
},
{
  "type": "node",
  "id": 2836202844,
  "lat": 48.8039781,
  "lon": 2.4368617,
  "tags": {
    "STIF:zone": "3",
    "bench": "yes",
    "bin": "no",
    "bus": "yes",
    "highway": "bus_stop",
    "lit": "yes",
    "name": "Jouet",
    "public_transport": "platform",
    "ref:FR:STIF": "22688",
    "ref:FR:STIF:stop_id": "StopPoint:59:3619907",
    "route_ref": "217;372",
    "shelter": "yes",
    "source:wheelchair": "STIF 2019-01",
    "tactile_paving": "yes",
    "wheelchair": "yes"
  }
},
{
  "type": "node",
  "id": 2836202845,
  "lat": 48.8040008,
  "lon": 2.4366655,
  "tags": {
    "STIF:zone": "3",
    "bench": "yes",
    "bin": "no",
    "bus": "yes",
    "highway": "bus_stop",
    "lit": "yes",
    "name": "Jouet",
    "public_transport": "platform",
    "ref:FR:STIF": "27805",
    "ref:FR:STIF:stop_id": "StopPoint:59:3619805",
    "route_ref": "217;372",
    "shelter": "yes",
    "source:wheelchair": "STIF 2019-01",
    "tactile_paving": "yes",
    "wheelchair": "yes"
  }
},
{
  "type": "node",
  "id": 2956290714,
  "lat": 48.8097530,
  "lon": 2.4332030,
  "tags": {
    "STIF:zone": "3",
    "bus": "yes",
    "highway": "bus_stop",
    "name": "8 Mai 1945",
    "public_transport": "platform",
    "ref:FR:STIF": "25904",
    "ref:FR:STIF:stop_id": "StopPoint:59:5675656",
    "route_ref": "N32;N35;104",
    "source:wheelchair": "STIF 2019-01",
    "wheelchair": "yes"
  }
},
{
  "type": "node",
  "id": 2956290715,
  "lat": 48.8054489,
  "lon": 2.4413297,
  "tags": {
    "STIF:zone": "3",
    "bench": "yes",
    "bus": "yes",
    "highway": "bus_stop",
    "name": "République - Général Leclerc",
    "public_transport": "platform",
    "ref:FR:STIF": "26710",
    "ref:FR:STIF:stop_id": "StopPoint:59:5675659",
    "route_ref": "N32;N35;104;372",
    "shelter": "yes",
    "source:wheelchair": "STIF 2019-01",
    "tactile_paving": "no",
    "wheelchair": "yes"
  }
},
{
  "type": "node",
  "id": 3753451560,
  "lat": 48.8141663,
  "lon": 2.4239088,
  "tags": {
    "STIF:zone": "3",
    "bus": "yes",
    "highway": "bus_stop",
    "name": "École Vétérinaire de Maisons-Alfort",
    "public_transport": "platform",
    "ref:FR:STIF": "39344",
    "ref:FR:STIF:stop_id": "StopPoint:59:3686539",
    "route_ref": "104",
    "source:wheelchair": "STIF 2019-01",
    "wheelchair": "yes"
  }
},
{
  "type": "node",
  "id": 4324454558,
  "lat": 48.8071728,
  "lon": 2.4384869,
  "tags": {
    "STIF:zone": "3",
    "bench": "yes",
    "bus": "yes",
    "highway": "bus_stop",
    "lit": "yes",
    "name": "Cécile",
    "public_transport": "platform",
    "ref:FR:STIF": "25907",
    "ref:FR:STIF:stop_id": "StopPoint:59:5675626",
    "route_ref": "N32;N35;104;372",
    "shelter": "yes",
    "source:wheelchair": "STIF 2019-01",
    "tactile_paving": "no",
    "wheelchair": "yes"
  }
},
{
  "type": "node",
  "id": 4324454559,
  "lat": 48.8077174,
  "lon": 2.4370453,
  "tags": {
    "STIF:zone": "3",
    "bench": "yes",
    "bin": "no",
    "bus": "yes",
    "highway": "bus_stop",
    "lit": "yes",
    "name": "Cécile",
    "public_transport": "platform",
    "ref:FR:STIF": "25905",
    "ref:FR:STIF:stop_id": "StopPoint:59:5675658",
    "route_ref": "N32;N35;104;372",
    "shelter": "yes",
    "source:wheelchair": "STIF 2019-01",
    "tactile_paving": "no",
    "wheelchair": "yes"
  }
},
{
  "type": "node",
  "id": 4326491189,
  "lat": 48.8074375,
  "lon": 2.4468687,
  "tags": {
    "STIF:zone": "3",
    "bus": "yes",
    "highway": "bus_stop",
    "name": "Rue de Lille",
    "public_transport": "platform",
    "ref:FR:STIF": "28197",
    "ref:FR:STIF:stop_id": "StopPoint:59:3619919",
    "route_ref": "372",
    "shelter": "no",
    "source:wheelchair": "STIF 2019-01",
    "wheelchair": "no"
  }
},
{
  "type": "node",
  "id": 4326491190,
  "lat": 48.8075705,
  "lon": 2.4469660,
  "tags": {
    "STIF:zone": "3",
    "bus": "yes",
    "highway": "bus_stop",
    "name": "Rue de Lille",
    "public_transport": "platform",
    "ref:FR:STIF": "8361",
    "ref:FR:STIF:stop_id": "StopPoint:59:3619920",
    "route_ref": "372",
    "shelter": "yes",
    "source:wheelchair": "STIF 2019-01",
    "wheelchair": "no"
  }
},
{
  "type": "node",
  "id": 5226981397,
  "lat": 48.8055129,
  "lon": 2.4416527,
  "tags": {
    "STIF:zone": "3",
    "bench": "yes",
    "bus": "yes",
    "highway": "bus_stop",
    "name": "République - Général Leclerc",
    "public_transport": "platform",
    "ref:FR:STIF": "26711",
    "ref:FR:STIF:stop_id": "StopPoint:59:5675625",
    "route_ref": "N32;N35;104;372",
    "shelter": "yes",
    "source:wheelchair": "STIF 2019-01",
    "tactile_paving": "no",
    "wheelchair": "yes"
  }
},
{
  "type": "node",
  "id": 5230017020,
  "lat": 48.8119830,
  "lon": 2.4277229,
  "tags": {
    "STIF:zone": "3",
    "bus": "yes",
    "highway": "bus_stop",
    "name": "Ernest Renan",
    "public_transport": "platform",
    "ref:FR:STIF": "27540",
    "ref:FR:STIF:stop_id": "StopPoint:59:3686542",
    "route_ref": "104",
    "source:wheelchair": "STIF 2019-01",
    "wheelchair": "yes"
  }
},
{
  "type": "node",
  "id": 5230018621,
  "lat": 48.8110235,
  "lon": 2.4312498,
  "tags": {
    "STIF:zone": "3",
    "bus": "yes",
    "highway": "bus_stop",
    "name": "8 Mai 1945",
    "public_transport": "platform",
    "ref:FR:STIF": "25909",
    "ref:FR:STIF:stop_id": "StopPoint:59:5675628",
    "route_ref": "N35;104;N32",
    "shelter": "yes",
    "source:wheelchair": "STIF 2019-01",
    "wheelchair": "limited"
  }
},
{
  "type": "node",
  "id": 5657468785,
  "lat": 48.8147321,
  "lon": 2.4228698,
  "tags": {
    "STIF:zone": "3",
    "bench": "yes",
    "bus": "yes",
    "highway": "bus_stop",
    "name": "École Vétérinaire de Maisons-Alfort",
    "public_transport": "platform",
    "ref:FR:STIF": "22420",
    "ref:FR:STIF:stop_id": "StopPoint:59:3686374",
    "route_ref": "103",
    "shelter": "yes",
    "source:wheelchair": "STIF 2019-01",
    "wheelchair": "no"
  }
},
{
  "type": "node",
  "id": 5713805122,
  "lat": 48.8085641,
  "lon": 2.4510648,
  "tags": {
    "STIF:zone": "3",
    "bench": "no",
    "bus": "yes",
    "highway": "bus_stop",
    "name": "Rue de Marseille",
    "public_transport": "platform",
    "ref:FR:STIF": "28195",
    "ref:FR:STIF:stop_id": "StopPoint:59:3619921",
    "route_ref": "372",
    "shelter": "no",
    "source:wheelchair": "STIF 2019-01",
    "wheelchair": "no"
  }
},
{
  "type": "node",
  "id": 5715146919,
  "lat": 48.8054785,
  "lon": 2.4400887,
  "tags": {
    "STIF:zone": "3",
    "bench": "yes",
    "bin": "yes",
    "bus": "yes",
    "highway": "bus_stop",
    "lit": "yes",
    "name": "République - Général Leclerc",
    "public_transport": "platform",
    "ref:FR:STIF": "27541",
    "ref:FR:STIF:stop_id": "StopPoint:59:3619910",
    "route_ref": "217;372",
    "shelter": "yes",
    "source:wheelchair": "STIF 2019-01",
    "tactile_paving": "no",
    "wheelchair": "yes"
  }
},
{
  "type": "node",
  "id": 5715146920,
  "lat": 48.8054184,
  "lon": 2.4402174,
  "tags": {
    "STIF:zone": "3",
    "bench": "no",
    "bin": "no",
    "bus": "yes",
    "highway": "bus_stop",
    "lit": "yes",
    "name": "République - Général Leclerc",
    "public_transport": "platform",
    "ref:FR:STIF": "28717",
    "ref:FR:STIF:stop_id": "StopPoint:59:3619909",
    "route_ref": "217;372",
    "shelter": "no",
    "source:wheelchair": "STIF 2019-01",
    "tactile_paving": "yes",
    "wheelchair": "yes"
  }
},
{
  "type": "node",
  "id": 5715148621,
  "lat": 48.8100890,
  "lon": 2.4364127,
  "tags": {
    "STIF:zone": "3",
    "bus": "yes",
    "highway": "bus_stop",
    "name": "Gabriel Péri",
    "public_transport": "platform",
    "ref:FR:STIF": "28834",
    "ref:FR:STIF:stop_id": "StopPoint:59:3619945",
    "route_ref": "372;N35",
    "source:wheelchair": "STIF 2019-01",
    "wheelchair": "no"
  }
},
{
  "type": "node",
  "id": 5715148622,
  "lat": 48.8101296,
  "lon": 2.4379000,
  "tags": {
    "STIF:zone": "3",
    "bus": "yes",
    "highway": "bus_stop",
    "name": "Gabriel Péri",
    "public_transport": "platform",
    "ref:FR:STIF": "28196",
    "ref:FR:STIF:stop_id": "StopPoint:59:3619946",
    "route_ref": "372;N35",
    "source:wheelchair": "STIF 2019-01",
    "wheelchair": "no"
  }
},
{
  "type": "node",
  "id": 5715148623,
  "lat": 48.8099636,
  "lon": 2.4422023,
  "tags": {
    "STIF:zone": "3",
    "bus": "yes",
    "highway": "bus_stop",
    "name": "René Coty",
    "public_transport": "platform",
    "ref:FR:STIF": "28198",
    "ref:FR:STIF:stop_id": "StopPoint:59:3619947",
    "route_ref": "372",
    "source:wheelchair": "STIF 2019-01",
    "wheelchair": "no"
  }
},
{
  "type": "node",
  "id": 5715148624,
  "lat": 48.8100245,
  "lon": 2.4430458,
  "tags": {
    "STIF:zone": "3",
    "bench": "yes",
    "bus": "yes",
    "highway": "bus_stop",
    "name": "René Coty",
    "public_transport": "platform",
    "ref:FR:STIF": "28723",
    "ref:FR:STIF:stop_id": "StopPoint:59:3619948",
    "route_ref": "372;N35",
    "shelter": "yes",
    "source:wheelchair": "STIF 2019-01",
    "tactile_paving": "no",
    "wheelchair": "no"
  }
},
{
  "type": "node",
  "id": 5979593751,
  "lat": 48.8150933,
  "lon": 2.4183524,
  "tags": {
    "STIF:zone": "3",
    "bench": "yes",
    "bus": "yes",
    "highway": "bus_stop",
    "name": "Maisons-Alfort - École Vétérinaire",
    "public_transport": "platform",
    "ref:FR:STIF": "37158",
    "ref:FR:STIF:stop_id": "StopPoint:59:3686376",
    "route_ref": "103;125;325",
    "shelter": "yes",
    "source:wheelchair": "STIF 2019-01",
    "tactile_paving": "no",
    "wheelchair": "no"
  }
},
{
  "type": "node",
  "id": 5979593752,
  "lat": 48.8149256,
  "lon": 2.4182845,
  "tags": {
    "STIF:zone": "3",
    "bench": "yes",
    "bin": "yes",
    "bus": "yes",
    "highway": "bus_stop",
    "lit": "yes",
    "name": "Maisons-Alfort - École Vétérinaire",
    "public_transport": "platform",
    "ref:FR:STIF": "22651",
    "ref:FR:STIF:stop_id": "StopPoint:59:3686463",
    "route_ref": "103;125;325",
    "shelter": "yes",
    "source:wheelchair": "STIF 2019-01",
    "tactile_paving": "no",
    "wheelchair": "no"
  }
},
{
  "type": "node",
  "id": 6160020915,
  "lat": 48.8014206,
  "lon": 2.4309993,
  "tags": {
    "STIF:zone": "3",
    "bench": "yes",
    "bin": "yes",
    "bus": "yes",
    "fixme": "position approximative",
    "highway": "bus_stop",
    "lit": "no",
    "name": "Maisons-Alfort - Alfortville Noctilien",
    "public_transport": "platform",
    "ref:FR:STIF": "411300",
    "ref:FR:STIF:stop_id": "StopPoint:800:8759046",
    "route_ref": "N132;N134",
    "shelter": "yes",
    "tactile_paving": "no"
  }
},
{
  "type": "node",
  "id": 6161038762,
  "lat": 48.8031584,
  "lon": 2.4338840,
  "tags": {
    "STIF:zone": "3",
    "bench": "yes",
    "bus": "yes",
    "fixme": "position approximative",
    "highway": "bus_stop",
    "lit": "yes",
    "name": "Maisons-Alfort - Alfortville Noctilien",
    "public_transport": "platform",
    "ref:FR:STIF": "411300",
    "ref:FR:STIF:stop_id": "StopPoint:800:8759046R",
    "route_ref": "N132;N134",
    "shelter": "yes",
    "tactile_paving": "no"
  }
},
{
  "type": "node",
  "id": 6269446947,
  "lat": 48.8095590,
  "lon": 2.4549400,
  "tags": {
    "STIF:zone": "3",
    "bus": "yes",
    "highway": "bus_stop",
    "name": "Pont de Maisons-Alfort",
    "public_transport": "platform",
    "ref:FR:STIF": "39431",
    "ref:FR:STIF:stop_id": "StopPoint:59:3663629",
    "route_ref": "281;107;372",
    "source:wheelchair": "STIF 2019-01",
    "wheelchair": "yes"
  }
},
{
  "type": "node",
  "id": 6325282818,
  "lat": 48.8152910,
  "lon": 2.4254890,
  "tags": {
    "STIF:zone": "3",
    "bus": "yes",
    "highway": "bus_stop",
    "name": "Paul Bert",
    "public_transport": "platform",
    "ref:FR:STIF": "39530",
    "ref:FR:STIF:stop_id": "StopPoint:59:3663712",
    "route_ref": "107"
  }
},
{
  "type": "node",
  "id": 6325282819,
  "lat": 48.8154726,
  "lon": 2.4324786,
  "tags": {
    "STIF:zone": "3",
    "bus": "yes",
    "highway": "bus_stop",
    "name": "Les 7 Arbres",
    "public_transport": "platform",
    "ref:FR:STIF": "27576",
    "ref:FR:STIF:stop_id": "StopPoint:59:3663711",
    "route_ref": "107"
  }
},
{
  "type": "node",
  "id": 6325282820,
  "lat": 48.8117800,
  "lon": 2.4436640,
  "tags": {
    "STIF:zone": "3",
    "bus": "yes",
    "highway": "bus_stop",
    "name": "Concorde",
    "public_transport": "platform",
    "ref:FR:STIF": "12369",
    "ref:FR:STIF:stop_id": "StopPoint:59:3663708",
    "route_ref": "107"
  }
},
{
  "type": "node",
  "id": 6325282821,
  "lat": 48.8101971,
  "lon": 2.4435984,
  "tags": {
    "STIF:zone": "3",
    "bus": "yes",
    "highway": "bus_stop",
    "name": "René Coty",
    "public_transport": "platform",
    "ref:FR:STIF": "12370",
    "ref:FR:STIF:stop_id": "StopPoint:59:3663632",
    "route_ref": "107",
    "shelter": "yes"
  }
},
{
  "type": "node",
  "id": 6325282822,
  "lat": 48.8098269,
  "lon": 2.4516956,
  "tags": {
    "STIF:zone": "3",
    "bus": "yes",
    "highway": "bus_stop",
    "name": "Lyon",
    "public_transport": "platform",
    "ref:FR:STIF": "27570",
    "ref:FR:STIF:stop_id": "StopPoint:59:3663630",
    "route_ref": "107;N35",
    "shelter": "yes"
  }
},
{
  "type": "node",
  "id": 6325282827,
  "lat": 48.8079750,
  "lon": 2.4561200,
  "tags": {
    "STIF:zone": "3",
    "bus": "yes",
    "highway": "bus_stop",
    "name": "Planètes",
    "public_transport": "platform",
    "ref:FR:STIF": "39432",
    "ref:FR:STIF:stop_id": "StopPoint:59:3663575",
    "route_ref": "107"
  }
},
{
  "type": "node",
  "id": 6325282828,
  "lat": 48.8091741,
  "lon": 2.4532691,
  "tags": {
    "STIF:zone": "3",
    "bus": "yes",
    "highway": "bus_stop",
    "name": "Pont de Maisons-Alfort",
    "public_transport": "platform",
    "ref:FR:STIF": "27563",
    "ref:FR:STIF:stop_id": "StopPoint:59:3663574",
    "route_ref": "107;372",
    "source:wheelchair": "STIF 2019-01",
    "wheelchair": "no"
  }
},
{
  "type": "node",
  "id": 6325282829,
  "lat": 48.8097238,
  "lon": 2.4524167,
  "tags": {
    "STIF:zone": "3",
    "bus": "yes",
    "highway": "bus_stop",
    "name": "Lyon",
    "public_transport": "platform",
    "ref:FR:STIF": "27564",
    "ref:FR:STIF:stop_id": "StopPoint:59:3663573",
    "route_ref": "107;N35"
  }
},
{
  "type": "node",
  "id": 6325282831,
  "lat": 48.8153627,
  "lon": 2.4320910,
  "tags": {
    "STIF:zone": "3",
    "bus": "yes",
    "highway": "bus_stop",
    "name": "Les 7 Arbres",
    "public_transport": "platform",
    "ref:FR:STIF": "27575",
    "ref:FR:STIF:stop_id": "StopPoint:59:3663596",
    "route_ref": "107"
  }
},
{
  "type": "node",
  "id": 6325282832,
  "lat": 48.8156124,
  "lon": 2.4262021,
  "tags": {
    "STIF:zone": "3",
    "bus": "yes",
    "highway": "bus_stop",
    "name": "Paul Bert",
    "public_transport": "platform",
    "ref:FR:STIF": "27565",
    "ref:FR:STIF:stop_id": "StopPoint:59:3663595",
    "route_ref": "107"
  }
},
{
  "type": "node",
  "id": 6325306162,
  "lat": 48.8112770,
  "lon": 2.4440570,
  "tags": {
    "STIF:zone": "3",
    "bus": "yes",
    "highway": "bus_stop",
    "name": "René Coty",
    "public_transport": "platform",
    "ref:FR:STIF": "27573",
    "ref:FR:STIF:stop_id": "StopPoint:59:3663675",
    "route_ref": "107",
    "wheelchair": "yes"
  }
},
{
  "type": "node",
  "id": 6371885872,
  "lat": 48.8030317,
  "lon": 2.4346559,
  "tags": {
    "STIF:zone": "3",
    "bench": "yes",
    "bus": "yes",
    "highway": "bus_stop",
    "lit": "yes",
    "name": "République - Blum",
    "public_transport": "platform",
    "ref:FR:STIF": "27718",
    "ref:FR:STIF:stop_id": "StopPoint:59:3619905",
    "route_ref": "217;372",
    "shelter": "yes",
    "source:wheelchair": "STIF 2019-01",
    "tactile_paving": "yes",
    "wheelchair": "yes"
  }
},
{
  "type": "node",
  "id": 6375464591,
  "lat": 48.8051570,
  "lon": 2.4320030,
  "tags": {
    "STIF:zone": "3",
    "bench": "yes",
    "bus": "yes",
    "highway": "bus_stop",
    "name": "11 Novembre 1918",
    "public_transport": "platform",
    "ref:FR:STIF": "39603",
    "ref:FR:STIF:stop_id": "StopPoint:59:3619779",
    "route_ref": "181",
    "shelter": "yes",
    "source:wheelchair": "STIF 2019-01",
    "tactile_paving": "no",
    "wheelchair": "yes"
  }
},
{
  "type": "node",
  "id": 6375464592,
  "lat": 48.8001869,
  "lon": 2.4350479,
  "tags": {
    "STIF:zone": "3",
    "bus": "yes",
    "highway": "bus_stop",
    "name": "Hugo - Blum",
    "public_transport": "platform",
    "ref:FR:STIF": "28793",
    "ref:FR:STIF:stop_id": "StopPoint:59:3619777",
    "route_ref": "181",
    "shelter": "yes",
    "source:wheelchair": "STIF 2019-01",
    "tactile_paving": "no",
    "wheelchair": "yes"
  }
},
{
  "type": "node",
  "id": 6375464595,
  "lat": 48.7934239,
  "lon": 2.4342388,
  "tags": {
    "STIF:zone": "3",
    "bench": "no",
    "bin": "no",
    "bus": "yes",
    "highway": "bus_stop",
    "lit": "no",
    "name": "Belfort",
    "public_transport": "platform",
    "ref:FR:STIF": "39607",
    "ref:FR:STIF:stop_id": "StopPoint:59:3619754",
    "route_ref": "181",
    "shelter": "yes",
    "source:wheelchair": "STIF 2019-01",
    "tactile_paving": "yes",
    "wheelchair": "yes"
  }
},
{
  "type": "node",
  "id": 6382719095,
  "lat": 48.7997444,
  "lon": 2.4423307,
  "tags": {
    "STIF:zone": "3",
    "bus": "yes",
    "highway": "bus_stop",
    "name": "Collège de Staël",
    "public_transport": "platform",
    "ref:FR:STIF": "39437",
    "ref:FR:STIF:stop_id": "StopPoint:59:3619936",
    "route_ref": "372",
    "source:wheelchair": "STIF 2019-01",
    "wheelchair": "no"
  }
},
{
  "type": "node",
  "id": 6382719096,
  "lat": 48.8038566,
  "lon": 2.4429376,
  "tags": {
    "STIF:zone": "3",
    "bench": "no",
    "bus": "yes",
    "highway": "bus_stop",
    "name": "Les Juilliottes-Métro",
    "public_transport": "platform",
    "ref:FR:STIF": "39435",
    "ref:FR:STIF:stop_id": "StopPoint:59:3619938",
    "route_ref": "372",
    "shelter": "no",
    "source:wheelchair": "STIF 2019-01",
    "tactile_paving": "no",
    "wheelchair": "no"
  }
},
{
  "type": "node",
  "id": 6382719097,
  "lat": 48.8037308,
  "lon": 2.4429740,
  "tags": {
    "STIF:zone": "3",
    "bench": "no",
    "bus": "yes",
    "highway": "bus_stop",
    "name": "Les Juilliottes-Métro",
    "public_transport": "platform",
    "ref:FR:STIF": "39436",
    "ref:FR:STIF:stop_id": "StopPoint:59:3619937",
    "route_ref": "372",
    "shelter": "no",
    "source:wheelchair": "STIF 2019-01",
    "tactile_paving": "no",
    "wheelchair": "no"
  }
},
{
  "type": "node",
  "id": 6382719098,
  "lat": 48.7996379,
  "lon": 2.4423628,
  "tags": {
    "STIF:zone": "3",
    "bus": "yes",
    "highway": "bus_stop",
    "name": "Collège de Staël",
    "public_transport": "platform",
    "ref:FR:STIF": "39434",
    "ref:FR:STIF:stop_id": "StopPoint:59:3619935",
    "route_ref": "372",
    "source:wheelchair": "STIF 2019-01",
    "wheelchair": "no"
  }
}

  ]
}
