{
  "version": 0.6,
  "generator": "Overpass API 0.7.57.1 74a55df1",
  "osm3s": {
    "timestamp_osm_base": "2022-02-13T13:18:30Z",
    "timestamp_areas_base": "2022-02-13T02:36:10Z",
    "copyright": "The data included in this document is from www.openstreetmap.org. The data is made available under ODbL."
  },
  "elements": [

{
  "type": "node",
  "id": 629569668,
  "lat": 48.8388276,
  "lon": 2.2507477,
  "tags": {
    "STIF:zone": "2",
    "bench": "yes",
    "bin": "yes",
    "bus": "yes",
    "highway": "bus_stop",
    "name": "La Tourelle",
    "public_transport": "platform",
    "ref:FR:STIF": "24019",
    "ref:FR:STIF:stop_id": "StopPoint:59:7899695",
    "route_ref": "72",
    "shelter": "yes",
    "source:wheelchair": "STIF 2019-01",
    "tactile_paving": "no",
    "wheelchair": "no"
  }
},
{
  "type": "node",
  "id": 868418553,
  "lat": 48.8348228,
  "lon": 2.2280558,
  "tags": {
    "STIF:zone": "2",
    "bus": "yes",
    "highway": "bus_stop",
    "name": "Gallieni",
    "public_transport": "platform",
    "ref:FR:STIF": "40066",
    "ref:FR:STIF:stop_id": "StopPoint:59:4024985",
    "route_ref": "467",
    "shelter": "yes",
    "source": "survey",
    "source:wheelchair": "STIF 2019-01",
    "wheelchair": "yes"
  }
},
{
  "type": "node",
  "id": 894104647,
  "lat": 48.8330738,
  "lon": 2.2437336,
  "tags": {
    "STIF:zone": "2",
    "bench": "yes",
    "bus": "yes",
    "highway": "bus_stop",
    "name": "Marcel Sembat",
    "public_transport": "platform",
    "ref:FR:STIF": "28129",
    "ref:FR:STIF:stop_id": "StopPoint:59:3681810",
    "route_ref": "123",
    "shelter": "yes",
    "source": "survey 2019-03",
    "source:wheelchair": "STIF 2019-01",
    "tactile_paving": "yes",
    "wheelchair": "yes"
  }
},
{
  "type": "node",
  "id": 901762730,
  "lat": 48.8464458,
  "lon": 2.2468062,
  "tags": {
    "STIF:zone": "2",
    "bench": "yes",
    "bin": "no",
    "bus": "yes",
    "bus_stop:type": "Abri autobus 4x1,60",
    "highway": "bus_stop",
    "name": "Rue des Pins",
    "public_transport": "platform",
    "ref:FR:STIF": "24035",
    "ref:FR:STIF:stop_id": "StopPoint:59:3681825",
    "route_ref": "123",
    "shelter": "yes",
    "source": "survey 2019-03",
    "source:position": "BDOrtho IGN 2019",
    "source:wheelchair": "STIF 2019-01",
    "tactile_paving": "no",
    "wheelchair": "yes"
  }
},
{
  "type": "node",
  "id": 901762798,
  "lat": 48.8456002,
  "lon": 2.2500929,
  "tags": {
    "STIF:zone": "2",
    "bench": "yes",
    "bin": "no",
    "bus": "yes",
    "bus_stop:type": "Abri autobus 4x1,60",
    "highway": "bus_stop",
    "name": "Stade Roland Garros",
    "public_transport": "platform",
    "ref:FR:STIF": "24036",
    "ref:FR:STIF:stop_id": "StopPoint:59:3681827",
    "route_ref": "123",
    "shelter": "yes",
    "source": "survey 2019-03",
    "source:position": "BDOrtho IGN 2019",
    "source:wheelchair": "STIF 2019-01",
    "tactile_paving": "no",
    "wheelchair": "yes"
  }
},
{
  "type": "node",
  "id": 913773267,
  "lat": 48.8473676,
  "lon": 2.2332900,
  "tags": {
    "STIF:zone": "2",
    "bench": "yes",
    "bus": "yes",
    "highway": "bus_stop",
    "lit": "yes",
    "name": "Parc - Edmond de Rothschild",
    "public_transport": "platform",
    "ref:FR:STIF": "427353",
    "ref:FR:STIF:stop_id": "StopPoint:59:7131577",
    "route_ref": "SUBB",
    "shelter": "yes",
    "source:wheelchair": "STIF 2019-01",
    "wheelchair": "yes"
  }
},
{
  "type": "node",
  "id": 923487690,
  "lat": 48.8472595,
  "lon": 2.2428542,
  "tags": {
    "STIF:zone": "2",
    "bus": "yes",
    "highway": "bus_stop",
    "name": "Gambetta - Porte de Boulogne",
    "public_transport": "platform",
    "ref:FR:STIF": "427354",
    "ref:FR:STIF:stop_id": "StopPoint:59:7131573",
    "route_ref": "SUBB",
    "shelter": "no",
    "source": "survey",
    "source:wheelchair": "STIF 2019-01",
    "tactile_paving": "no",
    "wheelchair": "yes"
  }
},
{
  "type": "node",
  "id": 923487706,
  "lat": 48.8436704,
  "lon": 2.2461277,
  "tags": {
    "STIF:zone": "2",
    "bus": "yes",
    "highway": "bus_stop",
    "name": "Place Denfert-Rochereau",
    "public_transport": "platform",
    "ref:FR:STIF": "25710",
    "ref:FR:STIF:stop_id": "StopPoint:59:7131572",
    "route_ref": "SUBB;SUBB",
    "source": "survey",
    "source:wheelchair": "STIF 2019-01",
    "tactile_paving": "no",
    "wheelchair": "yes",
    "wikidata": "Q56870876"
  }
},
{
  "type": "node",
  "id": 923487710,
  "lat": 48.8492165,
  "lon": 2.2401333,
  "tags": {
    "STIF:zone": "2",
    "bus": "yes",
    "highway": "bus_stop",
    "name": "Alsace-Lorraine",
    "public_transport": "platform",
    "ref:FR:STIF": "427355",
    "ref:FR:STIF:stop_id": "StopPoint:59:7131574",
    "route_ref": "SUBB",
    "source": "survey",
    "source:wheelchair": "STIF 2019-01",
    "wheelchair": "yes",
    "wikidata": "Q56870690"
  }
},
{
  "type": "node",
  "id": 923487732,
  "lat": 48.8483948,
  "lon": 2.2414079,
  "tags": {
    "STIF:zone": "2",
    "bench": "yes",
    "bin": "no",
    "bus": "yes",
    "check_date:shelter": "2021-08-29",
    "departures_board": "yes",
    "highway": "bus_stop",
    "name": "Gambetta",
    "public_transport": "platform",
    "ref:FR:STIF": "19771",
    "ref:FR:STIF:stop_id": "StopPoint:59:3681823",
    "route_ref": "123;241",
    "shelter": "yes",
    "source": "survey 2019-03",
    "source:position": "BDOrtho IGN 2019",
    "source:wheelchair": "STIF 2019-01",
    "wheelchair": "yes"
  }
},
{
  "type": "node",
  "id": 923487796,
  "lat": 48.8501911,
  "lon": 2.2381718,
  "tags": {
    "STIF:zone": "2",
    "bus": "yes",
    "bus_stop:type": "Abri autobus 4x1,60",
    "highway": "bus_stop",
    "name": "Hôpital Ambroise Paré",
    "public_transport": "platform",
    "ref:FR:STIF": "36838",
    "ref:FR:STIF:stop_id": "StopPoint:59:4024532",
    "route_ref": "241",
    "shelter": "yes",
    "source": "Bing",
    "source:position": "opendata.paris.fr - 04/2011",
    "source:wheelchair": "STIF 2019-01",
    "wheelchair": "yes"
  }
},
{
  "type": "node",
  "id": 940119667,
  "lat": 48.8395841,
  "lon": 2.2405064,
  "tags": {
    "STIF:zone": "2",
    "bench": "yes",
    "bin": "no",
    "bus": "yes",
    "highway": "bus_stop",
    "name": "Route de la Reine - Jean Jaurès",
    "public_transport": "platform",
    "ref:FR:STIF": "25542",
    "ref:FR:STIF:stop_id": "StopPoint:59:7899717",
    "route_ref": "72;123",
    "shelter": "yes",
    "source:wheelchair": "STIF 2019-01",
    "tactile_paving": "no",
    "wheelchair": "no"
  }
},
{
  "type": "node",
  "id": 990033851,
  "lat": 48.8408942,
  "lon": 2.2474438,
  "tags": {
    "STIF:zone": "2",
    "bus": "yes",
    "highway": "bus_stop",
    "name": "Rond-Point André Malraux",
    "public_transport": "platform",
    "ref:FR:STIF": "35197",
    "ref:FR:STIF:stop_id": "StopPoint:59:7131571",
    "route_ref": "SUBB",
    "source": "survey",
    "source:wheelchair": "STIF 2019-01",
    "tactile_paving": "no",
    "wheelchair": "yes",
    "wikidata": "Q56870838"
  }
},
{
  "type": "node",
  "id": 993642140,
  "lat": 48.8386070,
  "lon": 2.2514097,
  "tags": {
    "STIF:zone": "2",
    "bench": "yes",
    "bin": "yes",
    "bus": "yes",
    "highway": "bus_stop",
    "name": "La Tourelle",
    "public_transport": "platform",
    "ref:FR:STIF": "24017",
    "ref:FR:STIF:stop_id": "StopPoint:59:5727681",
    "route_ref": "72",
    "shelter": "yes",
    "source:wheelchair": "STIF 2019-01",
    "tactile_paving": "no",
    "wheelchair": "no"
  }
},
{
  "type": "node",
  "id": 994059139,
  "lat": 48.8372677,
  "lon": 2.2415225,
  "tags": {
    "STIF:zone": "2",
    "bench": "yes",
    "bus": "yes",
    "highway": "bus_stop",
    "name": "Gallieni",
    "public_transport": "platform",
    "ref:FR:STIF": "18716",
    "ref:FR:STIF:stop_id": "StopPoint:59:3681811",
    "route_ref": "123",
    "shelter": "yes",
    "source": "survey 2019-03",
    "source:wheelchair": "STIF 2019-01",
    "wheelchair": "yes"
  }
},
{
  "type": "node",
  "id": 995502858,
  "lat": 48.8257600,
  "lon": 2.2478708,
  "tags": {
    "STIF:zone": "2",
    "bench": "yes",
    "bus": "yes",
    "highway": "bus_stop",
    "name": "Pont de Billancourt",
    "public_transport": "platform",
    "ref:FR:STIF": "28122",
    "ref:FR:STIF:stop_id": "StopPoint:59:3681804",
    "route_ref": "123",
    "shelter": "yes",
    "source": "survey 2019-03",
    "source:position": "BDOrtho IGN 2019"
  }
},
{
  "type": "node",
  "id": 997119339,
  "lat": 48.8286200,
  "lon": 2.2462389,
  "tags": {
    "STIF:zone": "2",
    "bench": "yes",
    "bus": "yes",
    "highway": "bus_stop",
    "name": "Rue du Point du Jour",
    "public_transport": "platform",
    "ref:FR:STIF": "28127",
    "ref:FR:STIF:stop_id": "StopPoint:59:3681852",
    "route_ref": "123",
    "shelter": "yes",
    "source": "survey 2019-03",
    "source:position": "BDOrtho IGN 2019",
    "source:wheelchair": "STIF 2019-01",
    "wheelchair": "yes"
  }
},
{
  "type": "node",
  "id": 997119780,
  "lat": 48.8291339,
  "lon": 2.2461304,
  "tags": {
    "STIF:zone": "2",
    "bench": "yes",
    "bus": "yes",
    "highway": "bus_stop",
    "name": "Rue du Point du Jour",
    "public_transport": "platform",
    "ref:FR:STIF": "40822",
    "ref:FR:STIF:stop_id": "StopPoint:59:3681805",
    "route_ref": "123",
    "shelter": "yes",
    "source": "survey 2019-03",
    "source:wheelchair": "STIF 2019-01",
    "tactile_paving": "no",
    "wheelchair": "yes"
  }
},
{
  "type": "node",
  "id": 998662094,
  "lat": 48.8276634,
  "lon": 2.2416630,
  "tags": {
    "STIF:zone": "2",
    "bus": "yes",
    "highway": "bus_stop",
    "name": "Place Jules Guesde",
    "public_transport": "platform",
    "ref:FR:STIF": "25697",
    "ref:FR:STIF:stop_id": "StopPoint:59:7131595",
    "route_ref": "SUBB",
    "shelter": "yes",
    "source": "survey",
    "source:wheelchair": "STIF 2019-01",
    "wheelchair": "yes"
  }
},
{
  "type": "node",
  "id": 998797561,
  "lat": 48.8305694,
  "lon": 2.2451404,
  "tags": {
    "STIF:zone": "2",
    "bench": "yes",
    "bus": "yes",
    "highway": "bus_stop",
    "name": "Dôme",
    "public_transport": "platform",
    "ref:FR:STIF": "28121",
    "ref:FR:STIF:stop_id": "StopPoint:59:3681808",
    "route_ref": "123",
    "shelter": "yes",
    "source": "survey 2019-03",
    "source:wheelchair": "STIF 2019-01",
    "tactile_paving": "no",
    "wheelchair": "yes"
  }
},
{
  "type": "node",
  "id": 1000073217,
  "lat": 48.8339767,
  "lon": 2.2428496,
  "tags": {
    "STIF:zone": "2",
    "bench": "yes",
    "bin": "yes",
    "bus": "yes",
    "departures_board": "realtime",
    "highway": "bus_stop",
    "name": "Marcel Sembat-Métro",
    "public_transport": "platform",
    "ref:FR:STIF": "40608",
    "ref:FR:STIF:stop_id": "StopPoint:59:3442582",
    "route_ref": "126;175",
    "shelter": "yes",
    "source:wheelchair": "STIF 2019-01",
    "wheelchair": "yes"
  }
},
{
  "type": "node",
  "id": 1000073261,
  "lat": 48.8342797,
  "lon": 2.2426166,
  "tags": {
    "STIF:zone": "2",
    "bench": "yes",
    "bin": "yes",
    "bus": "yes",
    "departures_board": "realtime",
    "highway": "bus_stop",
    "lit": "yes",
    "name": "Marcel Sembat-Métro",
    "public_transport": "platform",
    "ref:FR:STIF": "7832",
    "ref:FR:STIF:stop_id": "StopPoint:59:3442581",
    "route_ref": "175;126",
    "shelter": "yes",
    "source:wheelchair": "STIF 2019-01",
    "wheelchair": "yes"
  }
},
{
  "type": "node",
  "id": 1000073287,
  "lat": 48.8355962,
  "lon": 2.2396924,
  "tags": {
    "STIF:zone": "2",
    "bus": "yes",
    "highway": "bus_stop",
    "name": "Hôtel de Ville de Boulogne-Billancourt",
    "public_transport": "platform",
    "ref:FR:STIF": "9271",
    "ref:FR:STIF:stop_id": "StopPoint:59:3442584",
    "route_ref": "126;175",
    "source:wheelchair": "STIF 2019-01",
    "wheelchair": "no"
  }
},
{
  "type": "node",
  "id": 1004498932,
  "lat": 48.8359847,
  "lon": 2.2387297,
  "tags": {
    "STIF:zone": "2",
    "bench": "yes",
    "bus": "yes",
    "highway": "bus_stop",
    "name": "Hôtel de Ville de Boulogne-Billancourt",
    "public_transport": "platform",
    "ref:FR:STIF": "9271",
    "ref:FR:STIF:stop_id": "StopPoint:59:7827021",
    "route_ref": "26;389",
    "shelter": "yes",
    "source": "survey"
  }
},
{
  "type": "node",
  "id": 1004498959,
  "lat": 48.8382268,
  "lon": 2.2338717,
  "tags": {
    "STIF:zone": "2",
    "bus": "yes",
    "highway": "bus_stop",
    "name": "Ancienne Mairie de Boulogne-Billancourt",
    "public_transport": "platform",
    "ref:FR:STIF": "27720",
    "ref:FR:STIF:stop_id": "StopPoint:59:3442585",
    "route_ref": "175",
    "source:wheelchair": "STIF 2019-01",
    "wheelchair": "no"
  }
},
{
  "type": "node",
  "id": 1004499008,
  "lat": 48.8377429,
  "lon": 2.2346131,
  "tags": {
    "STIF:zone": "2",
    "bus": "yes",
    "highway": "bus_stop",
    "name": "Ancienne Mairie de Boulogne-Billancourt",
    "public_transport": "platform",
    "ref:FR:STIF": "37780",
    "ref:FR:STIF:stop_id": "StopPoint:59:3442586",
    "route_ref": "175",
    "source:wheelchair": "STIF 2019-01",
    "wheelchair": "no"
  }
},
{
  "type": "node",
  "id": 1004499027,
  "lat": 48.8400568,
  "lon": 2.2286079,
  "tags": {
    "STIF:zone": "2",
    "bench": "no",
    "bus": "yes",
    "check_date:shelter": "2021-09-12",
    "highway": "bus_stop",
    "name": "Rhin et Danube - Béranger",
    "public_transport": "platform",
    "ref:FR:STIF": "427234",
    "ref:FR:STIF:stop_id": "StopPoint:59:4024988",
    "route_ref": "467",
    "shelter": "no",
    "source": "survey",
    "source:wheelchair": "STIF 2019-01",
    "wheelchair": "yes"
  }
},
{
  "type": "node",
  "id": 1005362275,
  "lat": 48.8349472,
  "lon": 2.2475027,
  "tags": {
    "STIF:zone": "2",
    "bench": "yes",
    "bin": "no",
    "bus": "yes",
    "departures_board": "timetable",
    "highway": "bus_stop",
    "lit": "yes",
    "name": "René Descartes",
    "public_transport": "platform",
    "ref:FR:STIF": "8126",
    "ref:FR:STIF:stop_id": "StopPoint:59:7913276",
    "route_ref": "175;N61;42",
    "shelter": "yes",
    "source:wheelchair": "STIF 2019-01",
    "tactile_paving": "no",
    "wheelchair": "yes"
  }
},
{
  "type": "node",
  "id": 1005362300,
  "lat": 48.8347563,
  "lon": 2.2474597,
  "tags": {
    "STIF:zone": "2",
    "bench": "yes",
    "bin": "yes",
    "bus": "yes",
    "departures_board": "timetable",
    "highway": "bus_stop",
    "lit": "yes",
    "name": "René Descartes",
    "public_transport": "platform",
    "ref:FR:STIF": "25510",
    "ref:FR:STIF:stop_id": "StopPoint:59:7913277",
    "route_ref": "42;175;N12;N61",
    "shelter": "yes",
    "source:wheelchair": "STIF 2019-01",
    "tactile_paving": "no",
    "wheelchair": "yes"
  }
},
{
  "type": "node",
  "id": 1006137518,
  "lat": 48.8299962,
  "lon": 2.2395406,
  "tags": {
    "STIF:zone": "2",
    "bus": "yes",
    "highway": "bus_stop",
    "name": "Place Bir-Hakeim",
    "public_transport": "platform",
    "ref:FR:STIF": "25701",
    "ref:FR:STIF:stop_id": "StopPoint:59:7131596",
    "route_ref": "SUBB",
    "source:wheelchair": "STIF 2019-01",
    "wheelchair": "yes",
    "wikidata": "Q56870779"
  }
},
{
  "type": "node",
  "id": 1011083693,
  "lat": 48.8311664,
  "lon": 2.2303088,
  "tags": {
    "STIF:zone": "2",
    "bench": "yes",
    "bus": "yes",
    "highway": "bus_stop",
    "name": "Maréchal Juin",
    "old_name": "Sous-Préfecture",
    "public_transport": "platform",
    "ref:FR:STIF": "25973",
    "ref:FR:STIF:stop_id": "StopPoint:59:4024983",
    "route_ref": "467",
    "shelter": "yes",
    "source": "survey",
    "source:wheelchair": "STIF 2019-01",
    "start_date": "23/11/2021",
    "wheelchair": "yes"
  }
},
{
  "type": "node",
  "id": 1011083775,
  "lat": 48.8314235,
  "lon": 2.2302874,
  "tags": {
    "STIF:zone": "2",
    "bench": "yes",
    "bus": "yes",
    "highway": "bus_stop",
    "lit": "yes",
    "name": "Maréchal Juin",
    "old_name": "Sous-Préfecture",
    "public_transport": "platform",
    "ref:FR:STIF": "25976",
    "ref:FR:STIF:stop_id": "StopPoint:59:4024982",
    "route_ref": "467",
    "shelter": "yes",
    "source": "survey",
    "source:wheelchair": "STIF 2019-01",
    "start_date": "23/11/2021",
    "wheelchair": "yes"
  }
},
{
  "type": "node",
  "id": 1012296758,
  "lat": 48.8401299,
  "lon": 2.2343307,
  "tags": {
    "STIF:zone": "2",
    "bench": "yes",
    "bin": "no",
    "bus": "yes",
    "highway": "bus_stop",
    "name": "Ancienne Mairie de Boulogne-Billancourt",
    "public_transport": "platform",
    "ref:FR:STIF": "25544",
    "ref:FR:STIF:stop_id": "StopPoint:59:7899716",
    "route_ref": "72",
    "shelter": "yes",
    "source:wheelchair": "STIF 2019-01",
    "tactile_paving": "no",
    "wheelchair": "no"
  }
},
{
  "type": "node",
  "id": 1013351515,
  "lat": 48.8402767,
  "lon": 2.2344835,
  "tags": {
    "STIF:zone": "2",
    "bench": "yes",
    "bin": "yes",
    "bus": "yes",
    "highway": "bus_stop",
    "name": "Ancienne Mairie de Boulogne-Billancourt",
    "public_transport": "platform",
    "ref:FR:STIF": "27219",
    "ref:FR:STIF:stop_id": "StopPoint:59:7899698",
    "route_ref": "72",
    "shelter": "yes",
    "source:wheelchair": "STIF 2019-01",
    "tactile_paving": "no",
    "wheelchair": "no"
  }
},
{
  "type": "node",
  "id": 1013351521,
  "lat": 48.8405289,
  "lon": 2.2294881,
  "tags": {
    "STIF:zone": "2",
    "bench": "yes",
    "bin": "no",
    "bus": "yes",
    "highway": "bus_stop",
    "name": "Rhin et Danube",
    "public_transport": "platform",
    "ref:FR:STIF": "420439",
    "ref:FR:STIF:stop_id": "StopPoint:59:5727689",
    "route_ref": "72",
    "shelter": "yes",
    "source:wheelchair": "STIF 2019-01",
    "tactile_paving": "no",
    "wheelchair": "no"
  }
},
{
  "type": "node",
  "id": 1015855656,
  "lat": 48.8398365,
  "lon": 2.2393218,
  "tags": {
    "STIF:zone": "2",
    "bench": "yes",
    "bus": "yes",
    "highway": "bus_stop",
    "name": "Route de la Reine - Jean Jaurès",
    "public_transport": "platform",
    "ref:FR:STIF": "25545",
    "ref:FR:STIF:stop_id": "StopPoint:59:5727684",
    "route_ref": "72",
    "shelter": "yes",
    "source:wheelchair": "STIF 2019-01",
    "wheelchair": "no"
  }
},
{
  "type": "node",
  "id": 1018176324,
  "lat": 48.8432704,
  "lon": 2.2379403,
  "tags": {
    "STIF:zone": "2",
    "bench": "yes",
    "bus": "yes",
    "highway": "bus_stop",
    "name": "Escudier - Marché",
    "public_transport": "platform",
    "ref:FR:STIF": "28128",
    "ref:FR:STIF:stop_id": "StopPoint:59:3681818",
    "route_ref": "123",
    "shelter": "yes",
    "source": "survey 2019-03",
    "source:wheelchair": "STIF 2019-01",
    "wheelchair": "yes"
  }
},
{
  "type": "node",
  "id": 1018176353,
  "lat": 48.8424774,
  "lon": 2.2385597,
  "tags": {
    "STIF:zone": "2",
    "bench": "yes",
    "bus": "yes",
    "highway": "bus_stop",
    "name": "Jean Jaurès",
    "public_transport": "platform",
    "ref:FR:STIF": "28125",
    "ref:FR:STIF:stop_id": "StopPoint:59:3681815",
    "route_ref": "123",
    "shelter": "yes",
    "source": "survey 2019-03",
    "source:position": "BDOrtho IGN 2019",
    "source:wheelchair": "STIF 2019-01",
    "wheelchair": "yes"
  }
},
{
  "type": "node",
  "id": 1027996003,
  "lat": 48.8443859,
  "lon": 2.2375896,
  "tags": {
    "STIF:zone": "2",
    "bench": "yes",
    "bus": "yes",
    "highway": "bus_stop",
    "name": "Escudier - Marché",
    "public_transport": "platform",
    "ref:FR:STIF": "39566",
    "ref:FR:STIF:stop_id": "StopPoint:59:3681817",
    "route_ref": "123",
    "shelter": "yes",
    "source": "survey 2019-03",
    "source:position": "BDOrtho IGN 2019",
    "source:wheelchair": "STIF 2019-01",
    "wheelchair": "yes"
  }
},
{
  "type": "node",
  "id": 1036592698,
  "lat": 48.8317508,
  "lon": 2.2379258,
  "tags": {
    "STIF:zone": "2",
    "bus": "yes",
    "highway": "bus_stop",
    "name": "Billancourt",
    "public_transport": "platform",
    "ref:FR:STIF": "39459",
    "ref:FR:STIF:stop_id": "StopPoint:59:6591510",
    "route_ref": "N12;N61",
    "source:wheelchair": "STIF 2019-01",
    "wheelchair": "yes"
  }
},
{
  "type": "node",
  "id": 1037173769,
  "lat": 48.8456249,
  "lon": 2.2369848,
  "tags": {
    "STIF:zone": "2",
    "bench": "yes",
    "bin": "no",
    "bus": "yes",
    "check_date:shelter": "2021-06-20",
    "highway": "bus_stop",
    "name": "Église de Boulogne-Billancourt",
    "public_transport": "platform",
    "ref:FR:STIF": "28123",
    "ref:FR:STIF:stop_id": "StopPoint:59:3681820",
    "route_ref": "123",
    "shelter": "yes",
    "source": "survey 2019-03",
    "source:wheelchair": "STIF 2019-01",
    "tactile_paving": "no",
    "wheelchair": "yes"
  }
},
{
  "type": "node",
  "id": 1038210023,
  "lat": 48.8419701,
  "lon": 2.2384416,
  "tags": {
    "STIF:zone": "2",
    "bus": "yes",
    "highway": "bus_stop",
    "name": "Jean Jaurès",
    "public_transport": "platform",
    "ref:FR:STIF": "25424",
    "ref:FR:STIF:stop_id": "StopPoint:59:4008260",
    "route_ref": "52",
    "source": "survey",
    "source:wheelchair": "STIF 2019-01",
    "wheelchair": "yes"
  }
},
{
  "type": "node",
  "id": 1038210066,
  "lat": 48.8417258,
  "lon": 2.2388297,
  "tags": {
    "STIF:zone": "2",
    "bench": "yes",
    "bus": "yes",
    "highway": "bus_stop",
    "name": "Jean Jaurès",
    "public_transport": "platform",
    "ref:FR:STIF": "39565",
    "ref:FR:STIF:stop_id": "StopPoint:59:3681816",
    "route_ref": "123",
    "shelter": "yes",
    "source": "survey 2019-03",
    "source:wheelchair": "STIF 2019-01",
    "wheelchair": "yes"
  }
},
{
  "type": "node",
  "id": 1041097997,
  "lat": 48.8399671,
  "lon": 2.2400105,
  "tags": {
    "STIF:zone": "2",
    "bench": "yes",
    "bus": "yes",
    "highway": "bus_stop",
    "name": "Route de la Reine - Jean Jaurès",
    "public_transport": "platform",
    "ref:FR:STIF": "28130",
    "ref:FR:STIF:stop_id": "StopPoint:59:3681813",
    "route_ref": "123",
    "shelter": "yes",
    "source": "survey 2019-03",
    "source:position": "BDOrtho IGN 2019",
    "source:wheelchair": "STIF 2019-01",
    "wheelchair": "yes"
  }
},
{
  "type": "node",
  "id": 1042766991,
  "lat": 48.8329127,
  "lon": 2.2474223,
  "tags": {
    "STIF:zone": "2",
    "bench": "yes",
    "bus": "yes",
    "covered": "yes",
    "highway": "bus_stop",
    "name": "Danjou",
    "public_transport": "platform",
    "ref:FR:STIF": "24042",
    "ref:FR:STIF:stop_id": "StopPoint:59:3442579",
    "shelter": "yes",
    "source": "survey",
    "source:ref:FR:STIF": "STIF - 12/2016"
  }
},
{
  "type": "node",
  "id": 1042767019,
  "lat": 48.8327254,
  "lon": 2.2480638,
  "tags": {
    "STIF:zone": "2",
    "bench": "yes",
    "bus": "yes",
    "check_date:shelter": "2021-05-18",
    "highway": "bus_stop",
    "name": "Danjou",
    "public_transport": "platform",
    "ref:FR:STIF": "28750",
    "ref:FR:STIF:stop_id": "StopPoint:59:3442580",
    "shelter": "yes",
    "source": "survey",
    "source:position": "BDOrtho IGN 2017",
    "source:ref:FR:STIF": "STIF - 12/2016"
  }
},
{
  "type": "node",
  "id": 1052834960,
  "lat": 48.8303227,
  "lon": 2.2324640,
  "tags": {
    "STIF:zone": "2",
    "bench": "no",
    "bus": "yes",
    "check_date:shelter": "2021-07-11",
    "departures_board": "timetable",
    "highway": "bus_stop",
    "lit": "yes",
    "name": "Pont de Sèvres",
    "public_transport": "platform",
    "ref:FR:STIF": "16935",
    "ref:FR:STIF:stop_id": "StopPoint:59:6591511",
    "shelter": "no",
    "source": "survey",
    "tactile_paving": "yes",
    "wheelchair": "yes"
  }
},
{
  "type": "node",
  "id": 1054432235,
  "lat": 48.8318765,
  "lon": 2.2535995,
  "tags": {
    "STIF:zone": "2",
    "bench": "yes",
    "bus": "yes",
    "highway": "bus_stop",
    "name": "Rue du Point du Jour",
    "public_transport": "platform",
    "ref:FR:STIF": "7840",
    "ref:FR:STIF:stop_id": "StopPoint:59:3442578",
    "shelter": "yes",
    "source": "survey",
    "source:position": "BDOrtho IGN 2017",
    "source:ref:FR:STIF": "STIF - 12/2016"
  }
},
{
  "type": "node",
  "id": 1054432243,
  "lat": 48.8317246,
  "lon": 2.2527365,
  "tags": {
    "STIF:zone": "2",
    "bus": "yes",
    "highway": "bus_stop",
    "name": "Rue du Point du Jour",
    "public_transport": "platform",
    "ref:FR:STIF": "7838",
    "ref:FR:STIF:stop_id": "StopPoint:59:7131591",
    "route_ref": "289;SUBB",
    "source": "survey",
    "source:wheelchair": "STIF 2019-01",
    "wheelchair": "yes"
  }
},
{
  "type": "node",
  "id": 1054432248,
  "lat": 48.8323157,
  "lon": 2.2523020,
  "tags": {
    "STIF:zone": "2",
    "bench": "yes",
    "bus": "yes",
    "highway": "bus_stop",
    "name": "Rue du Point du Jour",
    "public_transport": "platform",
    "ref:FR:STIF": "24040",
    "ref:FR:STIF:stop_id": "StopPoint:59:3442577",
    "shelter": "no",
    "source": "survey",
    "source:ref:FR:STIF": "STIF - 12/2016",
    "tactile_paving": "no"
  }
},
{
  "type": "node",
  "id": 1085585004,
  "lat": 48.8288057,
  "lon": 2.2507171,
  "tags": {
    "STIF:zone": "2",
    "bus": "yes",
    "highway": "bus_stop",
    "name": "Rue de Seine",
    "public_transport": "platform",
    "ref:FR:STIF": "29012",
    "ref:FR:STIF:stop_id": "StopPoint:59:7131592;StopPoint:59:5121567",
    "route_ref": "289;SUBB",
    "source": "survey",
    "source:wheelchair": "STIF 2019-01",
    "wheelchair": "yes"
  }
},
{
  "type": "node",
  "id": 1085585009,
  "lat": 48.8286100,
  "lon": 2.2507310,
  "tags": {
    "STIF:zone": "2",
    "bus": "yes",
    "highway": "bus_stop",
    "name": "Rue de Seine",
    "public_transport": "platform",
    "ref:FR:STIF": "40817",
    "ref:FR:STIF:stop_id": "StopPoint:59:5121568",
    "route_ref": "289",
    "source": "survey",
    "source:wheelchair": "STIF 2019-01",
    "wheelchair": "no"
  }
},
{
  "type": "node",
  "id": 1088219395,
  "lat": 48.8257257,
  "lon": 2.2487277,
  "tags": {
    "STIF:zone": "2",
    "bus": "yes",
    "highway": "bus_stop",
    "name": "Pont de Billancourt",
    "public_transport": "platform",
    "ref:FR:STIF": "20469",
    "ref:FR:STIF:stop_id": "StopPoint:59:5121570",
    "route_ref": "289",
    "source": "survey",
    "source:wheelchair": "STIF 2019-01",
    "wheelchair": "no"
  }
},
{
  "type": "node",
  "id": 1088219413,
  "lat": 48.8258634,
  "lon": 2.2486629,
  "tags": {
    "STIF:zone": "2",
    "bus": "yes",
    "highway": "bus_stop",
    "name": "Pont de Billancourt",
    "public_transport": "platform",
    "ref:FR:STIF": "7831",
    "ref:FR:STIF:stop_id": "StopPoint:59:7131593",
    "route_ref": "289;SUBB",
    "source": "survey",
    "source:wheelchair": "STIF 2019-01",
    "wheelchair": "yes"
  }
},
{
  "type": "node",
  "id": 1099779816,
  "lat": 48.8345691,
  "lon": 2.2548712,
  "tags": {
    "STIF:zone": "2",
    "bench": "yes",
    "bus": "yes",
    "highway": "bus_stop",
    "name": "Les Peupliers",
    "public_transport": "platform",
    "ref:FR:STIF": "20468",
    "ref:FR:STIF:stop_id": "StopPoint:59:5121564",
    "route_ref": "289",
    "shelter": "yes",
    "source": "survey",
    "source:wheelchair": "STIF 2019-01",
    "tactile_paving": "no",
    "wheelchair": "no"
  }
},
{
  "type": "node",
  "id": 1099779847,
  "lat": 48.8340834,
  "lon": 2.2543755,
  "tags": {
    "STIF:zone": "2",
    "bench": "yes",
    "bus": "yes",
    "highway": "bus_stop",
    "name": "Les Peupliers",
    "public_transport": "platform",
    "ref:FR:STIF": "20467",
    "ref:FR:STIF:stop_id": "StopPoint:59:5121563",
    "route_ref": "289",
    "shelter": "yes",
    "source": "survey",
    "source:wheelchair": "STIF 2019-01",
    "tactile_paving": "no",
    "wheelchair": "no"
  }
},
{
  "type": "node",
  "id": 1101942086,
  "lat": 48.8325176,
  "lon": 2.2534613,
  "tags": {
    "STIF:zone": "2",
    "bus": "yes",
    "highway": "bus_stop",
    "name": "Rue du Point du Jour",
    "public_transport": "platform",
    "ref:FR:STIF": "35809",
    "ref:FR:STIF:stop_id": "StopPoint:59:5121566",
    "route_ref": "289",
    "shelter": "yes",
    "source": "survey",
    "source:wheelchair": "STIF 2019-01",
    "wheelchair": "no"
  }
},
{
  "type": "node",
  "id": 1110309681,
  "lat": 48.8393320,
  "lon": 2.2470586,
  "tags": {
    "STIF:zone": "2",
    "bench": "yes",
    "bus": "yes",
    "highway": "bus_stop",
    "name": "Avenue Victor Hugo - Reine",
    "public_transport": "platform",
    "ref:FR:STIF": "25709",
    "ref:FR:STIF:stop_id": "StopPoint:59:7131570",
    "route_ref": "SUBB;SUBB",
    "shelter": "yes",
    "source": "survey",
    "source:wheelchair": "STIF 2019-01",
    "tactile_paving": "no",
    "wheelchair": "yes",
    "wikidata": "Q56870689"
  }
},
{
  "type": "node",
  "id": 1121716648,
  "lat": 48.8392162,
  "lon": 2.2463729,
  "tags": {
    "STIF:zone": "3",
    "bench": "yes",
    "bin": "no",
    "bus": "yes",
    "highway": "bus_stop",
    "name": "Victor Hugo",
    "public_transport": "platform",
    "ref:FR:STIF": "24018",
    "ref:FR:STIF:stop_id": "StopPoint:59:7899696",
    "route_ref": "72",
    "shelter": "yes",
    "source:wheelchair": "STIF 2019-01",
    "tactile_paving": "no",
    "wheelchair": "no"
  }
},
{
  "type": "node",
  "id": 1121716652,
  "lat": 48.8390554,
  "lon": 2.2462923,
  "tags": {
    "STIF:zone": "3",
    "bench": "yes",
    "bin": "no",
    "bus": "yes",
    "highway": "bus_stop",
    "name": "Victor Hugo",
    "public_transport": "platform",
    "ref:FR:STIF": "25543",
    "ref:FR:STIF:stop_id": "StopPoint:59:3681833",
    "route_ref": "72;123",
    "shelter": "yes",
    "source:wheelchair": "STIF 2019-01",
    "tactile_paving": "no",
    "wheelchair": "no"
  }
},
{
  "type": "node",
  "id": 1157476534,
  "lat": 48.8444719,
  "lon": 2.2516287,
  "tags": {
    "STIF:zone": "2",
    "bus": "yes",
    "highway": "bus_stop",
    "name": "La Tourelle",
    "public_transport": "platform",
    "ref:FR:STIF": "37130",
    "ref:FR:STIF:stop_id": "StopPoint:59:4008255",
    "route_ref": "52",
    "source": "survey",
    "source:wheelchair": "STIF 2019-01",
    "wheelchair": "yes"
  }
},
{
  "type": "node",
  "id": 1157476537,
  "lat": 48.8444640,
  "lon": 2.2510371,
  "tags": {
    "STIF:zone": "2",
    "bus": "yes",
    "highway": "bus_stop",
    "name": "La Tourelle",
    "public_transport": "platform",
    "ref:FR:STIF": "25428",
    "ref:FR:STIF:stop_id": "StopPoint:59:4008254",
    "route_ref": "52",
    "source": "survey",
    "source:wheelchair": "STIF 2019-01",
    "wheelchair": "yes"
  }
},
{
  "type": "node",
  "id": 1178996331,
  "lat": 48.8434691,
  "lon": 2.2466284,
  "tags": {
    "STIF:zone": "2",
    "bus": "yes",
    "highway": "bus_stop",
    "name": "Denfert-Rochereau",
    "public_transport": "platform",
    "ref:FR:STIF": "25423",
    "ref:FR:STIF:stop_id": "StopPoint:59:4008257",
    "route_ref": "52",
    "shelter": "yes",
    "source": "survey",
    "source:wheelchair": "STIF 2019-01",
    "tactile_paving": "no",
    "wheelchair": "yes"
  }
},
{
  "type": "node",
  "id": 1178996345,
  "lat": 48.8435459,
  "lon": 2.2466635,
  "tags": {
    "STIF:zone": "2",
    "bus": "yes",
    "highway": "bus_stop",
    "name": "Denfert-Rochereau",
    "public_transport": "platform",
    "ref:FR:STIF": "37131",
    "ref:FR:STIF:stop_id": "StopPoint:59:4008256",
    "route_ref": "52",
    "source": "survey",
    "source:wheelchair": "STIF 2019-01",
    "tactile_paving": "no",
    "wheelchair": "yes"
  }
},
{
  "type": "node",
  "id": 1180644879,
  "lat": 48.8427981,
  "lon": 2.2431422,
  "tags": {
    "STIF:zone": "2",
    "bench": "no",
    "bus": "yes",
    "highway": "bus_stop",
    "name": "Rue de l'Est",
    "public_transport": "platform",
    "ref:FR:STIF": "25420",
    "ref:FR:STIF:stop_id": "StopPoint:59:4008259",
    "route_ref": "52",
    "shelter": "no",
    "source": "survey 09/2018",
    "source:wheelchair": "STIF 2019-01",
    "wheelchair": "yes"
  }
},
{
  "type": "node",
  "id": 1180644942,
  "lat": 48.8429188,
  "lon": 2.2433947,
  "tags": {
    "STIF:zone": "2",
    "bench": "yes",
    "bus": "yes",
    "highway": "bus_stop",
    "name": "Rue de l'Est",
    "public_transport": "platform",
    "ref:FR:STIF": "25427",
    "ref:FR:STIF:stop_id": "StopPoint:59:4008258",
    "route_ref": "52",
    "shelter": "no",
    "source": "survey 09/2018",
    "source:wheelchair": "STIF 2019-01",
    "wheelchair": "yes"
  }
},
{
  "type": "node",
  "id": 1182665048,
  "lat": 48.8420200,
  "lon": 2.2391183,
  "tags": {
    "STIF:zone": "2",
    "bus": "yes",
    "highway": "bus_stop",
    "name": "Jean Jaurès",
    "public_transport": "platform",
    "ref:FR:STIF": "25422",
    "ref:FR:STIF:stop_id": "StopPoint:59:4008272",
    "route_ref": "52",
    "source": "survey",
    "source:wheelchair": "STIF 2019-01",
    "wheelchair": "yes"
  }
},
{
  "type": "node",
  "id": 1192592396,
  "lat": 48.8374876,
  "lon": 2.2476132,
  "tags": {
    "STIF:zone": "2",
    "bench": "no",
    "bus": "yes",
    "highway": "bus_stop",
    "name": "Gallieni - Thiers",
    "public_transport": "platform",
    "ref:FR:STIF": "25704",
    "ref:FR:STIF:stop_id": "StopPoint:59:7131588",
    "route_ref": "SUBB",
    "shelter": "no",
    "source": "survey",
    "source:wheelchair": "STIF 2019-01",
    "tactile_paving": "no",
    "wheelchair": "yes"
  }
},
{
  "type": "node",
  "id": 1223065451,
  "lat": 48.8369172,
  "lon": 2.2431441,
  "tags": {
    "STIF:zone": "2",
    "bus": "yes",
    "highway": "bus_stop",
    "name": "Gallieni - Belle Feuille",
    "public_transport": "platform",
    "ref:FR:STIF": "25700",
    "ref:FR:STIF:stop_id": "StopPoint:59:7131587",
    "route_ref": "SUBB",
    "source": "survey",
    "source:wheelchair": "STIF 2019-01",
    "wheelchair": "yes"
  }
},
{
  "type": "node",
  "id": 1224158091,
  "lat": 48.8370959,
  "lon": 2.2455386,
  "tags": {
    "STIF:zone": "2",
    "bench": "yes",
    "bus": "yes",
    "highway": "bus_stop",
    "image": "http://storage7.openstreetcam.org/files/photo/2018/3/22/lth/1152595_6ee86_48.jpg",
    "name": "Gallieni",
    "public_transport": "platform",
    "ref:FR:STIF": "18717",
    "ref:FR:STIF:stop_id": "StopPoint:59:3681812",
    "route_ref": "123",
    "shelter": "yes",
    "source": "survey 2019-03"
  }
},
{
  "type": "node",
  "id": 1224158097,
  "lat": 48.8375753,
  "lon": 2.2460280,
  "tags": {
    "STIF:zone": "2",
    "bench": "yes",
    "bus": "yes",
    "highway": "bus_stop",
    "name": "Victor Hugo - Gallieni",
    "public_transport": "platform",
    "ref:FR:STIF": "25706",
    "ref:FR:STIF:stop_id": "StopPoint:59:7131569",
    "route_ref": "SUBB",
    "shelter": "yes",
    "source": "survey",
    "source:wheelchair": "STIF 2019-01",
    "tactile_paving": "yes",
    "wheelchair": "yes"
  }
},
{
  "type": "node",
  "id": 1226636428,
  "lat": 48.8457587,
  "lon": 2.2500642,
  "tags": {
    "STIF:zone": "2",
    "bench": "yes",
    "bin": "no",
    "bus": "yes",
    "bus_stop:type": "Abri autobus 4x1,60",
    "highway": "bus_stop",
    "name": "Stade Roland Garros",
    "public_transport": "platform",
    "ref:FR:STIF": "28124",
    "ref:FR:STIF:stop_id": "StopPoint:59:3681841",
    "route_ref": "123",
    "shelter": "yes",
    "source": "survey 2019-03",
    "source:position": "BDOrtho IGN 2019",
    "source:wheelchair": "STIF 2019-01",
    "tactile_paving": "no",
    "wheelchair": "yes"
  }
},
{
  "type": "node",
  "id": 1226636436,
  "lat": 48.8465799,
  "lon": 2.2468732,
  "tags": {
    "STIF:zone": "2",
    "bench": "yes",
    "bin": "no",
    "bus": "yes",
    "bus_stop:type": "Abri autobus 4x1,60",
    "highway": "bus_stop",
    "name": "Rue des Pins",
    "public_transport": "platform",
    "ref:FR:STIF": "28126",
    "ref:FR:STIF:stop_id": "StopPoint:59:3681826",
    "route_ref": "123",
    "shelter": "yes",
    "source": "survey 2019-03",
    "source:position": "BDOrtho IGN 2019",
    "source:wheelchair": "STIF 2019-01",
    "tactile_paving": "no",
    "wheelchair": "yes"
  }
},
{
  "type": "node",
  "id": 1239952464,
  "lat": 48.8270629,
  "lon": 2.2413388,
  "tags": {
    "STIF:zone": "2",
    "bus": "yes",
    "highway": "bus_stop",
    "name": "Place Jules Guesde",
    "public_transport": "platform",
    "ref:FR:STIF": "462764",
    "ref:FR:STIF:stop_id": "StopPoint:59:7827031",
    "route_ref": "389;42",
    "source:wheelchair": "STIF 2019-01",
    "wheelchair": "no"
  }
},
{
  "type": "node",
  "id": 1241238910,
  "lat": 48.8300398,
  "lon": 2.2380340,
  "tags": {
    "STIF:zone": "2",
    "bus": "yes",
    "highway": "bus_stop",
    "name": "Castéja",
    "public_transport": "platform",
    "ref:FR:STIF": "37257",
    "ref:FR:STIF:stop_id": "StopPoint:59:7131597",
    "route_ref": "SUBB",
    "shelter": "yes",
    "source": "survey",
    "source:wheelchair": "STIF 2019-01",
    "wheelchair": "yes"
  }
},
{
  "type": "node",
  "id": 1316079347,
  "lat": 48.8416810,
  "lon": 2.2357264,
  "tags": {
    "STIF:zone": "2",
    "bus": "yes",
    "highway": "bus_stop",
    "name": "Rue de Billancourt",
    "public_transport": "platform",
    "ref:FR:STIF": "40583",
    "ref:FR:STIF:stop_id": "StopPoint:59:4008261",
    "route_ref": "52",
    "shelter": "yes",
    "source": "survey",
    "source:wheelchair": "STIF 2019-01",
    "wheelchair": "yes"
  }
},
{
  "type": "node",
  "id": 1316079348,
  "lat": 48.8415910,
  "lon": 2.2352115,
  "tags": {
    "STIF:zone": "2",
    "bus": "yes",
    "highway": "bus_stop",
    "name": "Rue de Billancourt",
    "public_transport": "platform",
    "ref:FR:STIF": "25419",
    "ref:FR:STIF:stop_id": "StopPoint:59:4008262",
    "route_ref": "52",
    "shelter": "yes",
    "source": "survey",
    "source:wheelchair": "STIF 2019-01",
    "wheelchair": "yes"
  }
},
{
  "type": "node",
  "id": 1324794733,
  "lat": 48.8460272,
  "lon": 2.2325199,
  "tags": {
    "STIF:zone": "2",
    "bus": "yes",
    "highway": "bus_stop",
    "name": "Dispensaire Saint-Denis",
    "public_transport": "platform",
    "ref:FR:STIF": "25695",
    "ref:FR:STIF:stop_id": "StopPoint:59:7131578",
    "route_ref": "SUBB;SUBB",
    "shelter": "yes",
    "source": "survey",
    "source:wheelchair": "STIF 2019-01",
    "wheelchair": "yes"
  }
},
{
  "type": "node",
  "id": 1324794735,
  "lat": 48.8445496,
  "lon": 2.2316322,
  "tags": {
    "STIF:zone": "2",
    "bench": "yes",
    "bus": "yes",
    "departures_board": "yes",
    "highway": "bus_stop",
    "lit": "yes",
    "name": "Saint-Denis - Anna Jacquin",
    "public_transport": "platform",
    "ref:FR:STIF": "25711",
    "ref:FR:STIF:stop_id": "StopPoint:59:7131579",
    "route_ref": "SUBB",
    "shelter": "yes",
    "source": "survey",
    "source:wheelchair": "STIF 2019-01",
    "wheelchair": "yes",
    "wikidata": "Q56870778"
  }
},
{
  "type": "node",
  "id": 1324794736,
  "lat": 48.8430062,
  "lon": 2.2309242,
  "tags": {
    "STIF:zone": "2",
    "bench": "no",
    "bin": "yes",
    "bus": "yes",
    "check_date:shelter": "2021-07-18",
    "departures_board": "timetable",
    "highway": "bus_stop",
    "lit": "yes",
    "name": "Saint-Denis - Jean-Baptiste Clément",
    "public_transport": "platform",
    "ref:FR:STIF": "25707",
    "ref:FR:STIF:stop_id": "StopPoint:59:7131580",
    "route_ref": "SUBB;SUBB",
    "shelter": "no",
    "source": "survey",
    "source:wheelchair": "STIF 2019-01",
    "tactile_paving": "no",
    "wheelchair": "yes"
  }
},
{
  "type": "node",
  "id": 1333553830,
  "lat": 48.8414546,
  "lon": 2.2317746,
  "tags": {
    "STIF:zone": "2",
    "bench": "yes",
    "bin": "yes",
    "bus": "yes",
    "highway": "bus_stop",
    "lit": "yes",
    "name": "Rue de Silly",
    "public_transport": "platform",
    "ref:FR:STIF": "25425",
    "ref:FR:STIF:stop_id": "StopPoint:59:4008263",
    "route_ref": "52",
    "shelter": "no",
    "source": "survey",
    "source:wheelchair": "STIF 2019-01",
    "tactile_paving": "no",
    "wheelchair": "yes"
  }
},
{
  "type": "node",
  "id": 1362686091,
  "lat": 48.8409814,
  "lon": 2.2297689,
  "tags": {
    "STIF:zone": "2",
    "bench": "yes",
    "bin": "yes",
    "bus": "yes",
    "highway": "bus_stop",
    "lit": "yes",
    "name": "Rhin et Danube",
    "public_transport": "platform",
    "ref:FR:STIF": "25421",
    "ref:FR:STIF:stop_id": "StopPoint:59:4008271",
    "route_ref": "52",
    "shelter": "yes",
    "source": "survey",
    "source:wheelchair": "STIF 2019-01",
    "tactile_paving": "yes",
    "wheelchair": "yes"
  }
},
{
  "type": "node",
  "id": 1420879397,
  "lat": 48.8505751,
  "lon": 2.2370965,
  "tags": {
    "STIF:zone": "2",
    "bench": "yes",
    "bus": "yes",
    "bus_stop:type": "Abri autobus 4x1,60",
    "highway": "bus_stop",
    "name": "Hôpital Ambroise Paré",
    "public_transport": "platform",
    "ref:FR:STIF": "36839",
    "ref:FR:STIF:stop_id": "StopPoint:59:4024531",
    "route_ref": "241",
    "shelter": "yes",
    "source": "Bing",
    "source:position": "opendata.paris.fr - 04/2011",
    "source:wheelchair": "STIF 2019-01",
    "wheelchair": "yes"
  }
},
{
  "type": "node",
  "id": 1420879401,
  "lat": 48.8526373,
  "lon": 2.2272500,
  "tags": {
    "STIF:zone": "2",
    "bench": "no",
    "bin": "no",
    "bus": "yes",
    "highway": "bus_stop",
    "name": "Passerelle de l'Avre",
    "public_transport": "platform",
    "ref:FR:STIF": "36840",
    "ref:FR:STIF:stop_id": "StopPoint:59:4024598",
    "route_ref": "241",
    "shelter": "no",
    "source": "Bing",
    "source:wheelchair": "STIF 2019-01",
    "tactile_paving": "no",
    "wheelchair": "yes"
  }
},
{
  "type": "node",
  "id": 1437772779,
  "lat": 48.8361412,
  "lon": 2.2368318,
  "tags": {
    "STIF:zone": "2",
    "bus": "yes",
    "highway": "bus_stop",
    "name": "Gallieni - Billancourt",
    "public_transport": "platform",
    "ref:FR:STIF": "40606",
    "ref:FR:STIF:stop_id": "StopPoint:59:7131584",
    "route_ref": "SUBB",
    "source": "survey",
    "source:wheelchair": "STIF 2019-01",
    "wheelchair": "yes"
  }
},
{
  "type": "node",
  "id": 1437772781,
  "lat": 48.8356821,
  "lon": 2.2394876,
  "tags": {
    "STIF:zone": "2",
    "bench": "yes",
    "bus": "yes",
    "highway": "bus_stop",
    "name": "Hôtel de Ville de Boulogne-Billancourt",
    "public_transport": "platform",
    "ref:FR:STIF": "9271",
    "ref:FR:STIF:stop_id": "StopPoint:59:7131566",
    "route_ref": "SUBB",
    "shelter": "yes",
    "source": "survey"
  }
},
{
  "type": "node",
  "id": 1437772785,
  "lat": 48.8359110,
  "lon": 2.2391630,
  "tags": {
    "STIF:zone": "2",
    "bus": "yes",
    "highway": "bus_stop",
    "name": "Hôtel de Ville de Boulogne-Billancourt",
    "public_transport": "platform",
    "ref:FR:STIF": "40824",
    "ref:FR:STIF:stop_id": "StopPoint:59:3442583",
    "route_ref": "126;175",
    "source:wheelchair": "STIF 2019-01",
    "wheelchair": "no"
  }
},
{
  "type": "node",
  "id": 1440804003,
  "lat": 48.8322848,
  "lon": 2.2387188,
  "tags": {
    "STIF:zone": "2",
    "bus": "yes",
    "highway": "bus_stop",
    "name": "Billancourt",
    "public_transport": "platform",
    "ref:FR:STIF": "2152",
    "ref:FR:STIF:stop_id": "StopPoint:59:7827023",
    "route_ref": "389;N12;N61",
    "source:wheelchair": "STIF 2019-01",
    "wheelchair": "yes"
  }
},
{
  "type": "node",
  "id": 1440804006,
  "lat": 48.8361277,
  "lon": 2.2518282,
  "tags": {
    "STIF:zone": "3",
    "bench": "yes",
    "bin": "yes",
    "bus": "yes",
    "departures_board": "timetable",
    "highway": "bus_stop",
    "lit": "yes",
    "name": "Henri Martin",
    "public_transport": "platform",
    "ref:FR:STIF": "25509",
    "ref:FR:STIF:stop_id": "StopPoint:59:7913275",
    "route_ref": "42;175;N12;N61",
    "shelter": "yes",
    "source:wheelchair": "STIF 2019-01",
    "tactile_paving": "no",
    "wheelchair": "yes"
  }
},
{
  "type": "node",
  "id": 1440804028,
  "lat": 48.8363561,
  "lon": 2.2520497,
  "tags": {
    "STIF:zone": "3",
    "bench": "yes",
    "bin": "no",
    "bus": "yes",
    "departures_board": "timetable",
    "highway": "bus_stop",
    "lit": "yes",
    "name": "Henri Martin",
    "public_transport": "platform",
    "ref:FR:STIF": "8125",
    "ref:FR:STIF:stop_id": "StopPoint:59:7913274",
    "route_ref": "42;175;N12;N61",
    "shelter": "yes",
    "source:wheelchair": "STIF 2019-01",
    "tactile_paving": "no",
    "wheelchair": "yes"
  }
},
{
  "type": "node",
  "id": 1440804042,
  "lat": 48.8337733,
  "lon": 2.2444423,
  "tags": {
    "STIF:zone": "2",
    "bench": "no",
    "bus": "yes",
    "departures_board": "yes",
    "highway": "bus_stop",
    "name": "Marcel Sembat-Métro",
    "public_transport": "platform",
    "ref:FR:STIF": "41286",
    "ref:FR:STIF:stop_id": "StopPoint:59:7913279",
    "route_ref": "42;N12;N61;N145",
    "shelter": "no",
    "source:wheelchair": "STIF 2019-01",
    "wheelchair": "no"
  }
},
{
  "type": "node",
  "id": 1440804061,
  "lat": 48.8339799,
  "lon": 2.2442089,
  "tags": {
    "STIF:zone": "2",
    "bench": "no",
    "bus": "yes",
    "departures_board": "yes",
    "highway": "bus_stop",
    "name": "Marcel Sembat-Métro",
    "public_transport": "platform",
    "ref:FR:STIF": "42081",
    "ref:FR:STIF:stop_id": "StopPoint:59:7913278",
    "route_ref": "42;N12;N61;N145",
    "shelter": "no",
    "source:wheelchair": "STIF 2019-01",
    "tactile_paving": "no",
    "wheelchair": "yes"
  }
},
{
  "type": "node",
  "id": 1440804065,
  "lat": 48.8300973,
  "lon": 2.2326583,
  "tags": {
    "STIF:zone": "2",
    "bus": "yes",
    "departures_board": "timetable",
    "highway": "bus_stop",
    "name": "Pont de Sèvres",
    "public_transport": "platform",
    "ref:FR:STIF": "42080;420392",
    "ref:FR:STIF:stop_id": "StopPoint:59:6591512;StopPoint:24:15261",
    "route_ref": "39-34;N12;N61",
    "shelter": "no",
    "source": "survey"
  }
},
{
  "type": "node",
  "id": 1450670150,
  "lat": 48.8353056,
  "lon": 2.2280648,
  "tags": {
    "STIF:zone": "2",
    "bus": "yes",
    "highway": "bus_stop",
    "name": "Gallieni",
    "public_transport": "platform",
    "ref:FR:STIF": "24952",
    "ref:FR:STIF:stop_id": "StopPoint:59:4024984",
    "route_ref": "467",
    "shelter": "yes",
    "source": "survey",
    "source:wheelchair": "STIF 2019-01",
    "wheelchair": "yes"
  }
},
{
  "type": "node",
  "id": 1450670229,
  "lat": 48.8397781,
  "lon": 2.2284023,
  "tags": {
    "STIF:zone": "2",
    "bus": "yes",
    "highway": "bus_stop",
    "name": "Rhin et Danube - Béranger",
    "public_transport": "platform",
    "ref:FR:STIF": "427233",
    "ref:FR:STIF:stop_id": "StopPoint:59:4024989",
    "route_ref": "467",
    "shelter": "yes",
    "source": "survey",
    "source:wheelchair": "STIF 2019-01",
    "wheelchair": "yes"
  }
},
{
  "type": "node",
  "id": 1450670265,
  "lat": 48.8370841,
  "lon": 2.2278765,
  "tags": {
    "STIF:zone": "2",
    "bus": "yes",
    "departures_board": "timetable",
    "highway": "bus_stop",
    "name": "Stade",
    "public_transport": "platform",
    "ref:FR:STIF": "25974",
    "ref:FR:STIF:stop_id": "StopPoint:59:4024987",
    "route_ref": "467",
    "shelter": "yes",
    "source": "survey",
    "source:wheelchair": "STIF 2019-01",
    "wheelchair": "yes"
  }
},
{
  "type": "node",
  "id": 1450670273,
  "lat": 48.8379539,
  "lon": 2.2281453,
  "tags": {
    "STIF:zone": "2",
    "bench": "yes",
    "bus": "yes",
    "departures_board": "timetable",
    "highway": "bus_stop",
    "lit": "yes",
    "name": "Stade",
    "public_transport": "platform",
    "ref:FR:STIF": "25977",
    "ref:FR:STIF:stop_id": "StopPoint:59:4024986",
    "route_ref": "467",
    "shelter": "yes",
    "source": "survey",
    "source:wheelchair": "STIF 2019-01",
    "wheelchair": "yes"
  }
},
{
  "type": "node",
  "id": 1460510089,
  "lat": 48.8310139,
  "lon": 2.2450644,
  "tags": {
    "STIF:zone": "2",
    "bench": "yes",
    "bus": "yes",
    "highway": "bus_stop",
    "name": "Dôme",
    "public_transport": "platform",
    "ref:FR:STIF": "35144",
    "ref:FR:STIF:stop_id": "StopPoint:59:3681807",
    "route_ref": "123",
    "shelter": "yes",
    "source": "survey 2019-03",
    "source:wheelchair": "STIF 2019-01",
    "tactile_paving": "no",
    "wheelchair": "yes"
  }
},
{
  "type": "node",
  "id": 1460510098,
  "lat": 48.8485893,
  "lon": 2.2414299,
  "tags": {
    "STIF:zone": "2",
    "bench": "yes",
    "bin": "no",
    "bus": "yes",
    "check_date:shelter": "2021-08-29",
    "departures_board": "yes",
    "highway": "bus_stop",
    "lit": "no",
    "name": "Gambetta",
    "public_transport": "platform",
    "ref:FR:STIF": "19772",
    "ref:FR:STIF:stop_id": "StopPoint:59:3681824",
    "route_ref": "123",
    "shelter": "no",
    "source": "survey 2019-03",
    "source:wheelchair": "STIF 2019-01",
    "wheelchair": "yes"
  }
},
{
  "type": "node",
  "id": 1460510099,
  "lat": 48.8489070,
  "lon": 2.2374928,
  "tags": {
    "STIF:zone": "2",
    "bench": "yes",
    "bus": "yes",
    "highway": "bus_stop",
    "name": "Hôpital Ambroise Paré",
    "public_transport": "platform",
    "ref:FR:STIF": "18298",
    "ref:FR:STIF:stop_id": "StopPoint:59:3681821",
    "route_ref": "123",
    "shelter": "yes",
    "source": "survey 2019-03",
    "source:position": "BDOrtho IGN 2019",
    "source:wheelchair": "STIF 2019-01",
    "wheelchair": "yes"
  }
},
{
  "type": "node",
  "id": 1460510102,
  "lat": 48.8492384,
  "lon": 2.2373832,
  "tags": {
    "STIF:zone": "2",
    "bus": "yes",
    "highway": "bus_stop",
    "name": "Hôpital Ambroise Paré",
    "public_transport": "platform",
    "ref:FR:STIF": "8399",
    "ref:FR:STIF:stop_id": "StopPoint:59:7131575",
    "route_ref": "123;SUBB",
    "source:wheelchair": "STIF 2019-01",
    "wheelchair": "yes"
  }
},
{
  "type": "node",
  "id": 1460510122,
  "lat": 48.8343541,
  "lon": 2.2431768,
  "tags": {
    "STIF:zone": "2",
    "bench": "yes",
    "bus": "yes",
    "highway": "bus_stop",
    "name": "Marcel Sembat",
    "public_transport": "platform",
    "ref:FR:STIF": "24034",
    "ref:FR:STIF:stop_id": "StopPoint:59:3681809",
    "route_ref": "123",
    "shelter": "yes",
    "source": "survey 2019-03",
    "source:wheelchair": "STIF 2019-01",
    "tactile_paving": "no",
    "wheelchair": "yes"
  }
},
{
  "type": "node",
  "id": 1460510179,
  "lat": 48.8461854,
  "lon": 2.2370718,
  "tags": {
    "STIF:zone": "2",
    "bench": "yes",
    "bin": "yes",
    "bus": "yes",
    "check_date:shelter": "2021-06-20",
    "highway": "bus_stop",
    "name": "Église de Boulogne-Billancourt",
    "public_transport": "platform",
    "ref:FR:STIF": "22548",
    "ref:FR:STIF:stop_id": "StopPoint:59:3681819",
    "route_ref": "123",
    "shelter": "yes",
    "source": "survey 2019-03",
    "source:position": "BDOrtho IGN 2019",
    "source:wheelchair": "STIF 2019-01",
    "tactile_paving": "no",
    "wheelchair": "yes"
  }
},
{
  "type": "node",
  "id": 1532715603,
  "lat": 48.8246151,
  "lon": 2.2444043,
  "tags": {
    "STIF:zone": "2",
    "bus": "yes",
    "highway": "bus_stop",
    "name": "Traversière",
    "public_transport": "platform",
    "ref:FR:STIF": "25698",
    "ref:FR:STIF:stop_id": "StopPoint:59:7131594",
    "route_ref": "SUBB;389",
    "source:wheelchair": "STIF 2019-01",
    "wheelchair": "yes",
    "wikidata": "Q56870362"
  }
},
{
  "type": "node",
  "id": 1604245956,
  "lat": 48.8347386,
  "lon": 2.2548991,
  "tags": {
    "bus": "yes",
    "highway": "bus_stop",
    "name": "Les Peupliers",
    "public_transport": "platform"
  }
},
{
  "type": "node",
  "id": 1677008781,
  "lat": 48.8395090,
  "lon": 2.2317510,
  "tags": {
    "STIF:zone": "2",
    "bus": "yes",
    "highway": "bus_stop",
    "name": "Silly - Morizet",
    "public_transport": "platform",
    "ref:FR:STIF": "25703",
    "ref:FR:STIF:stop_id": "StopPoint:59:7131582",
    "route_ref": "SUBB",
    "shelter": "yes",
    "source:wheelchair": "STIF 2019-01",
    "wheelchair": "yes",
    "wikidata": "Q56870880"
  }
},
{
  "type": "node",
  "id": 3255704874,
  "lat": 48.8313096,
  "lon": 2.2569433,
  "tags": {
    "STIF:zone": "2",
    "bench": "yes",
    "bus": "yes",
    "highway": "bus_stop",
    "name": "Quai du Point du Jour",
    "public_transport": "platform",
    "ref:FR:STIF": "460597",
    "ref:FR:STIF:stop_id": "StopPoint:59:3442575",
    "shelter": "yes",
    "source": "survey"
  }
},
{
  "type": "node",
  "id": 3265495508,
  "lat": 48.8309124,
  "lon": 2.2576269,
  "tags": {
    "STIF:zone": "2",
    "bench": "yes",
    "bus": "yes",
    "highway": "bus_stop",
    "name": "Quai du Point du Jour",
    "public_transport": "platform",
    "ref:FR:STIF": "7839",
    "ref:FR:STIF:stop_id": "StopPoint:59:4687329",
    "shelter": "yes",
    "source": "survey",
    "source:position": "BDOrtho IGN 2018",
    "source:ref:FR:STIF": "STIF - 12/2016"
  }
},
{
  "type": "node",
  "id": 3384471794,
  "lat": 48.8409850,
  "lon": 2.2294147,
  "tags": {
    "STIF:zone": "2",
    "bench": "no",
    "bin": "no",
    "bus": "yes",
    "check_date:shelter": "2021-07-18",
    "departures_board": "timetable",
    "highway": "bus_stop",
    "lit": "yes",
    "name": "Rhin et Danube",
    "public_transport": "platform",
    "ref:FR:STIF": "37129",
    "ref:FR:STIF:stop_id": "StopPoint:59:4687379",
    "route_ref": "52",
    "shelter": "no",
    "source:wheelchair": "STIF 2019-01",
    "tactile_paving": "no",
    "wheelchair": "yes"
  }
},
{
  "type": "node",
  "id": 3555120255,
  "lat": 48.8294032,
  "lon": 2.2301629,
  "tags": {
    "STIF:zone": "2",
    "bench": "no",
    "bus": "yes",
    "departures_board": "no",
    "highway": "bus_stop",
    "lit": "yes",
    "name": "Pont de Sèvres",
    "network": "RATP",
    "operator": "RATP, Transdev Nanterre, Kéolis Versailles",
    "public_transport": "platform",
    "ref:FR:STIF": "24484;28664",
    "ref:FR:STIF:stop_id": "StopPoint:59:4008918;StopPoint:80:163",
    "route_ref": "179;291;169;171;426;40;42",
    "shelter": "yes",
    "source:wheelchair": "STIF 2019-01",
    "wheelchair": "yes"
  }
},
{
  "type": "node",
  "id": 3560535307,
  "lat": 48.8297511,
  "lon": 2.2304384,
  "tags": {
    "STIF:zone": "2",
    "bench": "no",
    "bin": "no",
    "bus": "yes",
    "departures_board": "timetable",
    "highway": "bus_stop",
    "lit": "yes",
    "name": "Pont de Sèvres",
    "network": "RATP",
    "operator": "Transdev Nanterre",
    "public_transport": "platform",
    "ref:FR:STIF": "8011",
    "ref:FR:STIF:stop_id": "StopPoint:59:5419722",
    "route_ref": "467",
    "shelter": "yes",
    "wheelchair": "yes"
  }
},
{
  "type": "node",
  "id": 3560535308,
  "lat": 48.8295397,
  "lon": 2.2297576,
  "tags": {
    "STIF:zone": "2",
    "bench": "no",
    "bin": "no",
    "bus": "yes",
    "departures_board": "timetable",
    "highway": "bus_stop",
    "lit": "yes",
    "name": "Pont de Sèvres",
    "network": "Phébus",
    "operator": "Kéolis Versailles",
    "public_transport": "platform",
    "ref:FR:STIF": "12836",
    "ref:FR:STIF:stop_id": "StopPoint:80:162",
    "route_ref": "40;42",
    "shelter": "yes",
    "wheelchair": "yes"
  }
},
{
  "type": "node",
  "id": 3560535309,
  "lat": 48.8293704,
  "lon": 2.2295635,
  "tags": {
    "STIF:zone": "2",
    "bench": "no",
    "bin": "no",
    "bus": "yes",
    "departures_board": "realtime",
    "highway": "bus_stop",
    "lit": "yes",
    "name": "Pont de Sèvres",
    "network": "RATP",
    "operator": "RATP",
    "public_transport": "platform",
    "ref:FR:STIF": "8300",
    "ref:FR:STIF:stop_id": "StopPoint:59:5121010",
    "route_ref": "291",
    "shelter": "yes",
    "wheelchair": "yes"
  }
},
{
  "type": "node",
  "id": 3560631754,
  "lat": 48.8269582,
  "lon": 2.2414550,
  "tags": {
    "STIF:zone": "2",
    "bench": "yes",
    "bus": "yes",
    "departures_board": "timetable",
    "highway": "bus_stop",
    "lit": "yes",
    "name": "Place Jules Guesde",
    "public_transport": "platform",
    "ref:FR:STIF": "463527",
    "ref:FR:STIF:stop_id": "StopPoint:24:14942;StopPoint:59:7827032;StopPoint:59:7827030",
    "route_ref": "42;389",
    "shelter": "yes",
    "wheelchair": "yes"
  }
},
{
  "type": "node",
  "id": 3586836172,
  "lat": 48.8294352,
  "lon": 2.2297693,
  "tags": {
    "STIF:zone": "2",
    "bench": "yes",
    "bin": "no",
    "bus": "yes",
    "departures_board": "realtime",
    "highway": "bus_stop",
    "name": "Pont de Sèvres",
    "network": "RATP",
    "operator": "RATP",
    "public_transport": "platform",
    "ref:FR:STIF": "8012",
    "ref:FR:STIF:stop_id": "StopPoint:59:5121808",
    "route_ref": "179",
    "shelter": "yes",
    "wheelchair": "yes"
  }
},
{
  "type": "node",
  "id": 3586836173,
  "lat": 48.8295787,
  "lon": 2.2302355,
  "tags": {
    "STIF:zone": "2",
    "bench": "yes",
    "bin": "no",
    "bus": "yes",
    "departures_board": "realtime",
    "highway": "bus_stop",
    "lit": "yes",
    "name": "Pont de Sèvres",
    "network": "RATP",
    "network:wikidata": "Q474674",
    "network:wikipedia": "fr:Réseau de bus RATP",
    "operator": "RATP",
    "operator:wikidata": "Q643290",
    "operator:wikipedia": "fr:Régie autonome des transports parisiens",
    "public_transport": "platform",
    "ref:FR:STIF": "8013",
    "ref:FR:STIF:stop_id": "StopPoint:59:4008945",
    "route_ref": "171",
    "shelter": "yes",
    "wheelchair": "yes"
  }
},
{
  "type": "node",
  "id": 3586836175,
  "lat": 48.8294248,
  "lon": 2.2294963,
  "tags": {
    "STIF:zone": "2",
    "bench": "no",
    "bin": "no",
    "bus": "yes",
    "departures_board": "realtime",
    "highway": "bus_stop",
    "lit": "yes",
    "name": "Pont de Sèvres",
    "network": "RATP",
    "operator": "RATP",
    "public_transport": "platform",
    "ref:FR:STIF": "12939",
    "ref:FR:STIF:stop_id": "StopPoint:59:7920750",
    "route_ref": "169",
    "shelter": "yes",
    "wheelchair": "yes"
  }
},
{
  "type": "node",
  "id": 3587801607,
  "lat": 48.8341423,
  "lon": 2.2607214,
  "tags": {
    "STIF:zone": "2",
    "bench": "yes",
    "bus": "yes",
    "highway": "bus_stop",
    "name": "Le Jour Se Lève",
    "public_transport": "platform",
    "ref:FR:STIF": "25355",
    "shelter": "yes",
    "source": "survey 05/2018",
    "source:position": "BDOrtho IGN 2018",
    "source:wheelchair": "STIF 2019-01",
    "survey:date": "2020-12-21",
    "wheelchair": "no"
  }
},
{
  "type": "node",
  "id": 3587801608,
  "lat": 48.8332815,
  "lon": 2.2603526,
  "tags": {
    "STIF:zone": "2",
    "bench": "yes",
    "bus": "yes",
    "highway": "bus_stop",
    "name": "Voie Lactée",
    "public_transport": "platform",
    "ref:FR:STIF": "37208",
    "route_ref": "189",
    "shelter": "yes",
    "source": "survey 05/2018",
    "source:position": "BDOrtho IGN 2018",
    "source:wheelchair": "STIF 2019-01",
    "wheelchair": "no"
  }
},
{
  "type": "node",
  "id": 3587853064,
  "lat": 48.8343188,
  "lon": 2.2585079,
  "tags": {
    "STIF:zone": "2",
    "bench": "yes",
    "bus": "yes",
    "highway": "bus_stop",
    "name": "Abel Gance",
    "public_transport": "platform",
    "ref:FR:STIF": "28639",
    "shelter": "yes",
    "source": "survey 05/2018",
    "source:position": "BDOrtho IGN 2018",
    "source:wheelchair": "STIF 2019-01",
    "survey:date": "2020-12-21",
    "wheelchair": "no"
  }
},
{
  "type": "node",
  "id": 3587853065,
  "lat": 48.8344180,
  "lon": 2.2583530,
  "tags": {
    "STIF:zone": "2",
    "bench": "yes",
    "bus": "yes",
    "highway": "bus_stop",
    "name": "Abel Gance",
    "public_transport": "platform",
    "ref:FR:STIF": "25356",
    "shelter": "yes",
    "source": "survey 05/2018",
    "source:position": "BDOrtho IGN 2018",
    "source:wheelchair": "STIF 2019-01",
    "survey:date": "2020-12-21",
    "wheelchair": "no"
  }
},
{
  "type": "node",
  "id": 4330846046,
  "lat": 48.8341518,
  "lon": 2.2504146,
  "tags": {
    "STIF:zone": "2",
    "bench": "yes",
    "bus": "yes",
    "highway": "bus_stop",
    "name": "Thiers - Maison du Combattant",
    "public_transport": "platform",
    "ref:FR:STIF": "40607",
    "ref:FR:STIF:stop_id": "StopPoint:59:7131590",
    "route_ref": "SUBB",
    "shelter": "no",
    "source:wheelchair": "STIF 2019-01",
    "tactile_paving": "yes",
    "wheelchair": "yes",
    "wikidata": "Q56870776"
  }
},
{
  "type": "node",
  "id": 4551396717,
  "lat": 48.8413754,
  "lon": 2.2318610,
  "tags": {
    "STIF:zone": "2",
    "bench": "yes",
    "bin": "no",
    "bus": "yes",
    "highway": "bus_stop",
    "name": "Rue de Silly",
    "public_transport": "platform",
    "ref:FR:STIF": "25426",
    "ref:FR:STIF:stop_id": "StopPoint:59:4008264",
    "route_ref": "52",
    "shelter": "no",
    "source": "survey",
    "source:wheelchair": "STIF 2019-01",
    "tactile_paving": "no",
    "wheelchair": "yes"
  }
},
{
  "type": "node",
  "id": 4897371527,
  "lat": 48.8407127,
  "lon": 2.2296883,
  "tags": {
    "STIF:zone": "2",
    "bench": "no",
    "bin": "no",
    "bus": "yes",
    "highway": "bus_stop",
    "name": "Rhin et Danube",
    "public_transport": "platform",
    "ref:FR:STIF": "420440",
    "ref:FR:STIF:stop_id": "StopPoint:59:7899699",
    "route_ref": "72",
    "shelter": "no",
    "source:wheelchair": "STIF 2019-01",
    "tactile_paving": "no",
    "wheelchair": "no"
  }
},
{
  "type": "node",
  "id": 4935415723,
  "lat": 48.8469367,
  "lon": 2.2368061,
  "tags": {
    "STIF:zone": "2",
    "bus": "yes",
    "highway": "bus_stop",
    "name": "Parchamp",
    "public_transport": "platform",
    "ref:FR:STIF": "12946",
    "ref:FR:STIF:stop_id": "StopPoint:59:7131576",
    "route_ref": "SUBB",
    "source:wheelchair": "STIF 2019-01",
    "wheelchair": "yes",
    "wikidata": "Q56870691"
  }
},
{
  "type": "node",
  "id": 5266084639,
  "lat": 48.8293281,
  "lon": 2.2302792,
  "tags": {
    "STIF:zone": "2",
    "bench": "no",
    "bus": "yes",
    "highway": "bus_stop",
    "name": "Pont de Sèvres",
    "public_transport": "platform",
    "ref:FR:STIF": "416692",
    "ref:FR:STIF:stop_id": "StopPoint:59:5419723",
    "route_ref": "467;160;467",
    "shelter": "yes",
    "source:wheelchair": "STIF 2019-01",
    "wheelchair": "yes"
  }
},
{
  "type": "node",
  "id": 5266084640,
  "lat": 48.8294781,
  "lon": 2.2290235,
  "tags": {
    "STIF:zone": "2",
    "bench": "yes",
    "bus": "yes",
    "departures_board": "timetable",
    "highway": "bus_stop",
    "lit": "yes",
    "name": "Pont de Sèvres",
    "name:ar": "جسر سيفر",
    "public_transport": "platform",
    "ref:FR:STIF": "12836",
    "ref:FR:STIF:stop_id": "StopPoint:24:14943",
    "route_ref": "Flixbus 1704, 1744;39-34",
    "shelter": "yes"
  }
},
{
  "type": "node",
  "id": 5266293968,
  "lat": 48.8295058,
  "lon": 2.2300000,
  "tags": {
    "STIF:zone": "2",
    "bench": "yes",
    "bin": "no",
    "bus": "yes",
    "departures_board": "timetable",
    "highway": "bus_stop",
    "lit": "yes",
    "name": "Pont de Sèvres",
    "network": "RATP",
    "operator": "Transdev Nanterre",
    "public_transport": "platform",
    "ref:FR:STIF": "40211",
    "ref:FR:STIF:stop_id": "StopPoint:59:4834508",
    "route_ref": "426",
    "shelter": "yes",
    "wheelchair": "yes"
  }
},
{
  "type": "node",
  "id": 5340349242,
  "lat": 48.8456783,
  "lon": 2.2363973,
  "tags": {
    "STIF:zone": "2",
    "bench": "yes",
    "bin": "yes",
    "bus": "yes",
    "check_date:shelter": "2021-07-04",
    "highway": "bus_stop",
    "lit": "yes",
    "name": "Église de Boulogne",
    "public_transport": "platform",
    "ref:FR:STIF": "34240",
    "ref:FR:STIF:stop_id": "StopPoint:59:7069456",
    "route_ref": "260;460",
    "shelter": "yes",
    "source": "survey",
    "tactile_paving": "no",
    "wheelchair": "yes"
  }
},
{
  "type": "node",
  "id": 5340349243,
  "lat": 48.8382402,
  "lon": 2.2322659,
  "tags": {
    "STIF:zone": "2",
    "bus": "yes",
    "highway": "bus_stop",
    "name": "André Morizet",
    "public_transport": "platform",
    "ref:FR:STIF": "24901",
    "ref:FR:STIF:stop_id": "StopPoint:59:7069447",
    "route_ref": "260",
    "shelter": "yes",
    "source": "survey",
    "wheelchair": "yes"
  }
},
{
  "type": "node",
  "id": 5340349244,
  "lat": 48.8318125,
  "lon": 2.2342105,
  "tags": {
    "STIF:zone": "2",
    "bus": "yes",
    "highway": "bus_stop",
    "name": "Lycée Étienne-Jules Marey",
    "public_transport": "platform",
    "ref:FR:STIF": "24905",
    "ref:FR:STIF:stop_id": "StopPoint:59:7827085",
    "route_ref": "260;SUBB;389",
    "source:wheelchair": "STIF 2019-01",
    "wheelchair": "yes"
  }
},
{
  "type": "node",
  "id": 5340349245,
  "lat": 48.8295365,
  "lon": 2.2357895,
  "tags": {
    "STIF:zone": "2",
    "bus": "yes",
    "highway": "bus_stop",
    "name": "Yves Kermen",
    "public_transport": "platform",
    "ref:FR:STIF": "427201",
    "ref:FR:STIF:stop_id": "StopPoint:59:7069347",
    "route_ref": "260;389"
  }
},
{
  "type": "node",
  "id": 5340349246,
  "lat": 48.8281759,
  "lon": 2.2349964,
  "tags": {
    "STIF:zone": "2",
    "bus": "yes",
    "highway": "bus_stop",
    "name": "Cours de l'Île Seguin",
    "public_transport": "platform",
    "ref:FR:STIF": "42023",
    "ref:FR:STIF:stop_id": "StopPoint:59:7827026",
    "route_ref": "260;389",
    "shelter": "yes",
    "source": "survey"
  }
},
{
  "type": "node",
  "id": 5340349252,
  "lat": 48.8479490,
  "lon": 2.2414037,
  "tags": {
    "STIF:zone": "2",
    "bench": "yes",
    "bin": "yes",
    "bus": "yes",
    "check_date:shelter": "2021-06-20",
    "highway": "bus_stop",
    "lit": "yes",
    "name": "Boulogne-Billancourt - Gambetta",
    "public_transport": "platform",
    "ref:FR:STIF": "22549;34244",
    "ref:FR:STIF:stop_id": "StopPoint:59:3681843;StopPoint:17:1393;StopPoint:17:1337",
    "route_ref": "260;460",
    "shelter": "yes",
    "source": "survey",
    "tactile_paving": "no",
    "wheelchair": "yes"
  }
},
{
  "type": "node",
  "id": 5340349253,
  "lat": 48.8476538,
  "lon": 2.2412388,
  "tags": {
    "STIF:zone": "2",
    "bench": "no",
    "bin": "no",
    "bus": "yes",
    "check_date:shelter": "2021-08-08",
    "departures_board": "no",
    "highway": "bus_stop",
    "lit": "yes",
    "name": "Boulogne-Billancourt - Gambetta",
    "public_transport": "platform",
    "ref:FR:STIF": "427198",
    "ref:FR:STIF:stop_id": "StopPoint:59:7069457",
    "route_ref": "260;123;241",
    "shelter": "no",
    "tactile_paving": "no",
    "wheelchair": "yes"
  }
},
{
  "type": "node",
  "id": 5340349254,
  "lat": 48.8432875,
  "lon": 2.2317390,
  "tags": {
    "STIF:zone": "2",
    "bench": "yes",
    "bin": "no",
    "bus": "yes",
    "check_date:shelter": "2021-06-20",
    "departures_board": "timetable",
    "highway": "bus_stop",
    "lit": "yes",
    "name": "Escudier",
    "public_transport": "platform",
    "ref:FR:STIF": "427165",
    "ref:FR:STIF:stop_id": "StopPoint:59:7069454",
    "route_ref": "260;460",
    "shelter": "yes",
    "source": "survey",
    "tactile_paving": "no",
    "wheelchair": "yes"
  }
},
{
  "type": "node",
  "id": 5340349258,
  "lat": 48.8435412,
  "lon": 2.2322968,
  "tags": {
    "STIF:zone": "2",
    "bench": "yes",
    "bin": "no",
    "bus": "yes",
    "highway": "bus_stop",
    "name": "Escudier",
    "public_transport": "platform",
    "ref:FR:STIF": "427167",
    "ref:FR:STIF:stop_id": "StopPoint:17:1391",
    "route_ref": "260;460",
    "shelter": "yes",
    "tactile_paving": "no"
  }
},
{
  "type": "node",
  "id": 5340349259,
  "lat": 48.8416391,
  "lon": 2.2295587,
  "tags": {
    "STIF:zone": "2",
    "bench": "yes",
    "bin": "no",
    "bus": "yes",
    "departures_board": "timetable",
    "highway": "bus_stop",
    "lit": "yes",
    "name": "Rhin et Danube - Musée Albert Kahn",
    "public_transport": "platform",
    "ref:FR:STIF": "427168",
    "ref:FR:STIF:stop_id": "StopPoint:59:7069452",
    "route_ref": "260",
    "shelter": "yes",
    "tactile_paving": "no",
    "wheelchair": "yes"
  }
},
{
  "type": "node",
  "id": 5340349260,
  "lat": 48.8412000,
  "lon": 2.2291798,
  "tags": {
    "STIF:zone": "2",
    "bench": "yes",
    "bin": "no",
    "bus": "yes",
    "check_date:shelter": "2021-06-13",
    "departures_board": "timetable",
    "highway": "bus_stop",
    "lit": "yes",
    "name": "Rhin et Danube - Musée Albert Kahn",
    "public_transport": "platform",
    "ref:FR:STIF": "427169",
    "ref:FR:STIF:stop_id": "StopPoint:59:7069451",
    "route_ref": "260;460",
    "shelter": "yes",
    "source": "survey",
    "tactile_paving": "no",
    "wheelchair": "yes"
  }
},
{
  "type": "node",
  "id": 5340349261,
  "lat": 48.8352770,
  "lon": 2.2325090,
  "tags": {
    "STIF:zone": "2",
    "bus": "yes",
    "highway": "bus_stop",
    "name": "Silly - Galliéni",
    "public_transport": "platform",
    "ref:FR:STIF": "427195",
    "ref:FR:STIF:stop_id": "StopPoint:59:7069444",
    "route_ref": "260"
  }
},
{
  "type": "node",
  "id": 5340349262,
  "lat": 48.8276815,
  "lon": 2.2349652,
  "tags": {
    "STIF:zone": "2",
    "bench": "no",
    "bus": "yes",
    "departures_board": "timetable",
    "highway": "bus_stop",
    "lit": "yes",
    "name": "Cours de l'Île Seguin",
    "public_transport": "platform",
    "ref:FR:STIF": "37861",
    "ref:FR:STIF:stop_id": "StopPoint:59:7827027",
    "route_ref": "260;389",
    "shelter": "no",
    "wheelchair": "yes"
  }
},
{
  "type": "node",
  "id": 5340349263,
  "lat": 48.8245782,
  "lon": 2.2412689,
  "tags": {
    "STIF:zone": "2",
    "bus": "yes",
    "highway": "bus_stop",
    "name": "Pierre Lefaucheux",
    "public_transport": "platform",
    "ref:FR:STIF": "427175",
    "ref:FR:STIF:stop_id": "StopPoint:59:7069434",
    "route_ref": "260"
  }
},
{
  "type": "node",
  "id": 5340349264,
  "lat": 48.8246597,
  "lon": 2.2412840,
  "tags": {
    "STIF:zone": "2",
    "bus": "yes",
    "highway": "bus_stop",
    "name": "Pierre Lefaucheux",
    "public_transport": "platform",
    "ref:FR:STIF": "427172",
    "ref:FR:STIF:stop_id": "StopPoint:59:7069433",
    "route_ref": "260"
  }
},
{
  "type": "node",
  "id": 5340349272,
  "lat": 48.8459232,
  "lon": 2.2372530,
  "tags": {
    "STIF:zone": "2",
    "bench": "no",
    "bin": "no",
    "bus": "yes",
    "departures_board": "timetable",
    "highway": "bus_stop",
    "lit": "yes",
    "name": "Église de Boulogne",
    "public_transport": "platform",
    "ref:FR:STIF": "34241",
    "ref:FR:STIF:stop_id": "StopPoint:59:7069455",
    "route_ref": "260",
    "shelter": "no",
    "tactile_paving": "no",
    "wheelchair": "yes"
  }
},
{
  "type": "node",
  "id": 5340349273,
  "lat": 48.8402381,
  "lon": 2.2292465,
  "tags": {
    "STIF:zone": "2",
    "bench": "yes",
    "bin": "yes",
    "bus": "yes",
    "departures_board": "realtime",
    "highway": "bus_stop",
    "name": "Rhin et Danube",
    "public_transport": "platform",
    "ref:FR:STIF": "427199",
    "ref:FR:STIF:stop_id": "StopPoint:59:7069450",
    "route_ref": "126;175;260",
    "shelter": "yes",
    "source:wheelchair": "STIF 2019-01",
    "tactile_paving": "no",
    "wheelchair": "yes"
  }
},
{
  "type": "node",
  "id": 5340349274,
  "lat": 48.8403769,
  "lon": 2.2293636,
  "tags": {
    "STIF:zone": "2",
    "bench": "yes",
    "bin": "yes",
    "bus": "yes",
    "departures_board": "realtime",
    "highway": "bus_stop",
    "name": "Rhin et Danube",
    "public_transport": "platform",
    "ref:FR:STIF": "28749",
    "ref:FR:STIF:stop_id": "StopPoint:59:7069449",
    "route_ref": "126;175;260",
    "shelter": "yes",
    "source:wheelchair": "STIF 2019-01",
    "tactile_paving": "no",
    "wheelchair": "limited"
  }
},
{
  "type": "node",
  "id": 5340349275,
  "lat": 48.8322407,
  "lon": 2.2338530,
  "tags": {
    "STIF:zone": "2",
    "bus": "yes",
    "highway": "bus_stop",
    "name": "Lycée Étienne-Jules Marey",
    "public_transport": "platform",
    "ref:FR:STIF": "24906",
    "ref:FR:STIF:stop_id": "StopPoint:59:7069442",
    "route_ref": "260",
    "shelter": "yes",
    "source": "survey"
  }
},
{
  "type": "node",
  "id": 5340349276,
  "lat": 48.8261410,
  "lon": 2.2374431,
  "tags": {
    "STIF:zone": "2",
    "bus": "yes",
    "highway": "bus_stop",
    "name": "Parc de Billancourt",
    "public_transport": "platform",
    "ref:FR:STIF": "37860",
    "ref:FR:STIF:stop_id": "StopPoint:59:7827028",
    "route_ref": "42;260;389",
    "source:wheelchair": "STIF 2019-01",
    "wheelchair": "no"
  }
},
{
  "type": "node",
  "id": 5340349277,
  "lat": 48.8261536,
  "lon": 2.2376508,
  "tags": {
    "STIF:zone": "2",
    "bus": "yes",
    "highway": "bus_stop",
    "name": "Parc de Billancourt",
    "public_transport": "platform",
    "ref:FR:STIF": "427164",
    "ref:FR:STIF:stop_id": "StopPoint:59:7827029",
    "route_ref": "260;42",
    "source:wheelchair": "STIF 2019-01",
    "wheelchair": "no"
  }
},
{
  "type": "node",
  "id": 5340349279,
  "lat": 48.8385597,
  "lon": 2.2320523,
  "tags": {
    "STIF:zone": "2",
    "bus": "yes",
    "highway": "bus_stop",
    "name": "André Morizet",
    "public_transport": "platform",
    "ref:FR:STIF": "427194",
    "ref:FR:STIF:stop_id": "StopPoint:59:7069448",
    "route_ref": "260",
    "shelter": "yes",
    "source": "survey",
    "wheelchair": "yes"
  }
},
{
  "type": "node",
  "id": 5340349280,
  "lat": 48.8361074,
  "lon": 2.2322518,
  "tags": {
    "STIF:zone": "2",
    "alt_name": "Square des Frères Farman",
    "bench": "no",
    "bus": "yes",
    "departures_board": "yes",
    "highway": "bus_stop",
    "name": "Square des Frères Farman",
    "public_transport": "platform",
    "ref:FR:STIF": "427170",
    "ref:FR:STIF:stop_id": "StopPoint:59:7131583",
    "route_ref": "260",
    "shelter": "yes",
    "source": "survey"
  }
},
{
  "type": "node",
  "id": 5340349281,
  "lat": 48.8364848,
  "lon": 2.2323818,
  "tags": {
    "STIF:zone": "2",
    "alt_name": "Silly - Galliéni",
    "bench": "yes",
    "bus": "yes",
    "departures_board": "timetable",
    "highway": "bus_stop",
    "name": "Square des Freres Farman",
    "public_transport": "platform",
    "ref:FR:STIF": "427171",
    "ref:FR:STIF:stop_id": "StopPoint:59:7069445",
    "route_ref": "260;160",
    "shelter": "yes",
    "source": "survey"
  }
},
{
  "type": "node",
  "id": 5340349282,
  "lat": 48.8352730,
  "lon": 2.2326614,
  "tags": {
    "STIF:zone": "2",
    "bus": "yes",
    "highway": "bus_stop",
    "name": "Silly - Gallieni",
    "public_transport": "platform",
    "ref:FR:STIF": "427196",
    "ref:FR:STIF:stop_id": "StopPoint:59:7069411",
    "route_ref": "260"
  }
},
{
  "type": "node",
  "id": 5340349283,
  "lat": 48.8302035,
  "lon": 2.2351977,
  "tags": {
    "STIF:zone": "2",
    "bus": "yes",
    "highway": "bus_stop",
    "name": "Yves Kermen",
    "public_transport": "platform",
    "ref:FR:STIF": "427202",
    "ref:FR:STIF:stop_id": "StopPoint:59:7827025",
    "route_ref": "260;SUBB;389",
    "source:wheelchair": "STIF 2019-01",
    "wheelchair": "yes"
  }
},
{
  "type": "node",
  "id": 5342630904,
  "lat": 48.8259251,
  "lon": 2.2479351,
  "tags": {
    "STIF:zone": "2",
    "bench": "yes",
    "bus": "yes",
    "highway": "bus_stop",
    "name": "Pont de Billancourt",
    "public_transport": "platform",
    "ref:FR:STIF": "40807",
    "ref:FR:STIF:stop_id": "StopPoint:59:3681803",
    "route_ref": "123",
    "shelter": "yes",
    "source": "survey 2019-03",
    "source:wheelchair": "STIF 2019-01",
    "wheelchair": "yes"
  }
},
{
  "type": "node",
  "id": 5342638821,
  "lat": 48.8253724,
  "lon": 2.2475567,
  "tags": {
    "STIF:zone": "2",
    "bench": "yes",
    "bus": "yes",
    "highway": "bus_stop",
    "lit": "yes",
    "name": "Pont de Billancourt",
    "public_transport": "platform",
    "ref:FR:STIF": "12835",
    "ref:FR:STIF:stop_id": "StopPoint:59:7827032",
    "route_ref": "389",
    "shelter": "yes",
    "source": "survey",
    "wheelchair": "yes"
  }
},
{
  "type": "node",
  "id": 5471550813,
  "lat": 48.8364650,
  "lon": 2.2397868,
  "tags": {
    "STIF:zone": "2",
    "bus": "yes",
    "highway": "bus_stop",
    "name": "Hôtel de Ville - Les Passages",
    "public_transport": "platform",
    "ref:FR:STIF": "427356",
    "ref:FR:STIF:stop_id": "StopPoint:59:7131585",
    "route_ref": "SUBB",
    "source:wheelchair": "STIF 2019-01",
    "wheelchair": "yes"
  }
},
{
  "type": "node",
  "id": 5471611722,
  "lat": 48.8341439,
  "lon": 2.2439608,
  "tags": {
    "STIF:zone": "2",
    "bench": "yes",
    "bin": "no",
    "bus": "yes",
    "departures_board": "realtime",
    "highway": "bus_stop",
    "lit": "yes",
    "name": "Marcel Sembat",
    "network": "RATP",
    "network:wikidata": "Q474674",
    "network:wikipedia": "fr:Réseau de bus RATP",
    "operator": "RATP",
    "operator:wikidata": "Q643290",
    "operator:wikipedia": "fr:Régie autonome des transports parisiens",
    "public_transport": "platform",
    "ref:FR:STIF": "427352",
    "ref:FR:STIF:stop_id": "StopPoint:59:7131568",
    "route_ref": "SUBB",
    "shelter": "yes",
    "source:wheelchair": "STIF 2019-01",
    "tactile_paving": "no",
    "wheelchair": "yes"
  }
},
{
  "type": "node",
  "id": 5471645366,
  "lat": 48.8344205,
  "lon": 2.2376139,
  "tags": {
    "STIF:zone": "2",
    "bus": "yes",
    "highway": "bus_stop",
    "name": "Pyramide",
    "public_transport": "platform",
    "ref:FR:STIF": "24574",
    "ref:FR:STIF:stop_id": "StopPoint:59:7131600",
    "route_ref": "SUBB",
    "source:wheelchair": "STIF 2019-01",
    "wheelchair": "yes",
    "wikidata": "Q56870698"
  }
},
{
  "type": "node",
  "id": 5471657069,
  "lat": 48.8411174,
  "lon": 2.2313356,
  "tags": {
    "STIF:zone": "2",
    "bench": "yes",
    "bus": "yes",
    "highway": "bus_stop",
    "name": "Rue de Silly - Rue de Paris",
    "public_transport": "platform",
    "ref:FR:STIF": "25696",
    "ref:FR:STIF:stop_id": "StopPoint:59:7131581",
    "route_ref": "SUBB",
    "shelter": "yes",
    "source:wheelchair": "STIF 2019-01",
    "wheelchair": "yes",
    "wikidata": "Q56870887"
  }
},
{
  "type": "node",
  "id": 5930021928,
  "lat": 48.8410842,
  "lon": 2.2268713,
  "tags": {
    "STIF:zone": "2",
    "bench": "yes",
    "bin": "yes",
    "bus": "yes",
    "highway": "bus_stop",
    "name": "Pont de Saint-Cloud - Albert Kahn",
    "public_transport": "platform",
    "ref:FR:STIF": "427159",
    "ref:FR:STIF:stop_id": "StopPoint:59:3632431",
    "route_ref": "17;460;126;160;175;467;52;72",
    "shelter": "yes",
    "source:wheelchair": "STIF 2019-01",
    "tactile_paving": "no",
    "wheelchair": "no"
  }
},
{
  "type": "node",
  "id": 5930021929,
  "lat": 48.8300643,
  "lon": 2.2295327,
  "tags": {
    "STIF:zone": "2",
    "bench": "yes",
    "bus": "yes",
    "departures_board": "timetable",
    "highway": "bus_stop",
    "lit": "yes",
    "name": "Métro Pont de Sèvres",
    "public_transport": "platform",
    "ref:FR:STIF": "5934",
    "ref:FR:STIF:stop_id": "StopPoint:50:335",
    "route_ref": "17",
    "shelter": "yes"
  }
},
{
  "type": "node",
  "id": 5931776595,
  "lat": 48.8408143,
  "lon": 2.2272069,
  "tags": {
    "STIF:zone": "2",
    "bench": "yes",
    "bin": "no",
    "bus": "yes",
    "highway": "bus_stop",
    "name": "Pont de Saint-Cloud - Albert Kahn",
    "public_transport": "platform",
    "ref:FR:STIF": "27091",
    "ref:FR:STIF:stop_id": "StopPoint:59:4008270",
    "route_ref": "52;72;126;160;175;460;467;Hourtoule17",
    "shelter": "yes",
    "source:wheelchair": "STIF 2019-01",
    "tactile_paving": "no",
    "wheelchair": "no"
  }
},
{
  "type": "node",
  "id": 6345169953,
  "lat": 48.8310481,
  "lon": 2.2422140,
  "tags": {
    "STIF:zone": "2",
    "bench": "no",
    "bus": "yes",
    "departures_board": "timetable",
    "highway": "bus_stop",
    "lit": "yes",
    "name": "Marché de Billancourt",
    "network": "RATP",
    "network:wikidata": "Q474674",
    "network:wikipedia": "fr:Réseau de bus RATP",
    "operator": "RATP",
    "operator:wikidata": "Q643290",
    "operator:wikipedia": "fr:Régie autonome des transports parisiens",
    "public_transport": "platform",
    "ref:FR:STIF": "463566",
    "ref:FR:STIF:stop_id": "StopPoint:59:7913280",
    "route_ref": "42",
    "shelter": "no",
    "source:wheelchair": "STIF 2019-01",
    "start_date": "17/12/2021",
    "wheelchair": "no"
  }
},
{
  "type": "node",
  "id": 6345169954,
  "lat": 48.8311982,
  "lon": 2.2423857,
  "tags": {
    "STIF:zone": "2",
    "bench": "no",
    "bus": "yes",
    "highway": "bus_stop",
    "lit": "yes",
    "name": "Marché de Billancourt",
    "public_transport": "platform",
    "ref:FR:STIF": "463528",
    "ref:FR:STIF:stop_id": "StopPoint:59:7913281",
    "route_ref": "42",
    "source:wheelchair": "STIF 2019-01",
    "start_date": "17/12/2021",
    "wheelchair": "no"
  }
},
{
  "type": "node",
  "id": 6399001726,
  "lat": 48.8276204,
  "lon": 2.2349023,
  "tags": {
    "STIF:zone": "2",
    "bench": "no",
    "bus": "yes",
    "departures_board": "timetable",
    "highway": "bus_stop",
    "lit": "yes",
    "name": "Cours de l'Île Seguin",
    "public_transport": "platform",
    "ref:FR:STIF": "463532",
    "ref:FR:STIF:stop_id": "StopPoint:59:7913287",
    "route_ref": "42",
    "shelter": "no",
    "source:wheelchair": "STIF 2019-01",
    "wheelchair": "yes"
  }
},
{
  "type": "node",
  "id": 6418452791,
  "lat": 48.8296455,
  "lon": 2.2304518,
  "tags": {
    "STIF:zone": "2",
    "bench": "no",
    "bin": "no",
    "bus": "yes",
    "departures_board": "realtime",
    "highway": "bus_stop",
    "lit": "yes",
    "name": "Pont de Sèvres",
    "network": "RATP",
    "operator": "RATP",
    "public_transport": "platform",
    "ref:FR:STIF": "25585",
    "ref:FR:STIF:stop_id": "StopPoint:59:4008891;StopPoint:59:4008919",
    "route_ref": "171",
    "shelter": "yes",
    "wheelchair": "yes"
  }
}

  ]
}
