{
  "version": 0.6,
  "generator": "Overpass API 0.7.57.1 74a55df1",
  "osm3s": {
    "timestamp_osm_base": "2022-02-13T13:18:30Z",
    "timestamp_areas_base": "2022-02-13T02:36:10Z",
    "copyright": "The data included in this document is from www.openstreetmap.org. The data is made available under ODbL."
  },
  "elements": [

{
  "type": "node",
  "id": 56532429,
  "lat": 47.3794908,
  "lon": 0.6798723,
  "tags": {
    "bus": "yes",
    "highway": "bus_stop",
    "name": "Strasbourg",
    "network": "Fil Bleu",
    "network:wikidata": "Q3071736",
    "network:wikipedia": "fr:Transports en commun de Tours",
    "operator": "Keolis Tours",
    "public_transport": "stop_position"
  }
},
{
  "type": "node",
  "id": 60946587,
  "lat": 47.4237973,
  "lon": 0.6910232,
  "tags": {
    "bus": "yes",
    "highway": "bus_stop",
    "name": "Coppée",
    "network": "Fil Bleu",
    "public_transport": "stop_position",
    "wheelchair": "yes"
  }
},
{
  "type": "node",
  "id": 61208093,
  "lat": 47.4028196,
  "lon": 0.6973676,
  "tags": {
    "bus": "yes",
    "highway": "bus_stop",
    "name": "Île Aucard",
    "network": "Fil Bleu",
    "network:wikidata": "Q3071736",
    "network:wikipedia": "fr:Transports en commun de Tours",
    "operator": "Keolis Tours",
    "public_transport": "stop_position"
  }
},
{
  "type": "node",
  "id": 102930316,
  "lat": 47.4226703,
  "lon": 0.7064321,
  "tags": {
    "bus": "yes",
    "highway": "bus_stop",
    "name": "Lycée Vaucanson",
    "network": "Fil Bleu",
    "public_transport": "stop_position",
    "shelter": "yes",
    "wheelchair": "yes"
  }
},
{
  "type": "node",
  "id": 259101536,
  "lat": 47.3637389,
  "lon": 0.6881026,
  "tags": {
    "bus": "yes",
    "highway": "bus_stop",
    "name": "Dassault",
    "network": "Fil Bleu",
    "network:wikidata": "Q3071736",
    "network:wikipedia": "fr:Transports en commun de Tours",
    "operator": "Keolis Tours",
    "public_transport": "stop_position"
  }
},
{
  "type": "node",
  "id": 281343778,
  "lat": 47.3906261,
  "lon": 0.6817750,
  "tags": {
    "bus": "yes",
    "highway": "bus_stop",
    "name": "Halles",
    "network": "Fil Bleu",
    "network:wikidata": "Q3071736",
    "network:wikipedia": "fr:Transports en commun de Tours",
    "operator": "Keolis Tours",
    "public_transport": "stop_position"
  }
},
{
  "type": "node",
  "id": 296431214,
  "lat": 47.3794992,
  "lon": 0.6925246,
  "tags": {
    "bus": "yes",
    "highway": "bus_stop",
    "name": "Royer",
    "network": "Fil Bleu",
    "network:wikidata": "Q3071736",
    "network:wikipedia": "fr:Transports en commun de Tours",
    "operator": "Keolis Tours",
    "public_transport": "stop_position"
  }
},
{
  "type": "node",
  "id": 303084942,
  "lat": 47.4278998,
  "lon": 0.7057254,
  "tags": {
    "bus": "yes",
    "highway": "bus_stop",
    "name": "Aérogare",
    "network": "Fil Bleu",
    "public_transport": "stop_position",
    "wheelchair": "yes"
  }
},
{
  "type": "node",
  "id": 303256915,
  "lat": 47.4257009,
  "lon": 0.7042131,
  "tags": {
    "bus": "yes",
    "highway": "bus_stop",
    "name": "Fusaparc",
    "network": "Fil Bleu",
    "public_transport": "stop_position",
    "wheelchair": "yes"
  }
},
{
  "type": "node",
  "id": 303522360,
  "lat": 47.4070426,
  "lon": 0.7203244,
  "tags": {
    "bus": "yes",
    "highway": "bus_stop",
    "name": "MFR Rougemont",
    "network": "Fil Bleu",
    "public_transport": "stop_position"
  }
},
{
  "type": "node",
  "id": 304265812,
  "lat": 47.3655686,
  "lon": 0.6776201,
  "tags": {
    "bus": "yes",
    "description": "Arrêt ligne \"Plan B\" en cas de coupure de la ligne de Tram",
    "highway": "bus_stop",
    "name": "Mérieux",
    "network": "Fil Bleu",
    "network:wikidata": "Q3071736",
    "network:wikipedia": "fr:Transports en commun de Tours",
    "operator": "Keolis Tours",
    "public_transport": "stop_position"
  }
},
{
  "type": "node",
  "id": 304322719,
  "lat": 47.4204015,
  "lon": 0.6806218,
  "tags": {
    "bus": "yes",
    "highway": "bus_stop",
    "name": "Delaroche",
    "network": "Fil Bleu",
    "public_transport": "stop_position"
  }
},
{
  "type": "node",
  "id": 315129488,
  "lat": 47.3606421,
  "lon": 0.6897551,
  "tags": {
    "bench": "no",
    "bus": "yes",
    "highway": "bus_stop",
    "name": "Trobriand",
    "network": "Fil Bleu",
    "network:wikidata": "Q3071736",
    "network:wikipedia": "fr:Transports en commun de Tours",
    "operator": "Keolis Tours",
    "public_transport": "stop_position",
    "shelter": "no",
    "tactile_paving": "no"
  }
},
{
  "type": "node",
  "id": 315129538,
  "lat": 47.3902311,
  "lon": 0.6882160,
  "tags": {
    "bench": "yes",
    "bus": "yes",
    "highway": "bus_stop",
    "name": "Jean Jaurès (Palais)",
    "network": "Fil Bleu",
    "network:wikidata": "Q3071736",
    "network:wikipedia": "fr:Transports en commun de Tours",
    "operator": "Keolis Tours",
    "public_transport": "stop_position",
    "shelter": "yes",
    "tactile_paving": "no"
  }
},
{
  "type": "node",
  "id": 315221323,
  "lat": 47.3899861,
  "lon": 0.6943782,
  "tags": {
    "bench": "yes",
    "bus": "yes",
    "highway": "bus_stop",
    "level": "0",
    "name": "Gare de Tours (Vaillant)",
    "network": "Fil Bleu",
    "network:wikidata": "Q3071736",
    "network:wikipedia": "fr:Transports en commun de Tours",
    "operator": "Keolis Tours",
    "public_transport": "stop_position",
    "ref": "6",
    "shelter": "yes",
    "tactile_paving": "no"
  }
},
{
  "type": "node",
  "id": 342234027,
  "lat": 47.3530056,
  "lon": 0.7044793,
  "tags": {
    "bus": "yes",
    "highway": "bus_stop",
    "name": "La Pérouse",
    "network": "Fil Bleu",
    "network:wikidata": "Q3071736",
    "network:wikipedia": "fr:Transports en commun de Tours",
    "operator": "Keolis Tours",
    "public_transport": "stop_position"
  }
},
{
  "type": "node",
  "id": 342234049,
  "lat": 47.3507537,
  "lon": 0.7033690,
  "tags": {
    "bench": "yes",
    "bus": "yes",
    "highway": "bus_stop",
    "name": "Parc Grandmont",
    "network": "Fil Bleu",
    "network:wikidata": "Q3071736",
    "network:wikipedia": "fr:Transports en commun de Tours",
    "operator": "Keolis Tours",
    "public_transport": "stop_position",
    "shelter": "yes"
  }
},
{
  "type": "node",
  "id": 342928937,
  "lat": 47.3534634,
  "lon": 0.7034494,
  "tags": {
    "bench": "yes",
    "bus": "yes",
    "highway": "bus_stop",
    "name": "Bonamy",
    "public_transport": "stop_position",
    "shelter": "yes",
    "wheelchair": "yes"
  }
},
{
  "type": "node",
  "id": 356690484,
  "lat": 47.3605564,
  "lon": 0.7045672,
  "tags": {
    "bus": "yes",
    "highway": "bus_stop",
    "name": "Saint-Jean",
    "network": "Fil Bleu",
    "network:wikidata": "Q3071736",
    "network:wikipedia": "fr:Transports en commun de Tours",
    "operator": "Keolis Tours",
    "position": "on_side",
    "public_transport": "stop_position",
    "wheelchair": "no"
  }
},
{
  "type": "node",
  "id": 367934932,
  "lat": 47.3936407,
  "lon": 0.7025937,
  "tags": {
    "bench": "yes",
    "bus": "yes",
    "highway": "bus_stop",
    "name": "Renan",
    "network": "Fil Bleu",
    "public_transport": "platform",
    "shelter": "yes"
  }
},
{
  "type": "node",
  "id": 416649474,
  "lat": 47.3840573,
  "lon": 0.6908848,
  "tags": {
    "bus": "yes",
    "highway": "bus_stop",
    "name": "Boisdenier",
    "network": "Fil Bleu",
    "network:wikidata": "Q3071736",
    "network:wikipedia": "fr:Transports en commun de Tours",
    "operator": "Keolis Tours",
    "public_transport": "stop_position"
  }
},
{
  "type": "node",
  "id": 449107992,
  "lat": 47.3606679,
  "lon": 0.7022579,
  "tags": {
    "bench": "yes",
    "bus": "yes",
    "highway": "bus_stop",
    "name": "Lycée Grandmont",
    "network": "Fil Bleu",
    "network:wikidata": "Q3071736",
    "network:wikipedia": "fr:Transports en commun de Tours",
    "operator": "Keolis Tours",
    "public_transport": "stop_position",
    "shelter": "yes",
    "source": "cadastre-dgi-fr source : Direction Générale des Impôts - Cadastre ; mise à jour : 2008",
    "tactile_paving": "no",
    "wheelchair": "yes"
  }
},
{
  "type": "node",
  "id": 474376102,
  "lat": 47.4121737,
  "lon": 0.7085921,
  "tags": {
    "bus": "yes",
    "highway": "bus_stop",
    "name": "De Tastes",
    "network": "Fil Bleu",
    "public_transport": "stop_position"
  }
},
{
  "type": "node",
  "id": 475188243,
  "lat": 47.4345740,
  "lon": 0.6899732,
  "tags": {
    "bus": "yes",
    "highway": "bus_stop",
    "name": "Cousinerie",
    "network": "Fil Bleu",
    "public_transport": "stop_position",
    "source": "cadastre-dgi-fr source : Direction Générale des Impôts - Cadastre ; mise à jour : 2008"
  }
},
{
  "type": "node",
  "id": 475188279,
  "lat": 47.4366228,
  "lon": 0.6832332,
  "tags": {
    "bus": "yes",
    "highway": "bus_stop",
    "name": "Lecotte",
    "network": "Fil Bleu",
    "public_transport": "stop_position",
    "shelter": "no",
    "source": "cadastre-dgi-fr source : Direction Générale des Impôts - Cadastre ; mise à jour : 2008"
  }
},
{
  "type": "node",
  "id": 475188286,
  "lat": 47.4354895,
  "lon": 0.6850715,
  "tags": {
    "bus": "yes",
    "highway": "bus_stop",
    "name": "Lycée Choiseul",
    "public_transport": "stop_position"
  }
},
{
  "type": "node",
  "id": 475188288,
  "lat": 47.4342416,
  "lon": 0.6854729,
  "tags": {
    "bus": "yes",
    "highway": "bus_stop",
    "name": "Lycée Choiseul",
    "network": "Fil Bleu",
    "public_transport": "stop_position",
    "shelter": "yes",
    "wheelchair": "yes"
  }
},
{
  "type": "node",
  "id": 475284179,
  "lat": 47.4300558,
  "lon": 0.6905551,
  "tags": {
    "bus": "yes",
    "highway": "bus_stop",
    "name": "Thalès",
    "public_transport": "stop_position",
    "source": "cadastre-dgi-fr source : Direction Générale des Impôts - Cadastre ; mise à jour : 2008",
    "wheelchair": "yes"
  }
},
{
  "type": "node",
  "id": 475284221,
  "lat": 47.4296901,
  "lon": 0.6801770,
  "tags": {
    "bus": "yes",
    "highway": "bus_stop",
    "name": "Collège Montaigne",
    "network": "Fil Bleu",
    "public_transport": "stop_position",
    "source": "cadastre-dgi-fr source : Direction Générale des Impôts - Cadastre ; mise à jour : 2008"
  }
},
{
  "type": "node",
  "id": 475987392,
  "lat": 47.4188702,
  "lon": 0.7035044,
  "tags": {
    "bus": "yes",
    "highway": "bus_stop",
    "name": "Collège Ronsard",
    "network": "Fil Bleu",
    "public_transport": "stop_position",
    "source": "cadastre-dgi-fr source : Direction Générale des Impôts - Cadastre ; mise à jour : 2008"
  }
},
{
  "type": "node",
  "id": 479109284,
  "lat": 47.4283326,
  "lon": 0.7008528,
  "tags": {
    "bus": "yes",
    "highway": "bus_stop",
    "name": "Torricelli",
    "network": "Fil Bleu",
    "public_transport": "stop_position",
    "source": "cadastre-dgi-fr source : Direction Générale des Impôts - Cadastre ; mise à jour : 2008",
    "wheelchair": "no"
  }
},
{
  "type": "node",
  "id": 482509374,
  "lat": 47.4262525,
  "lon": 0.6852038,
  "tags": {
    "bus": "yes",
    "highway": "bus_stop",
    "name": "Loing",
    "public_transport": "stop_position",
    "source": "cadastre-dgi-fr source : Direction Générale des Impôts - Cadastre ; mise à jour : 2008"
  }
},
{
  "type": "node",
  "id": 495443062,
  "lat": 47.3851528,
  "lon": 0.6768020,
  "tags": {
    "bench": "yes",
    "bus": "yes",
    "highway": "bus_stop",
    "name": "Rabelais",
    "network": "Fil Bleu",
    "public_transport": "stop_position",
    "shelter": "yes",
    "tactile_paving": "no"
  }
},
{
  "type": "node",
  "id": 502257187,
  "lat": 47.3842501,
  "lon": 0.6860393,
  "tags": {
    "bus": "yes",
    "highway": "bus_stop",
    "name": "Prébendes",
    "network": "Fil Bleu",
    "public_transport": "stop_position"
  }
},
{
  "type": "node",
  "id": 539140817,
  "lat": 47.3791849,
  "lon": 0.6798671,
  "tags": {
    "bus": "yes",
    "highway": "bus_stop",
    "name": "Strasbourg",
    "network": "Fil Bleu",
    "network:wikidata": "Q3071736",
    "network:wikipedia": "fr:Transports en commun de Tours",
    "operator": "Keolis Tours",
    "public_transport": "stop_position"
  }
},
{
  "type": "node",
  "id": 566686707,
  "lat": 47.3816321,
  "lon": 0.6687958,
  "tags": {
    "bus": "yes",
    "highway": "bus_stop",
    "name": "Saint-François",
    "network": "Fil Bleu",
    "network:wikidata": "Q3071736",
    "network:wikipedia": "fr:Transports en commun de Tours",
    "operator": "Keolis Tours",
    "public_transport": "stop_position"
  }
},
{
  "type": "node",
  "id": 572036923,
  "lat": 47.4095332,
  "lon": 0.6918115,
  "tags": {
    "bench": "no",
    "bus": "yes",
    "highway": "bus_stop",
    "name": "Pierre Couverte",
    "network": "Fil Bleu",
    "public_transport": "stop_position",
    "shelter": "no",
    "source": "survey",
    "tactile_paving": "no"
  }
},
{
  "type": "node",
  "id": 622597195,
  "lat": 47.3864624,
  "lon": 0.7067779,
  "tags": {
    "bus": "yes",
    "highway": "bus_stop",
    "name": "Pont du Milieu",
    "network": "Fil Bleu",
    "public_transport": "stop_position"
  }
},
{
  "type": "node",
  "id": 622597393,
  "lat": 47.3858621,
  "lon": 0.7038792,
  "tags": {
    "bus": "yes",
    "highway": "bus_stop",
    "name": "Deslandes",
    "public_transport": "stop_position"
  }
},
{
  "type": "node",
  "id": 622597556,
  "lat": 47.3851777,
  "lon": 0.7001087,
  "tags": {
    "bench": "no",
    "bus": "yes",
    "highway": "bus_stop",
    "name": "Docteur Fournier",
    "network": "Fil Bleu",
    "network:wikidata": "Q3071736",
    "network:wikipedia": "fr:Transports en commun de Tours",
    "operator": "Keolis Tours",
    "public_transport": "stop_position",
    "shelter": "no",
    "tactile_paving": "no"
  }
},
{
  "type": "node",
  "id": 622597728,
  "lat": 47.3906506,
  "lon": 0.6928542,
  "tags": {
    "bench": "yes",
    "bus": "yes",
    "highway": "bus_stop",
    "level": "0",
    "name": "Gare Vinci (Parvis)",
    "network": "Fil Bleu",
    "network:wikidata": "Q3071736",
    "network:wikipedia": "fr:Transports en commun de Tours",
    "operator": "Keolis Tours",
    "public_transport": "stop_position",
    "ref": "3",
    "shelter": "yes",
    "tactile_paving": "no",
    "wheelchair": "yes"
  }
},
{
  "type": "node",
  "id": 623873611,
  "lat": 47.3943605,
  "lon": 0.6778933,
  "tags": {
    "bus": "yes",
    "highway": "bus_stop",
    "name": "Victoire",
    "network": "Fil Bleu",
    "network:wikidata": "Q3071736",
    "network:wikipedia": "fr:Transports en commun de Tours",
    "operator": "Keolis Tours",
    "public_transport": "stop_position",
    "source": "cadastre-dgi-fr source : Direction Générale des Impôts - Cadastre;mise à jour : 2010"
  }
},
{
  "type": "node",
  "id": 623914336,
  "lat": 47.3926299,
  "lon": 0.6797268,
  "tags": {
    "bus": "yes",
    "highway": "bus_stop",
    "name": "Grand Marché",
    "network": "Fil Bleu",
    "network:wikidata": "Q3071736",
    "network:wikipedia": "fr:Transports en commun de Tours",
    "operator": "Keolis Tours",
    "public_transport": "stop_position",
    "source": "cadastre-dgi-fr source : Direction Générale des Impôts - Cadastre;mise à jour : 2010"
  }
},
{
  "type": "node",
  "id": 627330602,
  "lat": 47.3674006,
  "lon": 0.7134443,
  "tags": {
    "bench": "yes",
    "bus": "yes",
    "highway": "bus_stop",
    "name": "Fontaines ligne 10",
    "network": "Fil Bleu",
    "network:wikidata": "Q3071736",
    "network:wikipedia": "fr:Transports en commun de Tours",
    "operator": "Keolis Tours",
    "public_transport": "stop_position",
    "shelter": "yes",
    "source": "cadastre-dgi-fr source : Direction Générale des Impôts - Cadastre. Mise à jour : 2010"
  }
},
{
  "type": "node",
  "id": 627330603,
  "lat": 47.3676559,
  "lon": 0.7079567,
  "tags": {
    "bench": "yes",
    "bus": "yes",
    "highway": "bus_stop",
    "name": "D'Indy",
    "network": "Fil Bleu",
    "network:wikidata": "Q3071736",
    "network:wikipedia": "fr:Transports en commun de Tours",
    "operator": "Keolis Tours",
    "public_transport": "stop_position",
    "shelter": "yes",
    "source": "cadastre-dgi-fr source : Direction Générale des Impôts - Cadastre. Mise à jour : 2010",
    "wheelchair": "yes"
  }
},
{
  "type": "node",
  "id": 627330604,
  "lat": 47.3682125,
  "lon": 0.7083767,
  "tags": {
    "bench": "no",
    "bus": "yes",
    "highway": "bus_stop",
    "name": "D'Indy",
    "network": "Fil Bleu",
    "network:wikidata": "Q3071736",
    "network:wikipedia": "fr:Transports en commun de Tours",
    "operator": "Keolis Tours",
    "public_transport": "stop_position",
    "shelter": "no",
    "source": "cadastre-dgi-fr source : Direction Générale des Impôts - Cadastre. Mise à jour : 2010",
    "wheelchair": "yes"
  }
},
{
  "type": "node",
  "id": 627330605,
  "lat": 47.3686263,
  "lon": 0.7112727,
  "tags": {
    "bench": "no",
    "bus": "yes",
    "highway": "bus_stop",
    "name": "Stendhal",
    "network": "Fil Bleu",
    "network:wikidata": "Q3071736",
    "network:wikipedia": "fr:Transports en commun de Tours",
    "operator": "Keolis Tours",
    "public_transport": "stop_position",
    "shelter": "no",
    "source": "cadastre-dgi-fr source : Direction Générale des Impôts - Cadastre. Mise à jour : 2010"
  }
},
{
  "type": "node",
  "id": 627330606,
  "lat": 47.3687980,
  "lon": 0.7108376,
  "tags": {
    "bench": "yes",
    "bus": "yes",
    "highway": "bus_stop",
    "name": "Stendhal",
    "network": "Fil Bleu",
    "network:wikidata": "Q3071736",
    "network:wikipedia": "fr:Transports en commun de Tours",
    "operator": "Keolis Tours",
    "public_transport": "stop_position",
    "shelter": "yes",
    "source": "cadastre-dgi-fr source : Direction Générale des Impôts - Cadastre. Mise à jour : 2010"
  }
},
{
  "type": "node",
  "id": 628945702,
  "lat": 47.4342872,
  "lon": 0.6892798,
  "tags": {
    "bus": "yes",
    "highway": "bus_stop",
    "name": "Cousinerie",
    "network": "Fil Bleu",
    "public_transport": "stop_position"
  }
},
{
  "type": "node",
  "id": 631445331,
  "lat": 47.3657372,
  "lon": 0.7086390,
  "tags": {
    "bench": "no",
    "bus": "yes",
    "highway": "bus_stop",
    "name": "Mozart",
    "network": "Fil Bleu",
    "network:wikidata": "Q3071736",
    "network:wikipedia": "fr:Transports en commun de Tours",
    "operator": "Keolis Tours",
    "public_transport": "stop_position",
    "shelter": "no",
    "source": "cadastre-dgi-fr source : Direction Générale des Impôts - Cadastre. Mise à jour : 2010",
    "wheelchair": "yes"
  }
},
{
  "type": "node",
  "id": 632496436,
  "lat": 47.3735972,
  "lon": 0.6811782,
  "tags": {
    "bus": "yes",
    "highway": "bus_stop",
    "name": "Saint-Sauveur",
    "network": "Fil Bleu",
    "network:wikidata": "Q3071736",
    "network:wikipedia": "fr:Transports en commun de Tours",
    "operator": "Keolis Tours",
    "public_transport": "stop_position",
    "wheelchair": "yes"
  }
},
{
  "type": "node",
  "id": 633415551,
  "lat": 47.3746186,
  "lon": 0.6717390,
  "tags": {
    "bus": "yes",
    "highway": "bus_stop",
    "name": "ZI Menneton",
    "public_transport": "stop_position"
  }
},
{
  "type": "node",
  "id": 635895560,
  "lat": 47.3753587,
  "lon": 0.6657052,
  "tags": {
    "bus": "yes",
    "highway": "bus_stop",
    "name": "Bugatti",
    "public_transport": "stop_position"
  }
},
{
  "type": "node",
  "id": 653104559,
  "lat": 47.3672501,
  "lon": 0.6981862,
  "tags": {
    "bench": "yes",
    "bus": "yes",
    "highway": "bus_stop",
    "name": "Lac",
    "network": "Fil Bleu",
    "network:wikidata": "Q3071736",
    "network:wikipedia": "fr:Transports en commun de Tours",
    "operator": "Keolis Tours",
    "public_transport": "stop_position",
    "shelter": "yes",
    "tactile_paving": "no",
    "wheelchair": "yes"
  }
},
{
  "type": "node",
  "id": 661143269,
  "lat": 47.4124185,
  "lon": 0.7023687,
  "tags": {
    "bus": "yes",
    "highway": "bus_stop",
    "name": "Chopin",
    "network": "Fil Bleu",
    "public_transport": "stop_position"
  }
},
{
  "type": "node",
  "id": 875482975,
  "lat": 47.3798128,
  "lon": 0.6940442,
  "tags": {
    "bench": "yes",
    "bus": "yes",
    "highway": "bus_stop",
    "name": "Liberté",
    "network": "Fil Bleu",
    "network:wikidata": "Q3071736",
    "network:wikipedia": "fr:Transports en commun de Tours",
    "operator": "Keolis Tours",
    "public_transport": "stop_position",
    "shelter": "yes"
  }
},
{
  "type": "node",
  "id": 904534662,
  "lat": 47.3901154,
  "lon": 0.6937605,
  "tags": {
    "bench": "no",
    "bus": "yes",
    "highway": "bus_stop",
    "level": "0",
    "name": "Gare de Tours (Parvis)",
    "network": "Fil Bleu",
    "network:wikidata": "Q3071736",
    "network:wikipedia": "fr:Transports en commun de Tours",
    "operator": "Keolis Tours",
    "public_transport": "stop_position",
    "ref": "5",
    "shelter": "yes",
    "tactile_paving": "no"
  }
},
{
  "type": "node",
  "id": 929371071,
  "lat": 47.4096490,
  "lon": 0.6804855,
  "tags": {
    "bus": "yes",
    "highway": "bus_stop",
    "name": "Bordiers",
    "network": "Fil Bleu",
    "public_transport": "stop_position"
  }
},
{
  "type": "node",
  "id": 929371111,
  "lat": 47.4091556,
  "lon": 0.6806656,
  "tags": {
    "bus": "yes",
    "highway": "bus_stop",
    "name": "Tranchée",
    "network": "Fil Bleu",
    "operator": "Fil Bleu",
    "public_transport": "stop_position"
  }
},
{
  "type": "node",
  "id": 933553554,
  "lat": 47.3635429,
  "lon": 0.6998392,
  "tags": {
    "bus": "yes",
    "highway": "bus_stop",
    "name": "Parc Nord",
    "network": "Fil Bleu",
    "network:wikidata": "Q3071736",
    "network:wikipedia": "fr:Transports en commun de Tours",
    "operator": "Keolis Tours",
    "public_transport": "stop_position",
    "wheelchair": "yes"
  }
},
{
  "type": "node",
  "id": 934807773,
  "lat": 47.3774640,
  "lon": 0.7189516,
  "tags": {
    "bench": "no",
    "bus": "yes",
    "highway": "bus_stop",
    "name": "Parc des Expositions",
    "network": "Fil Bleu",
    "public_transport": "stop_position",
    "shelter": "no",
    "tactile_paving": "no"
  }
},
{
  "type": "node",
  "id": 934974787,
  "lat": 47.3775756,
  "lon": 0.7273128,
  "tags": {
    "bus": "yes",
    "highway": "bus_stop",
    "name": "Stade de la Vallée du Cher",
    "network": "Fil Bleu",
    "public_transport": "stop_position"
  }
},
{
  "type": "node",
  "id": 1034372209,
  "lat": 47.3817787,
  "lon": 0.7060344,
  "tags": {
    "bench": "yes",
    "bus": "yes",
    "highway": "bus_stop",
    "name": "Jolivet",
    "network": "Fil Bleu",
    "network:wikidata": "Q3071736",
    "network:wikipedia": "fr:Transports en commun de Tours",
    "operator": "Keolis Tours",
    "public_transport": "stop_position",
    "shelter": "yes",
    "tactile_paving": "no"
  }
},
{
  "type": "node",
  "id": 1054061439,
  "lat": 47.3838257,
  "lon": 0.6914423,
  "tags": {
    "bench": "yes",
    "bus": "yes",
    "highway": "bus_stop",
    "name": "Boisdenier",
    "network": "Fil Bleu",
    "network:wikidata": "Q3071736",
    "network:wikipedia": "fr:Transports en commun de Tours",
    "operator": "Keolis Tours",
    "public_transport": "stop_position",
    "shelter": "yes",
    "wheelchair": "yes"
  }
},
{
  "type": "node",
  "id": 1054089088,
  "lat": 47.3864244,
  "lon": 0.6903886,
  "tags": {
    "bench": "yes",
    "bus": "yes",
    "highway": "bus_stop",
    "name": "Salengro",
    "network": "Fil Bleu",
    "network:wikidata": "Q3071736",
    "network:wikipedia": "fr:Transports en commun de Tours",
    "operator": "Keolis Tours",
    "public_transport": "stop_position",
    "shelter": "yes",
    "wheelchair": "yes"
  }
},
{
  "type": "node",
  "id": 1054106796,
  "lat": 47.3958340,
  "lon": 0.6805361,
  "tags": {
    "bench": "no",
    "bus": "yes",
    "highway": "bus_stop",
    "name": "Fac des Tanneurs",
    "network": "Fil Bleu",
    "network:wikidata": "Q3071736",
    "network:wikipedia": "fr:Transports en commun de Tours",
    "operator": "Keolis Tours",
    "public_transport": "stop_position",
    "shelter": "no"
  }
},
{
  "type": "node",
  "id": 1054131185,
  "lat": 47.3972989,
  "lon": 0.6891397,
  "tags": {
    "bench": "no",
    "bus": "yes",
    "highway": "bus_stop",
    "name": "Voltaire",
    "public_transport": "stop_position",
    "shelter": "no"
  }
},
{
  "type": "node",
  "id": 1054152687,
  "lat": 47.3974800,
  "lon": 0.6932298,
  "tags": {
    "bench": "yes",
    "bus": "yes",
    "highway": "bus_stop",
    "name": "Château de Tours",
    "public_transport": "stop_position",
    "shelter": "yes"
  }
},
{
  "type": "node",
  "id": 1054152698,
  "lat": 47.3975223,
  "lon": 0.6924320,
  "tags": {
    "bench": "yes",
    "bus": "yes",
    "highway": "bus_stop",
    "name": "Château de Tours",
    "public_transport": "stop_position",
    "shelter": "yes"
  }
},
{
  "type": "node",
  "id": 1054172167,
  "lat": 47.3953155,
  "lon": 0.6997437,
  "tags": {
    "bench": "no",
    "bus": "yes",
    "highway": "bus_stop",
    "name": "Ursulines",
    "network": "Fil Bleu",
    "public_transport": "stop_position",
    "shelter": "no",
    "wheelchair": "yes"
  }
},
{
  "type": "node",
  "id": 1054172171,
  "lat": 47.3956095,
  "lon": 0.6997788,
  "tags": {
    "bench": "no",
    "bus": "yes",
    "highway": "bus_stop",
    "name": "Ursulines",
    "network": "Fil Bleu",
    "public_transport": "stop_position",
    "shelter": "no",
    "wheelchair": "yes"
  }
},
{
  "type": "node",
  "id": 1054232391,
  "lat": 47.3919256,
  "lon": 0.7018318,
  "tags": {
    "bench": "yes",
    "bin": "no",
    "bus": "yes",
    "highway": "bus_stop",
    "name": "Rempart",
    "network": "Fil Bleu",
    "public_transport": "platform",
    "shelter": "yes",
    "tactile_paving": "no"
  }
},
{
  "type": "node",
  "id": 1054232408,
  "lat": 47.3917639,
  "lon": 0.7010011,
  "tags": {
    "bench": "yes",
    "bus": "yes",
    "highway": "bus_stop",
    "name": "Rempart",
    "network": "Fil Bleu",
    "public_transport": "stop_position",
    "shelter": "yes"
  }
},
{
  "type": "node",
  "id": 1054243862,
  "lat": 47.3897908,
  "lon": 0.7025915,
  "tags": {
    "bus": "yes",
    "highway": "bus_stop",
    "name": "Canal",
    "network": "Fil Bleu",
    "public_transport": "stop_position",
    "shelter": "no"
  }
},
{
  "type": "node",
  "id": 1054824024,
  "lat": 47.3856058,
  "lon": 0.7035886,
  "tags": {
    "bench": "no",
    "bus": "yes",
    "highway": "bus_stop",
    "name": "La Fuye",
    "public_transport": "stop_position",
    "shelter": "no"
  }
},
{
  "type": "node",
  "id": 1054824026,
  "lat": 47.3840329,
  "lon": 0.7039722,
  "tags": {
    "bench": "no",
    "bus": "yes",
    "highway": "bus_stop",
    "name": "Florian",
    "public_transport": "stop_position",
    "shelter": "no"
  }
},
{
  "type": "node",
  "id": 1054824040,
  "lat": 47.3866994,
  "lon": 0.7069905,
  "tags": {
    "bus": "yes",
    "highway": "bus_stop",
    "name": "Pont du Milieu",
    "network": "Fil Bleu",
    "public_transport": "stop_position"
  }
},
{
  "type": "node",
  "id": 1054824046,
  "lat": 47.3819130,
  "lon": 0.7066480,
  "tags": {
    "bench": "yes",
    "bus": "yes",
    "highway": "bus_stop",
    "name": "Jolivet",
    "network": "Fil Bleu",
    "network:wikidata": "Q3071736",
    "network:wikipedia": "fr:Transports en commun de Tours",
    "operator": "Keolis Tours",
    "public_transport": "stop_position",
    "shelter": "yes",
    "tactile_paving": "no"
  }
},
{
  "type": "node",
  "id": 1054824051,
  "lat": 47.3845778,
  "lon": 0.7069064,
  "tags": {
    "bench": "no",
    "bus": "yes",
    "highway": "bus_stop",
    "name": "Tour d'Auvergne",
    "network": "Fil Bleu",
    "public_transport": "stop_position",
    "shelter": "no"
  }
},
{
  "type": "node",
  "id": 1054824062,
  "lat": 47.3889478,
  "lon": 0.7060120,
  "tags": {
    "bench": "yes",
    "bus": "yes",
    "highway": "bus_stop",
    "name": "Schweitzer",
    "network": "Fil Bleu",
    "public_transport": "stop_position",
    "shelter": "yes"
  }
},
{
  "type": "node",
  "id": 1054824070,
  "lat": 47.3907005,
  "lon": 0.7052157,
  "tags": {
    "bench": "no",
    "bus": "yes",
    "highway": "bus_stop",
    "name": "Plantin",
    "network": "Fil Bleu",
    "public_transport": "stop_position",
    "shelter": "no"
  }
},
{
  "type": "node",
  "id": 1054824074,
  "lat": 47.3870921,
  "lon": 0.7032375,
  "tags": {
    "bench": "yes",
    "bus": "yes",
    "highway": "bus_stop",
    "name": "Velpeau",
    "public_transport": "stop_position",
    "shelter": "yes"
  }
},
{
  "type": "node",
  "id": 1054884449,
  "lat": 47.3759165,
  "lon": 0.7102123,
  "tags": {
    "bench": "yes",
    "bus": "yes",
    "highway": "bus_stop",
    "name": "Wagner",
    "network": "Fil Bleu",
    "public_transport": "stop_position",
    "shelter": "yes"
  }
},
{
  "type": "node",
  "id": 1054884454,
  "lat": 47.3787255,
  "lon": 0.7104951,
  "tags": {
    "bus": "yes",
    "highway": "bus_stop",
    "name": "Raspail",
    "network": "Fil Bleu",
    "network:wikidata": "Q3071736",
    "network:wikipedia": "fr:Transports en commun de Tours",
    "operator": "Keolis Tours",
    "public_transport": "stop_position",
    "tactile_paving": "no"
  }
},
{
  "type": "node",
  "id": 1054884468,
  "lat": 47.3798569,
  "lon": 0.7086974,
  "tags": {
    "bench": "yes",
    "bus": "yes",
    "highway": "bus_stop",
    "name": "Champ Joli",
    "network": "Fil Bleu",
    "network:wikidata": "Q3071736",
    "network:wikipedia": "fr:Transports en commun de Tours",
    "operator": "Keolis Tours",
    "public_transport": "stop_position",
    "shelter": "yes",
    "tactile_paving": "no"
  }
},
{
  "type": "node",
  "id": 1054884471,
  "lat": 47.3776147,
  "lon": 0.7123125,
  "tags": {
    "bench": "yes",
    "bus": "yes",
    "highway": "bus_stop",
    "name": "Leccia",
    "network": "Fil Bleu",
    "network:wikidata": "Q3071736",
    "network:wikipedia": "fr:Transports en commun de Tours",
    "operator": "Keolis Tours",
    "public_transport": "stop_position",
    "shelter": "yes",
    "tactile_paving": "no"
  }
},
{
  "type": "node",
  "id": 1054884493,
  "lat": 47.3773112,
  "lon": 0.7128083,
  "tags": {
    "bench": "no",
    "bus": "yes",
    "highway": "bus_stop",
    "name": "Leccia",
    "network": "Fil Bleu",
    "network:wikidata": "Q3071736",
    "network:wikipedia": "fr:Transports en commun de Tours",
    "operator": "Keolis Tours",
    "public_transport": "stop_position",
    "shelter": "no",
    "tactile_paving": "no"
  }
},
{
  "type": "node",
  "id": 1054884509,
  "lat": 47.3764290,
  "lon": 0.7076922,
  "tags": {
    "bench": "yes",
    "bus": "yes",
    "highway": "bus_stop",
    "name": "Beaujardin",
    "public_transport": "stop_position",
    "shelter": "yes"
  }
},
{
  "type": "node",
  "id": 1054887925,
  "lat": 47.3759596,
  "lon": 0.7055319,
  "tags": {
    "bench": "no",
    "bus": "yes",
    "highway": "bus_stop",
    "name": "Séverine",
    "network": "Fil Bleu",
    "public_transport": "stop_position",
    "shelter": "no"
  }
},
{
  "type": "node",
  "id": 1054941257,
  "lat": 47.3754352,
  "lon": 0.7059769,
  "tags": {
    "bench": "no",
    "bus": "yes",
    "highway": "bus_stop",
    "name": "Séverine",
    "network": "Fil Bleu",
    "public_transport": "stop_position",
    "shelter": "no"
  }
},
{
  "type": "node",
  "id": 1054941292,
  "lat": 47.3741144,
  "lon": 0.6999812,
  "tags": {
    "bench": "yes",
    "bus": "yes",
    "highway": "bus_stop",
    "name": "Pompiers",
    "network": "Fil Bleu",
    "public_transport": "stop_position",
    "shelter": "yes"
  }
},
{
  "type": "node",
  "id": 1054941318,
  "lat": 47.3735259,
  "lon": 0.6956328,
  "tags": {
    "bench": "yes",
    "bus": "yes",
    "highway": "bus_stop",
    "name": "Verdun",
    "network": "Fil Bleu",
    "network:wikidata": "Q3071736",
    "network:wikipedia": "fr:Transports en commun de Tours",
    "operator": "Keolis Tours",
    "public_transport": "stop_position",
    "shelter": "yes",
    "tactile_paving": "no",
    "wheelchair": "yes"
  }
},
{
  "type": "node",
  "id": 1054996261,
  "lat": 47.3734768,
  "lon": 0.6857717,
  "tags": {
    "bench": "yes",
    "bus": "yes",
    "highway": "bus_stop",
    "name": "Churchill",
    "network": "Fil Bleu",
    "network:wikidata": "Q3071736",
    "network:wikipedia": "fr:Transports en commun de Tours",
    "operator": "Keolis Tours",
    "public_transport": "stop_position",
    "shelter": "yes"
  }
},
{
  "type": "node",
  "id": 1054996266,
  "lat": 47.3734695,
  "lon": 0.6864924,
  "tags": {
    "bench": "no",
    "bus": "yes",
    "highway": "bus_stop",
    "name": "Churchill",
    "network": "Fil Bleu",
    "network:wikidata": "Q3071736",
    "network:wikipedia": "fr:Transports en commun de Tours",
    "operator": "Keolis Tours",
    "public_transport": "stop_position",
    "shelter": "no"
  }
},
{
  "type": "node",
  "id": 1055237546,
  "lat": 47.3736679,
  "lon": 0.6808801,
  "tags": {
    "bench": "yes",
    "bus": "yes",
    "highway": "bus_stop",
    "name": "Saint-Sauveur",
    "network": "Fil Bleu",
    "network:wikidata": "Q3071736",
    "network:wikipedia": "fr:Transports en commun de Tours",
    "operator": "Keolis Tours",
    "public_transport": "stop_position",
    "shelter": "yes",
    "wheelchair": "yes"
  }
},
{
  "type": "node",
  "id": 1059902335,
  "lat": 47.3811931,
  "lon": 0.6844327,
  "tags": {
    "bench": "yes",
    "bus": "yes",
    "highway": "bus_stop",
    "name": "Duplessis",
    "public_transport": "stop_position",
    "shelter": "yes"
  }
},
{
  "type": "node",
  "id": 1059902339,
  "lat": 47.3810853,
  "lon": 0.6850018,
  "tags": {
    "bench": "no",
    "bus": "yes",
    "highway": "bus_stop",
    "name": "Duplessis",
    "public_transport": "stop_position",
    "shelter": "no"
  }
},
{
  "type": "node",
  "id": 1059902340,
  "lat": 47.3803870,
  "lon": 0.6886161,
  "tags": {
    "bench": "yes",
    "bus": "yes",
    "highway": "bus_stop",
    "name": "Carnot",
    "public_transport": "stop_position",
    "shelter": "yes"
  }
},
{
  "type": "node",
  "id": 1059902351,
  "lat": 47.3805504,
  "lon": 0.6878013,
  "tags": {
    "bench": "yes",
    "bus": "yes",
    "highway": "bus_stop",
    "name": "Carnot",
    "network": "Fil Bleu",
    "public_transport": "stop_position",
    "shelter": "yes"
  }
},
{
  "type": "node",
  "id": 1061065503,
  "lat": 47.3612684,
  "lon": 0.7079547,
  "tags": {
    "bench": "no",
    "bus": "yes",
    "highway": "bus_stop",
    "name": "Boutteville",
    "network": "Fil Bleu",
    "network:wikidata": "Q3071736",
    "network:wikipedia": "fr:Transports en commun de Tours",
    "operator": "Keolis Tours",
    "public_transport": "stop_position",
    "shelter": "no",
    "tactile_paving": "no"
  }
},
{
  "type": "node",
  "id": 1061087694,
  "lat": 47.3638501,
  "lon": 0.7021638,
  "tags": {
    "bus": "yes",
    "highway": "bus_stop",
    "name": "Beethoven",
    "network": "Fil Bleu",
    "network:wikidata": "Q3071736",
    "network:wikipedia": "fr:Transports en commun de Tours",
    "operator": "Keolis Tours",
    "public_transport": "stop_position",
    "wheelchair": "no"
  }
},
{
  "type": "node",
  "id": 1061098842,
  "lat": 47.3674163,
  "lon": 0.6981184,
  "tags": {
    "bench": "yes",
    "bus": "yes",
    "highway": "bus_stop",
    "name": "Lac",
    "network": "Fil Bleu",
    "network:wikidata": "Q3071736",
    "network:wikipedia": "fr:Transports en commun de Tours",
    "operator": "Keolis Tours",
    "public_transport": "stop_position",
    "shelter": "yes",
    "tactile_paving": "no",
    "wheelchair": "yes"
  }
},
{
  "type": "node",
  "id": 1061121390,
  "lat": 47.3802302,
  "lon": 0.6929071,
  "tags": {
    "bus": "yes",
    "highway": "bus_stop",
    "name": "Liberté",
    "network": "Fil Bleu",
    "network:wikidata": "Q3071736",
    "network:wikipedia": "fr:Transports en commun de Tours",
    "operator": "Keolis Tours",
    "public_transport": "stop_position"
  }
},
{
  "type": "node",
  "id": 1073811380,
  "lat": 47.3614037,
  "lon": 0.7084546,
  "tags": {
    "bench": "no",
    "bus": "yes",
    "highway": "bus_stop",
    "name": "Boutteville",
    "network": "Fil Bleu",
    "network:wikidata": "Q3071736",
    "network:wikipedia": "fr:Transports en commun de Tours",
    "operator": "Keolis Tours",
    "public_transport": "stop_position",
    "shelter": "no",
    "tactile_paving": "no"
  }
},
{
  "type": "node",
  "id": 1073827923,
  "lat": 47.3612754,
  "lon": 0.7029736,
  "tags": {
    "bus": "yes",
    "highway": "bus_stop",
    "name": "Saint-Jean",
    "network": "Fil Bleu",
    "network:wikidata": "Q3071736",
    "network:wikipedia": "fr:Transports en commun de Tours",
    "operator": "Keolis Tours",
    "public_transport": "stop_position",
    "wheelchair": "no"
  }
},
{
  "type": "node",
  "id": 1075597379,
  "lat": 47.4055732,
  "lon": 0.7032972,
  "tags": {
    "bus": "yes",
    "highway": "bus_stop",
    "name": "Ermitage",
    "network": "Fil Bleu",
    "network:wikidata": "Q3071736",
    "network:wikipedia": "fr:Transports en commun de Tours",
    "operator": "Keolis Tours",
    "public_transport": "stop_position"
  }
},
{
  "type": "node",
  "id": 1075632778,
  "lat": 47.4024708,
  "lon": 0.7118725,
  "tags": {
    "bus": "yes",
    "highway": "bus_stop",
    "name": "Sainte-Radegonde",
    "network": "Fil Bleu",
    "public_transport": "stop_position"
  }
},
{
  "type": "node",
  "id": 1092694398,
  "lat": 47.4369404,
  "lon": 0.7012650,
  "tags": {
    "bus": "yes",
    "highway": "bus_stop",
    "name": "Huygens",
    "network": "Fil Bleu",
    "public_transport": "stop_position"
  }
},
{
  "type": "node",
  "id": 1092694754,
  "lat": 47.4337241,
  "lon": 0.7002552,
  "tags": {
    "bus": "yes",
    "highway": "bus_stop",
    "name": "Brassens",
    "network": "Fil Bleu",
    "public_transport": "stop_position"
  }
},
{
  "type": "node",
  "id": 1092694925,
  "lat": 47.4369703,
  "lon": 0.7043506,
  "tags": {
    "bus": "yes",
    "highway": "bus_stop",
    "name": "Priestley",
    "network": "Fil Bleu",
    "public_transport": "stop_position"
  }
},
{
  "type": "node",
  "id": 1102534474,
  "lat": 47.3882758,
  "lon": 0.6762642,
  "tags": {
    "bench": "yes",
    "bus": "yes",
    "highway": "bus_stop",
    "name": "Saint-Éloi",
    "network": "Fil Bleu",
    "public_transport": "platform",
    "shelter": "yes",
    "tactile_paving": "no"
  }
},
{
  "type": "node",
  "id": 1102534487,
  "lat": 47.3887124,
  "lon": 0.6767851,
  "tags": {
    "bench": "yes",
    "bus": "yes",
    "highway": "bus_stop",
    "name": "Saint-Éloi",
    "network": "Fil Bleu",
    "public_transport": "platform",
    "shelter": "yes",
    "tactile_paving": "no"
  }
},
{
  "type": "node",
  "id": 1102543765,
  "lat": 47.3894571,
  "lon": 0.6749175,
  "tags": {
    "bench": "no",
    "bus": "yes",
    "highway": "bus_stop",
    "name": "Frumeaud",
    "network": "Fil Bleu",
    "public_transport": "platform",
    "shelter": "no",
    "tactile_paving": "no"
  }
},
{
  "type": "node",
  "id": 1102549067,
  "lat": 47.3892782,
  "lon": 0.6810907,
  "tags": {
    "bench": "yes",
    "bus": "yes",
    "highway": "bus_stop",
    "name": "Clocheville",
    "network": "Fil Bleu",
    "network:wikidata": "Q3071736",
    "network:wikipedia": "fr:Transports en commun de Tours",
    "operator": "Keolis Tours",
    "public_transport": "stop_position",
    "shelter": "yes",
    "tactile_paving": "no"
  }
},
{
  "type": "node",
  "id": 1103398077,
  "lat": 47.3891182,
  "lon": 0.6817328,
  "tags": {
    "bench": "yes",
    "bus": "yes",
    "highway": "bus_stop",
    "name": "Clocheville",
    "network": "Fil Bleu",
    "network:wikidata": "Q3071736",
    "network:wikipedia": "fr:Transports en commun de Tours",
    "operator": "Keolis Tours",
    "public_transport": "stop_position",
    "shelter": "yes",
    "tactile_paving": "no"
  }
},
{
  "type": "node",
  "id": 1103398977,
  "lat": 47.3896723,
  "lon": 0.6839132,
  "tags": {
    "bench": "yes",
    "bus": "yes",
    "highway": "bus_stop",
    "name": "Béranger",
    "network": "Fil Bleu",
    "network:wikidata": "Q3071736",
    "network:wikipedia": "fr:Transports en commun de Tours",
    "operator": "Keolis Tours",
    "public_transport": "stop_position",
    "shelter": "yes",
    "tactile_paving": "no"
  }
},
{
  "type": "node",
  "id": 1103399599,
  "lat": 47.3893769,
  "lon": 0.6836080,
  "tags": {
    "bench": "yes",
    "bus": "yes",
    "highway": "bus_stop",
    "name": "Béranger",
    "network": "Fil Bleu",
    "network:wikidata": "Q3071736",
    "network:wikipedia": "fr:Transports en commun de Tours",
    "operator": "Keolis Tours",
    "public_transport": "stop_position",
    "shelter": "yes",
    "tactile_paving": "no"
  }
},
{
  "type": "node",
  "id": 1104456715,
  "lat": 47.3901157,
  "lon": 0.6870849,
  "tags": {
    "bench": "yes",
    "bus": "yes",
    "highway": "bus_stop",
    "name": "Jean Jaurès (Poste)",
    "network": "Fil Bleu",
    "network:wikidata": "Q3071736",
    "network:wikipedia": "fr:Transports en commun de Tours",
    "operator": "Keolis Tours",
    "public_transport": "stop_position",
    "shelter": "yes",
    "tactile_paving": "no"
  }
},
{
  "type": "node",
  "id": 1104465594,
  "lat": 47.3879496,
  "lon": 0.6970276,
  "tags": {
    "bench": "yes",
    "bus": "yes",
    "highway": "bus_stop",
    "name": "Champ Girault",
    "public_transport": "stop_position",
    "shelter": "yes",
    "tactile_paving": "no"
  }
},
{
  "type": "node",
  "id": 1104465596,
  "lat": 47.3877365,
  "lon": 0.6972530,
  "tags": {
    "bench": "yes",
    "bus": "yes",
    "highway": "bus_stop",
    "name": "Champ Girault",
    "public_transport": "stop_position",
    "shelter": "yes",
    "tactile_paving": "no"
  }
},
{
  "type": "node",
  "id": 1104476367,
  "lat": 47.3852607,
  "lon": 0.7000173,
  "tags": {
    "bench": "no",
    "bus": "yes",
    "highway": "bus_stop",
    "name": "Docteur Fournier",
    "network": "Fil Bleu",
    "network:wikidata": "Q3071736",
    "network:wikipedia": "fr:Transports en commun de Tours",
    "operator": "Keolis Tours",
    "public_transport": "stop_position",
    "shelter": "no",
    "tactile_paving": "no"
  }
},
{
  "type": "node",
  "id": 1104491993,
  "lat": 47.3767038,
  "lon": 0.7188947,
  "tags": {
    "bus": "yes",
    "highway": "bus_stop",
    "name": "Parc des Expositions",
    "network": "Fil Bleu",
    "public_transport": "stop_position",
    "shelter": "yes"
  }
},
{
  "type": "node",
  "id": 1104637934,
  "lat": 47.3818213,
  "lon": 0.7060489,
  "tags": {
    "bench": "no",
    "bus": "yes",
    "highway": "bus_stop",
    "name": "Jolivet",
    "network": "Fil Bleu",
    "network:wikidata": "Q3071736",
    "network:wikipedia": "fr:Transports en commun de Tours",
    "operator": "Keolis Tours",
    "public_transport": "stop_position",
    "shelter": "no",
    "tactile_paving": "no"
  }
},
{
  "type": "node",
  "id": 1104656609,
  "lat": 47.3891782,
  "lon": 0.6750157,
  "tags": {
    "bench": "no",
    "bus": "yes",
    "highway": "bus_stop",
    "name": "Frumeaud",
    "network": "Fil Bleu",
    "public_transport": "stop_position",
    "shelter": "no",
    "tactile_paving": "no"
  }
},
{
  "type": "node",
  "id": 1108043789,
  "lat": 47.3669569,
  "lon": 0.6841381,
  "tags": {
    "bench": "yes",
    "bus": "yes",
    "highway": "bus_stop",
    "name": "Fac 2 Lions",
    "network": "Fil Bleu",
    "network:wikidata": "Q3071736",
    "network:wikipedia": "fr:Transports en commun de Tours",
    "operator": "Keolis Tours",
    "public_transport": "stop_position",
    "shelter": "yes",
    "tactile_paving": "no"
  }
},
{
  "type": "node",
  "id": 1108043792,
  "lat": 47.3608032,
  "lon": 0.6896955,
  "tags": {
    "bench": "yes",
    "bus": "yes",
    "highway": "bus_stop",
    "name": "Trobriand",
    "network": "Fil Bleu",
    "network:wikidata": "Q3071736",
    "network:wikipedia": "fr:Transports en commun de Tours",
    "operator": "Keolis Tours",
    "public_transport": "stop_position",
    "shelter": "yes",
    "tactile_paving": "no",
    "wheelchair": "no"
  }
},
{
  "type": "node",
  "id": 1108043804,
  "lat": 47.3556800,
  "lon": 0.7009388,
  "tags": {
    "bench": "yes",
    "bus": "yes",
    "highway": "bus_stop",
    "name": "Arsonval",
    "network": "Fil Bleu",
    "network:wikidata": "Q3071736",
    "network:wikipedia": "fr:Transports en commun de Tours",
    "operator": "Keolis Tours",
    "public_transport": "stop_position",
    "shelter": "yes",
    "wheelchair": "yes"
  }
},
{
  "type": "node",
  "id": 1108043818,
  "lat": 47.3521874,
  "lon": 0.7041275,
  "tags": {
    "bench": "yes",
    "bus": "yes",
    "highway": "bus_stop",
    "name": "La Pérouse",
    "network": "Fil Bleu",
    "network:wikidata": "Q3071736",
    "network:wikipedia": "fr:Transports en commun de Tours",
    "operator": "Keolis Tours",
    "public_transport": "stop_position",
    "shelter": "yes"
  }
},
{
  "type": "node",
  "id": 1108043834,
  "lat": 47.3590680,
  "lon": 0.6937142,
  "tags": {
    "bench": "no",
    "bus": "yes",
    "highway": "bus_stop",
    "name": "Camus",
    "network": "Fil Bleu",
    "network:wikidata": "Q3071736",
    "network:wikipedia": "fr:Transports en commun de Tours",
    "operator": "Keolis Tours",
    "public_transport": "stop_position",
    "shelter": "no",
    "source": "cadastre-dgi-fr source : Direction Générale des Impôts - Cadastre ; mise à jour : 2008",
    "tactile_paving": "no"
  }
},
{
  "type": "node",
  "id": 1108043859,
  "lat": 47.3596387,
  "lon": 0.6916093,
  "tags": {
    "bench": "no",
    "bus": "yes",
    "highway": "bus_stop",
    "name": "Camélias",
    "network": "Fil Bleu",
    "network:wikidata": "Q3071736",
    "network:wikipedia": "fr:Transports en commun de Tours",
    "operator": "Keolis Tours",
    "public_transport": "stop_position",
    "shelter": "no",
    "tactile_paving": "no"
  }
},
{
  "type": "node",
  "id": 1108043861,
  "lat": 47.3536598,
  "lon": 0.7047257,
  "tags": {
    "bus": "yes",
    "highway": "bus_stop",
    "name": "Bonamy",
    "network": "Fil Bleu",
    "network:wikidata": "Q3071736",
    "network:wikipedia": "fr:Transports en commun de Tours",
    "operator": "Keolis Tours",
    "public_transport": "stop_position"
  }
},
{
  "type": "node",
  "id": 1108043863,
  "lat": 47.3646891,
  "lon": 0.6837499,
  "tags": {
    "bench": "yes",
    "bus": "yes",
    "highway": "bus_stop",
    "name": "Polytech",
    "network": "Fil Bleu",
    "network:wikidata": "Q3071736",
    "network:wikipedia": "fr:Transports en commun de Tours",
    "operator": "Keolis Tours",
    "public_transport": "stop_position",
    "tactile_paving": "no"
  }
},
{
  "type": "node",
  "id": 1108043952,
  "lat": 47.3590861,
  "lon": 0.6935904,
  "tags": {
    "bench": "no",
    "bus": "yes",
    "highway": "bus_stop",
    "name": "Camus",
    "network": "Fil Bleu",
    "network:wikidata": "Q3071736",
    "network:wikipedia": "fr:Transports en commun de Tours",
    "operator": "Keolis Tours",
    "public_transport": "stop_position",
    "shelter": "no",
    "tactile_paving": "no"
  }
},
{
  "type": "node",
  "id": 1108043967,
  "lat": 47.3568932,
  "lon": 0.7024941,
  "tags": {
    "bench": "yes",
    "bus": "yes",
    "highway": "bus_stop",
    "name": "Fac Grandmont",
    "network": "Fil Bleu",
    "network:wikidata": "Q3071736",
    "network:wikipedia": "fr:Transports en commun de Tours",
    "operator": "Keolis Tours",
    "public_transport": "stop_position",
    "shelter": "yes",
    "wheelchair": "yes"
  }
},
{
  "type": "node",
  "id": 1108044012,
  "lat": 47.3557605,
  "lon": 0.7013633,
  "tags": {
    "bench": "yes",
    "bus": "yes",
    "highway": "bus_stop",
    "name": "Arsonval",
    "network": "Fil Bleu",
    "network:wikidata": "Q3071736",
    "network:wikipedia": "fr:Transports en commun de Tours",
    "operator": "Keolis Tours",
    "public_transport": "stop_position",
    "shelter": "yes",
    "wheelchair": "yes"
  }
},
{
  "type": "node",
  "id": 1111808954,
  "lat": 47.3877650,
  "lon": 0.6762561,
  "tags": {
    "bench": "yes",
    "bus": "yes",
    "highway": "bus_stop",
    "name": "Arago",
    "network": "Fil Bleu",
    "public_transport": "platform",
    "shelter": "yes",
    "tactile_paving": "no"
  }
},
{
  "type": "node",
  "id": 1111808955,
  "lat": 47.3877558,
  "lon": 0.6765538,
  "tags": {
    "bench": "yes",
    "bus": "yes",
    "highway": "bus_stop",
    "name": "Arago",
    "network": "Fil Bleu",
    "public_transport": "platform",
    "shelter": "yes",
    "tactile_paving": "no"
  }
},
{
  "type": "node",
  "id": 1140761670,
  "lat": 47.3597738,
  "lon": 0.6958756,
  "tags": {
    "bench": "yes",
    "bus": "yes",
    "highway": "bus_stop",
    "name": "Chemin Vert",
    "network": "Fil Bleu",
    "network:wikidata": "Q3071736",
    "network:wikipedia": "fr:Transports en commun de Tours",
    "operator": "Keolis Tours",
    "public_transport": "stop_position",
    "shelter": "yes",
    "tactile_paving": "no"
  }
},
{
  "type": "node",
  "id": 1152666034,
  "lat": 47.3824262,
  "lon": 0.6770734,
  "tags": {
    "bench": "no",
    "bus": "yes",
    "highway": "bus_stop",
    "name": "Giraudeau",
    "network": "Fil Bleu",
    "network:wikidata": "Q3071736",
    "network:wikipedia": "fr:Transports en commun de Tours",
    "operator": "Keolis Tours",
    "public_transport": "stop_position",
    "shelter": "no",
    "tactile_paving": "no"
  }
},
{
  "type": "node",
  "id": 1152666035,
  "lat": 47.3803137,
  "lon": 0.6773076,
  "tags": {
    "bus": "yes",
    "highway": "bus_stop",
    "name": "Général Renault",
    "network": "Fil Bleu",
    "network:wikidata": "Q3071736",
    "network:wikipedia": "fr:Transports en commun de Tours",
    "operator": "Keolis Tours",
    "public_transport": "stop_position"
  }
},
{
  "type": "node",
  "id": 1152666037,
  "lat": 47.3802439,
  "lon": 0.6773146,
  "tags": {
    "bus": "yes",
    "highway": "bus_stop",
    "name": "Général Renault",
    "network": "Fil Bleu",
    "network:wikidata": "Q3071736",
    "network:wikipedia": "fr:Transports en commun de Tours",
    "operator": "Keolis Tours",
    "public_transport": "stop_position"
  }
},
{
  "type": "node",
  "id": 1152666039,
  "lat": 47.3776199,
  "lon": 0.6795514,
  "tags": {
    "bench": "yes",
    "bus": "yes",
    "highway": "bus_stop",
    "name": "Erables",
    "network": "Fil Bleu",
    "network:wikidata": "Q3071736",
    "network:wikipedia": "fr:Transports en commun de Tours",
    "operator": "Keolis Tours",
    "public_transport": "stop_position",
    "shelter": "yes",
    "tactile_paving": "no"
  }
},
{
  "type": "node",
  "id": 1152674607,
  "lat": 47.3773682,
  "lon": 0.6794980,
  "tags": {
    "bench": "no",
    "bus": "yes",
    "highway": "bus_stop",
    "name": "Erables",
    "network": "Fil Bleu",
    "network:wikidata": "Q3071736",
    "network:wikipedia": "fr:Transports en commun de Tours",
    "operator": "Keolis Tours",
    "public_transport": "stop_position",
    "shelter": "no",
    "tactile_paving": "no"
  }
},
{
  "type": "node",
  "id": 1152674614,
  "lat": 47.3745989,
  "lon": 0.6788140,
  "tags": {
    "bench": "no",
    "bus": "yes",
    "highway": "bus_stop",
    "name": "Chevalier",
    "network": "Fil Bleu",
    "network:wikidata": "Q3071736",
    "network:wikipedia": "fr:Transports en commun de Tours",
    "operator": "Keolis Tours",
    "public_transport": "stop_position",
    "shelter": "no",
    "tactile_paving": "no"
  }
},
{
  "type": "node",
  "id": 1304835000,
  "lat": 47.3787438,
  "lon": 0.6999899,
  "tags": {
    "bus": "yes",
    "highway": "bus_stop",
    "name": "Saint-Paul",
    "network": "Fil Bleu",
    "network:wikidata": "Q3071736",
    "network:wikipedia": "fr:Transports en commun de Tours",
    "operator": "Keolis Tours",
    "public_transport": "stop_position"
  }
},
{
  "type": "node",
  "id": 1756406833,
  "lat": 47.4023198,
  "lon": 0.6945189,
  "tags": {
    "bench": "yes",
    "bus": "yes",
    "highway": "bus_stop",
    "name": "Paul Bert",
    "network": "Fil Bleu",
    "public_transport": "stop_position",
    "shelter": "yes",
    "source": "survey"
  }
},
{
  "type": "node",
  "id": 1756640485,
  "lat": 47.4113774,
  "lon": 0.6927200,
  "tags": {
    "bus": "yes",
    "highway": "bus_stop",
    "name": "Devildé",
    "network": "Fil Bleu",
    "public_transport": "stop_position",
    "source": "survey",
    "tactile_paving": "no"
  }
},
{
  "type": "node",
  "id": 1756640804,
  "lat": 47.4131398,
  "lon": 0.6965345,
  "tags": {
    "bus": "yes",
    "highway": "bus_stop",
    "name": "Oratoire",
    "network": "Fil Bleu",
    "public_transport": "stop_position",
    "source": "cadastre-dgi-fr source : Direction Générale des Impôts - Cadastre. Mise à jour : 2012"
  }
},
{
  "type": "node",
  "id": 1756640808,
  "lat": 47.4133578,
  "lon": 0.6965646,
  "tags": {
    "bench": "yes",
    "bus": "yes",
    "highway": "bus_stop",
    "name": "Oratoire",
    "network": "Fil Bleu",
    "public_transport": "stop_position",
    "shelter": "yes",
    "source": "cadastre-dgi-fr source : Direction Générale des Impôts - Cadastre. Mise à jour : 2012"
  }
},
{
  "type": "node",
  "id": 1762609821,
  "lat": 47.3595802,
  "lon": 0.6984510,
  "tags": {
    "bus": "yes",
    "highway": "bus_stop",
    "name": "Alouette",
    "network": "Fil Bleu",
    "network:wikidata": "Q3071736",
    "network:wikipedia": "fr:Transports en commun de Tours",
    "operator": "Keolis Tours",
    "public_transport": "stop_position"
  }
},
{
  "type": "node",
  "id": 1796284487,
  "lat": 47.4091059,
  "lon": 0.7035047,
  "tags": {
    "bus": "yes",
    "highway": "bus_stop",
    "name": "IUT",
    "network": "Fil Bleu",
    "public_transport": "stop_position",
    "wheelchair": "yes"
  }
},
{
  "type": "node",
  "id": 1796322054,
  "lat": 47.4187654,
  "lon": 0.7117509,
  "tags": {
    "bus": "yes",
    "highway": "bus_stop",
    "name": "Vieux Noyer",
    "network": "Fil Bleu",
    "public_transport": "stop_position"
  }
},
{
  "type": "node",
  "id": 1796944987,
  "lat": 47.4087194,
  "lon": 0.7032944,
  "tags": {
    "bus": "yes",
    "highway": "bus_stop",
    "name": "IUT",
    "network": "Fil Bleu",
    "public_transport": "stop_position",
    "wheelchair": "yes"
  }
},
{
  "type": "node",
  "id": 1834704890,
  "lat": 47.3597353,
  "lon": 0.6965874,
  "tags": {
    "bench": "no",
    "bus": "yes",
    "highway": "bus_stop",
    "name": "Aimée",
    "network": "Fil Bleu",
    "network:wikidata": "Q3071736",
    "network:wikipedia": "fr:Transports en commun de Tours",
    "operator": "Keolis Tours",
    "public_transport": "stop_position",
    "shelter": "no",
    "tactile_paving": "no",
    "wheelchair": "yes"
  }
},
{
  "type": "node",
  "id": 1946528325,
  "lat": 47.4066360,
  "lon": 0.6912331,
  "tags": {
    "bench": "no",
    "bus": "yes",
    "highway": "bus_stop",
    "name": "Trianon",
    "network": "Fil Bleu",
    "public_transport": "stop_position",
    "shelter": "no",
    "source": "survey",
    "tactile_paving": "no"
  }
},
{
  "type": "node",
  "id": 1955342255,
  "lat": 47.3948075,
  "lon": 0.6893544,
  "tags": {
    "bench": "no",
    "bus": "yes",
    "highway": "bus_stop",
    "name": "Grand Théatre",
    "network": "Fil Bleu",
    "public_transport": "stop_position",
    "shelter": "no",
    "source": "survey",
    "tactile_paving": "no"
  }
},
{
  "type": "node",
  "id": 2014848876,
  "lat": 47.3912059,
  "lon": 0.6969350,
  "tags": {
    "bench": "yes",
    "bus": "yes",
    "highway": "bus_stop",
    "name": "Heurteloup",
    "public_transport": "stop_position",
    "shelter": "yes",
    "wheelchair": "yes"
  }
},
{
  "type": "node",
  "id": 2014848880,
  "lat": 47.3914900,
  "lon": 0.6970818,
  "tags": {
    "bench": "no",
    "bus": "yes",
    "highway": "bus_stop",
    "name": "Heurteloup",
    "public_transport": "stop_position",
    "shelter": "no",
    "wheelchair": "yes"
  }
},
{
  "type": "node",
  "id": 2014848888,
  "lat": 47.3921939,
  "lon": 0.6998114,
  "tags": {
    "bus": "yes",
    "highway": "bus_stop",
    "name": "Mirabeau",
    "network": "Fil Bleu",
    "public_transport": "platform",
    "wheelchair": "yes"
  }
},
{
  "type": "node",
  "id": 2014848892,
  "lat": 47.3935886,
  "lon": 0.7029417,
  "tags": {
    "bench": "yes",
    "bus": "yes",
    "highway": "bus_stop",
    "name": "Renan",
    "network": "Fil Bleu",
    "public_transport": "platform",
    "shelter": "yes"
  }
},
{
  "type": "node",
  "id": 2015461537,
  "lat": 47.3641767,
  "lon": 0.7049629,
  "tags": {
    "bench": "yes",
    "bus": "yes",
    "highway": "bus_stop",
    "name": "École de Commerce",
    "network": "Fil Bleu",
    "network:wikidata": "Q3071736",
    "network:wikipedia": "fr:Transports en commun de Tours",
    "operator": "Keolis Tours",
    "public_transport": "stop_position",
    "shelter": "yes",
    "source": "gps"
  }
},
{
  "type": "node",
  "id": 2015461538,
  "lat": 47.3643334,
  "lon": 0.7052033,
  "tags": {
    "bench": "yes",
    "bus": "yes",
    "highway": "bus_stop",
    "name": "École de Commerce",
    "network": "Fil Bleu",
    "network:wikidata": "Q3071736",
    "network:wikipedia": "fr:Transports en commun de Tours",
    "operator": "Keolis Tours",
    "public_transport": "stop_position",
    "shelter": "yes",
    "source": "gps"
  }
},
{
  "type": "node",
  "id": 2015461544,
  "lat": 47.3605472,
  "lon": 0.7016590,
  "tags": {
    "bench": "yes",
    "bus": "yes",
    "highway": "bus_stop",
    "name": "Lycée Grandmont",
    "network": "Fil Bleu",
    "network:wikidata": "Q3071736",
    "network:wikipedia": "fr:Transports en commun de Tours",
    "operator": "Keolis Tours",
    "public_transport": "stop_position",
    "shelter": "yes",
    "tactile_paving": "no",
    "wheelchair": "yes"
  }
},
{
  "type": "node",
  "id": 2016286744,
  "lat": 47.3857365,
  "lon": 0.7032720,
  "tags": {
    "bus": "yes",
    "highway": "bus_stop",
    "name": "Deslandes",
    "public_transport": "stop_position"
  }
},
{
  "type": "node",
  "id": 2016286748,
  "lat": 47.3864271,
  "lon": 0.7066045,
  "tags": {
    "bus": "yes",
    "highway": "bus_stop",
    "name": "Pont du Milieu",
    "network": "Fil Bleu",
    "public_transport": "stop_position"
  }
},
{
  "type": "node",
  "id": 2023880211,
  "lat": 47.4114332,
  "lon": 0.6901106,
  "tags": {
    "bus": "yes",
    "highway": "bus_stop",
    "name": "Péguy",
    "network": "Fil Bleu",
    "public_transport": "stop_position"
  }
},
{
  "type": "node",
  "id": 2023926387,
  "lat": 47.4123071,
  "lon": 0.7001367,
  "tags": {
    "bench": "yes",
    "bus": "yes",
    "highway": "bus_stop",
    "name": "Saint-Barthélemy",
    "network": "Fil Bleu",
    "public_transport": "stop_position",
    "shelter": "yes"
  }
},
{
  "type": "node",
  "id": 2024005614,
  "lat": 47.4054892,
  "lon": 0.6827695,
  "tags": {
    "bench": "yes",
    "bus": "yes",
    "highway": "bus_stop",
    "name": "Charles Barrier",
    "network": "Fil Bleu",
    "public_transport": "stop_position",
    "shelter": "yes"
  }
},
{
  "type": "node",
  "id": 2094200649,
  "lat": 47.4066437,
  "lon": 0.6888152,
  "tags": {
    "bench": "no",
    "bus": "yes",
    "highway": "bus_stop",
    "name": "Clinique Velpeau",
    "network": "Fil Bleu",
    "public_transport": "stop_position",
    "shelter": "no",
    "source": "survey",
    "tactile_paving": "no"
  }
},
{
  "type": "node",
  "id": 2094200651,
  "lat": 47.4067914,
  "lon": 0.6888158,
  "tags": {
    "bench": "yes",
    "bus": "yes",
    "highway": "bus_stop",
    "name": "Clinique Velpeau",
    "network": "Fil Bleu",
    "public_transport": "stop_position",
    "shelter": "yes",
    "source": "survey",
    "tactile_paving": "no"
  }
},
{
  "type": "node",
  "id": 2094237431,
  "lat": 47.4096297,
  "lon": 0.6918142,
  "tags": {
    "bench": "no",
    "bus": "yes",
    "highway": "bus_stop",
    "name": "Pierre Couverte",
    "network": "Fil Bleu",
    "public_transport": "stop_position",
    "shelter": "no",
    "source": "survey",
    "tactile_paving": "no"
  }
},
{
  "type": "node",
  "id": 2094250085,
  "lat": 47.4166135,
  "lon": 0.6946905,
  "tags": {
    "bench": "no",
    "bus": "yes",
    "highway": "bus_stop",
    "name": "Champ Chardon",
    "network": "Fil Bleu",
    "public_transport": "stop_position",
    "shelter": "no",
    "source": "survey"
  }
},
{
  "type": "node",
  "id": 2094250086,
  "lat": 47.4166524,
  "lon": 0.6941984,
  "tags": {
    "bench": "yes",
    "bus": "yes",
    "highway": "bus_stop",
    "name": "Champ Chardon",
    "network": "Fil Bleu",
    "public_transport": "stop_position",
    "shelter": "yes",
    "source": "survey"
  }
},
{
  "type": "node",
  "id": 2094250087,
  "lat": 47.4136292,
  "lon": 0.6930018,
  "tags": {
    "bench": "yes",
    "bus": "yes",
    "highway": "bus_stop",
    "name": "Général Estienne",
    "network": "Fil Bleu",
    "public_transport": "stop_position",
    "source": "survey",
    "tactile_paving": "no"
  }
},
{
  "type": "node",
  "id": 2094250089,
  "lat": 47.4164436,
  "lon": 0.6967449,
  "tags": {
    "bus": "yes",
    "highway": "bus_stop",
    "name": "Tremblay",
    "network": "Fil Bleu",
    "public_transport": "stop_position",
    "source": "survey",
    "tactile_paving": "no"
  }
},
{
  "type": "node",
  "id": 2096378095,
  "lat": 47.4181492,
  "lon": 0.7041638,
  "tags": {
    "bench": "yes",
    "bus": "yes",
    "highway": "bus_stop",
    "name": "Maréchal Juin",
    "network": "Fil Bleu",
    "public_transport": "stop_position",
    "shelter": "yes",
    "source": "survey, Orthophoto Tour(s) Plus 2008",
    "tactile_paving": "no",
    "wheelchair": "yes"
  }
},
{
  "type": "node",
  "id": 2096378096,
  "lat": 47.4185638,
  "lon": 0.7045077,
  "tags": {
    "bench": "no",
    "bus": "yes",
    "highway": "bus_stop",
    "name": "Maréchal Juin",
    "network": "Fil Bleu",
    "public_transport": "stop_position",
    "shelter": "no",
    "source": "survey, Orthophoto Tour(s) Plus 2008",
    "tactile_paving": "no",
    "wheelchair": "yes"
  }
},
{
  "type": "node",
  "id": 2110811603,
  "lat": 47.4230943,
  "lon": 0.6873852,
  "tags": {
    "bus": "yes",
    "description": "Arrêt ligne \"Plan B\" en cas de coupure de la ligne de Tram",
    "highway": "bus_stop",
    "name": "Rotterdam",
    "network": "Fil Bleu",
    "public_transport": "stop_position"
  }
},
{
  "type": "node",
  "id": 2193022750,
  "lat": 47.3948017,
  "lon": 0.6753082,
  "tags": {
    "bus": "yes",
    "highway": "bus_stop",
    "name": "Dames Blanches",
    "network": "Fil Bleu",
    "network:wikidata": "Q3071736",
    "network:wikipedia": "fr:Transports en commun de Tours",
    "operator": "Keolis Tours",
    "public_transport": "stop_position",
    "wheelchair": "yes"
  }
},
{
  "type": "node",
  "id": 2193022754,
  "lat": 47.3812978,
  "lon": 0.7018600,
  "tags": {
    "bus": "yes",
    "highway": "bus_stop",
    "name": "Mermoz",
    "network": "Fil Bleu",
    "network:wikidata": "Q3071736",
    "network:wikipedia": "fr:Transports en commun de Tours",
    "operator": "Keolis Tours",
    "public_transport": "stop_position"
  }
},
{
  "type": "node",
  "id": 2193022756,
  "lat": 47.3794763,
  "lon": 0.6989956,
  "tags": {
    "bus": "yes",
    "highway": "bus_stop",
    "name": "Saint-Paul",
    "network": "Fil Bleu",
    "network:wikidata": "Q3071736",
    "network:wikipedia": "fr:Transports en commun de Tours",
    "operator": "Keolis Tours",
    "public_transport": "stop_position"
  }
},
{
  "type": "node",
  "id": 2193022758,
  "lat": 47.3938151,
  "lon": 0.6728915,
  "tags": {
    "bus": "yes",
    "highway": "bus_stop",
    "name": "Boyer",
    "network": "Fil Bleu",
    "network:wikidata": "Q3071736",
    "network:wikipedia": "fr:Transports en commun de Tours",
    "operator": "Keolis Tours",
    "public_transport": "stop_position"
  }
},
{
  "type": "node",
  "id": 2193022759,
  "lat": 47.3839589,
  "lon": 0.6682213,
  "tags": {
    "bus": "yes",
    "highway": "bus_stop",
    "name": "Tonnellé",
    "network": "Fil Bleu",
    "network:wikidata": "Q3071736",
    "network:wikipedia": "fr:Transports en commun de Tours",
    "operator": "Keolis Tours",
    "public_transport": "stop_position"
  }
},
{
  "type": "node",
  "id": 2193022760,
  "lat": 47.3926587,
  "lon": 0.6700444,
  "tags": {
    "bus": "yes",
    "highway": "bus_stop",
    "name": "Preuilly",
    "network": "Fil Bleu",
    "network:wikidata": "Q3071736",
    "network:wikipedia": "fr:Transports en commun de Tours",
    "operator": "Keolis Tours",
    "public_transport": "stop_position"
  }
},
{
  "type": "node",
  "id": 2193022763,
  "lat": 47.3966110,
  "lon": 0.6857614,
  "tags": {
    "bus": "yes",
    "highway": "bus_stop",
    "name": "Porte de Loire",
    "network": "Fil Bleu",
    "network:wikidata": "Q3071736",
    "network:wikipedia": "fr:Transports en commun de Tours",
    "operator": "Keolis Tours",
    "public_transport": "stop_position"
  }
},
{
  "type": "node",
  "id": 2193022765,
  "lat": 47.3797241,
  "lon": 0.6767224,
  "tags": {
    "bus": "yes",
    "highway": "bus_stop",
    "name": "Général Renault",
    "network": "Fil Bleu",
    "network:wikidata": "Q3071736",
    "network:wikipedia": "fr:Transports en commun de Tours",
    "operator": "Keolis Tours",
    "public_transport": "stop_position"
  }
},
{
  "type": "node",
  "id": 2193022767,
  "lat": 47.3897709,
  "lon": 0.6676665,
  "tags": {
    "bus": "yes",
    "highway": "bus_stop",
    "name": "Desmoulins",
    "network": "Fil Bleu",
    "public_transport": "stop_position"
  }
},
{
  "type": "node",
  "id": 2193022774,
  "lat": 47.3813020,
  "lon": 0.7022961,
  "tags": {
    "bus": "yes",
    "highway": "bus_stop",
    "name": "Mermoz",
    "network": "Fil Bleu",
    "network:wikidata": "Q3071736",
    "network:wikipedia": "fr:Transports en commun de Tours",
    "operator": "Keolis Tours",
    "public_transport": "stop_position"
  }
},
{
  "type": "node",
  "id": 2193022778,
  "lat": 47.3965587,
  "lon": 0.6851021,
  "tags": {
    "bus": "yes",
    "highway": "bus_stop",
    "name": "Porte de Loire",
    "network": "Fil Bleu",
    "network:wikidata": "Q3071736",
    "network:wikipedia": "fr:Transports en commun de Tours",
    "operator": "Keolis Tours",
    "public_transport": "stop_position"
  }
},
{
  "type": "node",
  "id": 2193022779,
  "lat": 47.3799317,
  "lon": 0.6946931,
  "tags": {
    "bus": "yes",
    "highway": "bus_stop",
    "name": "Liberté",
    "network": "Fil Bleu",
    "network:wikidata": "Q3071736",
    "network:wikipedia": "fr:Transports en commun de Tours",
    "operator": "Keolis Tours",
    "public_transport": "stop_position"
  }
},
{
  "type": "node",
  "id": 2193022782,
  "lat": 47.3842299,
  "lon": 0.6681732,
  "tags": {
    "bus": "yes",
    "highway": "bus_stop",
    "name": "Tonnellé",
    "network": "Fil Bleu",
    "network:wikidata": "Q3071736",
    "network:wikipedia": "fr:Transports en commun de Tours",
    "operator": "Keolis Tours",
    "public_transport": "stop_position"
  }
},
{
  "type": "node",
  "id": 2193022783,
  "lat": 47.3816932,
  "lon": 0.7049156,
  "tags": {
    "bus": "yes",
    "highway": "bus_stop",
    "name": "Rotonde",
    "network": "Fil Bleu",
    "network:wikidata": "Q3071736",
    "network:wikipedia": "fr:Transports en commun de Tours",
    "operator": "Keolis Tours",
    "public_transport": "stop_position"
  }
},
{
  "type": "node",
  "id": 2193022787,
  "lat": 47.3935754,
  "lon": 0.6722953,
  "tags": {
    "bus": "yes",
    "highway": "bus_stop",
    "name": "Boyer",
    "network": "Fil Bleu",
    "network:wikidata": "Q3071736",
    "network:wikipedia": "fr:Transports en commun de Tours",
    "operator": "Keolis Tours",
    "public_transport": "stop_position"
  }
},
{
  "type": "node",
  "id": 2193022788,
  "lat": 47.3796447,
  "lon": 0.6708046,
  "tags": {
    "bus": "yes",
    "highway": "bus_stop",
    "name": "Maryse Bastié",
    "network": "Fil Bleu",
    "network:wikidata": "Q3071736",
    "network:wikipedia": "fr:Transports en commun de Tours",
    "operator": "Keolis Tours",
    "public_transport": "stop_position"
  }
},
{
  "type": "node",
  "id": 2193022790,
  "lat": 47.3817163,
  "lon": 0.7050857,
  "tags": {
    "bus": "yes",
    "highway": "bus_stop",
    "name": "Rotonde",
    "network": "Fil Bleu",
    "network:wikidata": "Q3071736",
    "network:wikipedia": "fr:Transports en commun de Tours",
    "operator": "Keolis Tours",
    "public_transport": "stop_position"
  }
},
{
  "type": "node",
  "id": 2193022791,
  "lat": 47.3796545,
  "lon": 0.6712287,
  "tags": {
    "bus": "yes",
    "highway": "bus_stop",
    "name": "Maryse Bastié",
    "network": "Fil Bleu",
    "network:wikidata": "Q3071736",
    "network:wikipedia": "fr:Transports en commun de Tours",
    "operator": "Keolis Tours",
    "public_transport": "stop_position"
  }
},
{
  "type": "node",
  "id": 2193022792,
  "lat": 47.3870009,
  "lon": 0.6673002,
  "tags": {
    "bus": "yes",
    "highway": "bus_stop",
    "name": "Bretonneau",
    "network": "Fil Bleu",
    "network:wikidata": "Q3071736",
    "network:wikipedia": "fr:Transports en commun de Tours",
    "operator": "Keolis Tours",
    "public_transport": "stop_position"
  }
},
{
  "type": "node",
  "id": 2193022793,
  "lat": 47.3797198,
  "lon": 0.6763519,
  "tags": {
    "bus": "yes",
    "highway": "bus_stop",
    "name": "Général Renault",
    "network": "Fil Bleu",
    "network:wikidata": "Q3071736",
    "network:wikipedia": "fr:Transports en commun de Tours",
    "operator": "Keolis Tours",
    "public_transport": "stop_position"
  }
},
{
  "type": "node",
  "id": 2193022795,
  "lat": 47.3898658,
  "lon": 0.6676964,
  "tags": {
    "bus": "yes",
    "highway": "bus_stop",
    "name": "Desmoulins",
    "network": "Fil Bleu",
    "public_transport": "stop_position"
  }
},
{
  "type": "node",
  "id": 2193022796,
  "lat": 47.3797885,
  "lon": 0.6988632,
  "tags": {
    "bus": "yes",
    "highway": "bus_stop",
    "name": "Saint-Paul",
    "network": "Fil Bleu",
    "network:wikidata": "Q3071736",
    "network:wikipedia": "fr:Transports en commun de Tours",
    "operator": "Keolis Tours",
    "public_transport": "stop_position"
  }
},
{
  "type": "node",
  "id": 2193022798,
  "lat": 47.3803196,
  "lon": 0.6816040,
  "tags": {
    "bus": "yes",
    "highway": "bus_stop",
    "name": "Strasbourg",
    "network": "Fil Bleu",
    "network:wikidata": "Q3071736",
    "network:wikipedia": "fr:Transports en commun de Tours",
    "operator": "Keolis Tours",
    "public_transport": "stop_position"
  }
},
{
  "type": "node",
  "id": 2193022799,
  "lat": 47.3805892,
  "lon": 0.6806496,
  "tags": {
    "bus": "yes",
    "highway": "bus_stop",
    "name": "Strasbourg",
    "network": "Fil Bleu",
    "network:wikidata": "Q3071736",
    "network:wikipedia": "fr:Transports en commun de Tours",
    "operator": "Keolis Tours",
    "public_transport": "stop_position"
  }
},
{
  "type": "node",
  "id": 2193022801,
  "lat": 47.3874438,
  "lon": 0.6671450,
  "tags": {
    "bus": "yes",
    "highway": "bus_stop",
    "name": "Bretonneau",
    "network": "Fil Bleu",
    "network:wikidata": "Q3071736",
    "network:wikipedia": "fr:Transports en commun de Tours",
    "operator": "Keolis Tours",
    "public_transport": "stop_position"
  }
},
{
  "type": "node",
  "id": 2194451034,
  "lat": 47.4278773,
  "lon": 0.6905365,
  "tags": {
    "bus": "yes",
    "highway": "bus_stop",
    "name": "L.P. Clouet",
    "public_transport": "stop_position",
    "wheelchair": "yes"
  }
},
{
  "type": "node",
  "id": 2194451039,
  "lat": 47.4223776,
  "lon": 0.6810201,
  "tags": {
    "bus": "yes",
    "highway": "bus_stop",
    "name": "Europe",
    "public_transport": "stop_position"
  }
},
{
  "type": "node",
  "id": 2194451040,
  "lat": 47.4225948,
  "lon": 0.6828617,
  "tags": {
    "bus": "yes",
    "highway": "bus_stop",
    "name": "Beffroi",
    "public_transport": "stop_position"
  }
},
{
  "type": "node",
  "id": 2194451043,
  "lat": 47.4330698,
  "lon": 0.7042515,
  "tags": {
    "bus": "yes",
    "highway": "bus_stop",
    "name": "Europarc",
    "network": "Fil Bleu",
    "public_transport": "stop_position"
  }
},
{
  "type": "node",
  "id": 2194451044,
  "lat": 47.4019198,
  "lon": 0.6839800,
  "tags": {
    "bus": "yes",
    "highway": "bus_stop",
    "name": "Place Choiseul",
    "network": "Fil Bleu",
    "public_transport": "stop_position"
  }
},
{
  "type": "node",
  "id": 2194451048,
  "lat": 47.4052110,
  "lon": 0.6826338,
  "tags": {
    "bus": "yes",
    "highway": "bus_stop",
    "name": "Charles Barrier",
    "network": "Fil Bleu",
    "public_transport": "stop_position"
  }
},
{
  "type": "node",
  "id": 2194451050,
  "lat": 47.4260489,
  "lon": 0.6833882,
  "tags": {
    "bus": "yes",
    "highway": "bus_stop",
    "name": "Charleroi",
    "public_transport": "stop_position"
  }
},
{
  "type": "node",
  "id": 2194451051,
  "lat": 47.4328559,
  "lon": 0.6976885,
  "tags": {
    "bus": "yes",
    "highway": "bus_stop",
    "name": "Danemark",
    "network": "Fil Bleu",
    "public_transport": "stop_position"
  }
},
{
  "type": "node",
  "id": 2194451064,
  "lat": 47.4329121,
  "lon": 0.7041426,
  "tags": {
    "bus": "yes",
    "highway": "bus_stop",
    "name": "Europarc",
    "network": "Fil Bleu",
    "public_transport": "stop_position"
  }
},
{
  "type": "node",
  "id": 2194451065,
  "lat": 47.3655672,
  "lon": 0.6774302,
  "tags": {
    "bus": "yes",
    "description": "Arrêt ligne \"Plan B\" en cas de coupure de la ligne de Tram",
    "highway": "bus_stop",
    "name": "Mérieux",
    "network": "Fil Bleu",
    "network:wikidata": "Q3071736",
    "network:wikipedia": "fr:Transports en commun de Tours",
    "operator": "Keolis Tours",
    "public_transport": "stop_position"
  }
},
{
  "type": "node",
  "id": 2194451066,
  "lat": 47.4293992,
  "lon": 0.6903808,
  "tags": {
    "bus": "yes",
    "highway": "bus_stop",
    "name": "Thalès",
    "public_transport": "stop_position",
    "wheelchair": "yes"
  }
},
{
  "type": "node",
  "id": 2194451067,
  "lat": 47.4316459,
  "lon": 0.6864649,
  "tags": {
    "bus": "yes",
    "highway": "bus_stop",
    "name": "Abbaye Gatines",
    "network": "Fil Bleu",
    "public_transport": "stop_position",
    "shelter": "no",
    "wheelchair": "no"
  }
},
{
  "type": "node",
  "id": 2194451077,
  "lat": 47.4367998,
  "lon": 0.6835415,
  "tags": {
    "bus": "yes",
    "highway": "bus_stop",
    "name": "Les Douets",
    "network": "Fil Bleu",
    "operator": "Fil Bleu",
    "public_transport": "stop_position",
    "shelter": "yes",
    "wheelchair": "yes"
  }
},
{
  "type": "node",
  "id": 2194451082,
  "lat": 47.3773954,
  "lon": 0.6940337,
  "tags": {
    "bus": "yes",
    "highway": "bus_stop",
    "name": "Charcot",
    "network": "Fil Bleu",
    "network:wikidata": "Q3071736",
    "network:wikipedia": "fr:Transports en commun de Tours",
    "operator": "Keolis Tours",
    "public_transport": "stop_position",
    "wheelchair": "yes"
  }
},
{
  "type": "node",
  "id": 2194451083,
  "lat": 47.4336912,
  "lon": 0.7004910,
  "tags": {
    "bus": "yes",
    "highway": "bus_stop",
    "name": "Brassens",
    "network": "Fil Bleu",
    "public_transport": "stop_position"
  }
},
{
  "type": "node",
  "id": 2194451084,
  "lat": 47.3691850,
  "lon": 0.6786559,
  "tags": {
    "bus": "yes",
    "highway": "bus_stop",
    "name": "Jacques Monod",
    "network": "Fil Bleu",
    "network:wikidata": "Q3071736",
    "network:wikipedia": "fr:Transports en commun de Tours",
    "operator": "Keolis Tours",
    "public_transport": "stop_position"
  }
},
{
  "type": "node",
  "id": 2194451087,
  "lat": 47.4343859,
  "lon": 0.6854287,
  "tags": {
    "bus": "yes",
    "highway": "bus_stop",
    "name": "Lycée Choiseul",
    "network": "Fil Bleu",
    "public_transport": "stop_position",
    "shelter": "yes",
    "wheelchair": "yes"
  }
},
{
  "type": "node",
  "id": 2194451088,
  "lat": 47.4249084,
  "lon": 0.6827289,
  "tags": {
    "bus": "yes",
    "highway": "bus_stop",
    "name": "Charleroi",
    "public_transport": "stop_position"
  }
},
{
  "type": "node",
  "id": 2194451089,
  "lat": 47.4329199,
  "lon": 0.6978245,
  "tags": {
    "bus": "yes",
    "highway": "bus_stop",
    "name": "Danemark",
    "network": "Fil Bleu",
    "public_transport": "stop_position"
  }
},
{
  "type": "node",
  "id": 2194451095,
  "lat": 47.4305212,
  "lon": 0.6972555,
  "tags": {
    "bus": "yes",
    "highway": "bus_stop",
    "name": "D'Alembert",
    "network": "Fil Bleu",
    "public_transport": "stop_position"
  }
},
{
  "type": "node",
  "id": 2194451100,
  "lat": 47.4019562,
  "lon": 0.6842004,
  "tags": {
    "bus": "yes",
    "highway": "bus_stop",
    "name": "Place Choiseul",
    "network": "Fil Bleu",
    "public_transport": "stop_position"
  }
},
{
  "type": "node",
  "id": 2194451102,
  "lat": 47.4151023,
  "lon": 0.6883924,
  "tags": {
    "bus": "yes",
    "highway": "bus_stop",
    "name": "Beauverger",
    "network": "Fil Bleu",
    "public_transport": "stop_position"
  }
},
{
  "type": "node",
  "id": 2194451106,
  "lat": 47.4262912,
  "lon": 0.6855356,
  "tags": {
    "bus": "yes",
    "highway": "bus_stop",
    "name": "Loing",
    "public_transport": "stop_position"
  }
},
{
  "type": "node",
  "id": 2194451109,
  "lat": 47.3699243,
  "lon": 0.6777578,
  "tags": {
    "bus": "yes",
    "highway": "bus_stop",
    "name": "Jacques Monod",
    "network": "Fil Bleu",
    "network:wikidata": "Q3071736",
    "network:wikipedia": "fr:Transports en commun de Tours",
    "operator": "Keolis Tours",
    "public_transport": "stop_position"
  }
},
{
  "type": "node",
  "id": 2194451110,
  "lat": 47.4222524,
  "lon": 0.6805406,
  "tags": {
    "bus": "yes",
    "highway": "bus_stop",
    "name": "Europe",
    "public_transport": "stop_position"
  }
},
{
  "type": "node",
  "id": 2194451111,
  "lat": 47.4306476,
  "lon": 0.6971670,
  "tags": {
    "bus": "yes",
    "highway": "bus_stop",
    "name": "D'Alembert",
    "network": "Fil Bleu",
    "public_transport": "stop_position"
  }
},
{
  "type": "node",
  "id": 2194451112,
  "lat": 47.4322483,
  "lon": 0.6861533,
  "tags": {
    "bus": "yes",
    "highway": "bus_stop",
    "name": "Abbaye Gatines",
    "network": "Fil Bleu",
    "public_transport": "stop_position",
    "shelter": "no",
    "wheelchair": "no"
  }
},
{
  "type": "node",
  "id": 2213228919,
  "lat": 47.3909146,
  "lon": 0.6928215,
  "tags": {
    "bench": "yes",
    "bus": "yes",
    "highway": "bus_stop",
    "level": "0",
    "name": "Gare Vinci (Jardin)",
    "network": "Fil Bleu",
    "network:wikidata": "Q3071736",
    "network:wikipedia": "fr:Transports en commun de Tours",
    "operator": "Keolis Tours",
    "public_transport": "stop_position",
    "ref": "4",
    "shelter": "yes",
    "tactile_paving": "no",
    "wheelchair": "yes"
  }
},
{
  "type": "node",
  "id": 2213228946,
  "lat": 47.4286483,
  "lon": 0.6791369,
  "tags": {
    "bus": "yes",
    "highway": "bus_stop",
    "name": "Compagnon",
    "public_transport": "stop_position",
    "shelter": "no"
  }
},
{
  "type": "node",
  "id": 2213228951,
  "lat": 47.4059534,
  "lon": 0.7030278,
  "tags": {
    "bus": "yes",
    "highway": "bus_stop",
    "name": "Passerelle",
    "network": "Fil Bleu",
    "public_transport": "stop_position",
    "wheelchair": "no"
  }
},
{
  "type": "node",
  "id": 2213228987,
  "lat": 47.4227421,
  "lon": 0.7057427,
  "tags": {
    "bus": "yes",
    "highway": "bus_stop",
    "name": "Lycée Vaucanson",
    "network": "Fil Bleu",
    "public_transport": "stop_position"
  }
},
{
  "type": "node",
  "id": 2213228991,
  "lat": 47.4261830,
  "lon": 0.6794522,
  "tags": {
    "bus": "yes",
    "highway": "bus_stop",
    "name": "Picardie",
    "public_transport": "stop_position",
    "shelter": "no"
  }
},
{
  "type": "node",
  "id": 2213228999,
  "lat": 47.4243507,
  "lon": 0.6973008,
  "tags": {
    "bus": "yes",
    "highway": "bus_stop",
    "name": "Luxembourg",
    "network": "Fil Bleu",
    "public_transport": "stop_position",
    "wheelchair": "yes"
  }
},
{
  "type": "node",
  "id": 2213229010,
  "lat": 47.4278129,
  "lon": 0.6972234,
  "tags": {
    "bus": "yes",
    "highway": "bus_stop",
    "name": "Petite Arche",
    "public_transport": "stop_position",
    "shelter": "yes",
    "wheelchair": "yes"
  }
},
{
  "type": "node",
  "id": 2213229165,
  "lat": 47.4120757,
  "lon": 0.7029773,
  "tags": {
    "bus": "yes",
    "highway": "bus_stop",
    "name": "Chopin",
    "network": "Fil Bleu",
    "public_transport": "stop_position",
    "wheelchair": "yes"
  }
},
{
  "type": "node",
  "id": 2213229179,
  "lat": 47.4260978,
  "lon": 0.7009612,
  "tags": {
    "bus": "yes",
    "highway": "bus_stop",
    "name": "Nobel",
    "network": "Fil Bleu",
    "public_transport": "stop_position"
  }
},
{
  "type": "node",
  "id": 2213229181,
  "lat": 47.4243581,
  "lon": 0.6973940,
  "tags": {
    "bus": "yes",
    "highway": "bus_stop",
    "name": "Luxembourg",
    "network": "Fil Bleu",
    "public_transport": "stop_position",
    "wheelchair": "yes"
  }
},
{
  "type": "node",
  "id": 2213229202,
  "lat": 47.4219595,
  "lon": 0.6759942,
  "tags": {
    "bus": "yes",
    "highway": "bus_stop",
    "name": "L.P. Eiffel",
    "network": "Fil Bleu",
    "public_transport": "stop_position"
  }
},
{
  "type": "node",
  "id": 2213229206,
  "lat": 47.4279934,
  "lon": 0.7052224,
  "tags": {
    "bus": "yes",
    "highway": "bus_stop",
    "name": "Aérogare",
    "network": "Fil Bleu",
    "public_transport": "stop_position",
    "wheelchair": "yes"
  }
},
{
  "type": "node",
  "id": 2213229209,
  "lat": 47.4261020,
  "lon": 0.7010592,
  "tags": {
    "bus": "yes",
    "highway": "bus_stop",
    "name": "Nobel",
    "network": "Fil Bleu",
    "public_transport": "stop_position",
    "wheelchair": "yes"
  }
},
{
  "type": "node",
  "id": 2213229222,
  "lat": 47.4290719,
  "lon": 0.6790796,
  "tags": {
    "bus": "yes",
    "highway": "bus_stop",
    "name": "Compagnon",
    "network": "Fil Bleu",
    "public_transport": "stop_position",
    "shelter": "no"
  }
},
{
  "type": "node",
  "id": 2213229234,
  "lat": 47.3919851,
  "lon": 0.7002495,
  "tags": {
    "bench": "yes",
    "bin": "yes",
    "bus": "yes",
    "highway": "bus_stop",
    "name": "Mirabeau",
    "network": "Fil Bleu",
    "public_transport": "platform",
    "shelter": "yes",
    "tactile_paving": "yes",
    "wheelchair": "yes"
  }
},
{
  "type": "node",
  "id": 2213229266,
  "lat": 47.4126504,
  "lon": 0.7030451,
  "tags": {
    "bus": "yes",
    "highway": "bus_stop",
    "name": "Chopin",
    "network": "Fil Bleu",
    "public_transport": "stop_position",
    "wheelchair": "yes"
  }
},
{
  "type": "node",
  "id": 2229061628,
  "lat": 47.3832779,
  "lon": 0.7028353,
  "tags": {
    "bus": "yes",
    "highway": "bus_stop",
    "name": "Peupliers",
    "network": "Fil Bleu",
    "network:wikidata": "Q3071736",
    "network:wikipedia": "fr:Transports en commun de Tours",
    "operator": "Keolis Tours",
    "public_transport": "stop_position"
  }
},
{
  "type": "node",
  "id": 2229061640,
  "lat": 47.3924568,
  "lon": 0.6726140,
  "tags": {
    "bus": "yes",
    "highway": "bus_stop",
    "name": "Lamartine",
    "network": "Fil Bleu",
    "network:wikidata": "Q3071736",
    "network:wikipedia": "fr:Transports en commun de Tours",
    "operator": "Keolis Tours",
    "public_transport": "stop_position"
  }
},
{
  "type": "node",
  "id": 2229061643,
  "lat": 47.3923442,
  "lon": 0.6726956,
  "tags": {
    "bus": "yes",
    "highway": "bus_stop",
    "name": "Lamartine",
    "network": "Fil Bleu",
    "network:wikidata": "Q3071736",
    "network:wikipedia": "fr:Transports en commun de Tours",
    "operator": "Keolis Tours",
    "public_transport": "stop_position"
  }
},
{
  "type": "node",
  "id": 2229061644,
  "lat": 47.3908999,
  "lon": 0.6736935,
  "tags": {
    "bench": "no",
    "bus": "yes",
    "highway": "bus_stop",
    "name": "Rouget de l'Isle",
    "network": "Fil Bleu",
    "public_transport": "platform",
    "shelter": "no"
  }
},
{
  "type": "node",
  "id": 2232043765,
  "lat": 47.3848446,
  "lon": 0.6767627,
  "tags": {
    "bus": "yes",
    "highway": "bus_stop",
    "name": "Rabelais",
    "network": "Fil Bleu",
    "public_transport": "stop_position"
  }
},
{
  "type": "node",
  "id": 2235150174,
  "lat": 47.4067371,
  "lon": 0.7055407,
  "tags": {
    "bus": "yes",
    "highway": "bus_stop",
    "name": "Chaudron",
    "network": "Fil Bleu",
    "public_transport": "stop_position"
  }
},
{
  "type": "node",
  "id": 2235150179,
  "lat": 47.4068064,
  "lon": 0.7055508,
  "tags": {
    "bus": "yes",
    "highway": "bus_stop",
    "name": "Chaudron",
    "network": "Fil Bleu",
    "public_transport": "stop_position"
  }
},
{
  "type": "node",
  "id": 2235150183,
  "lat": 47.4062155,
  "lon": 0.7122829,
  "tags": {
    "bus": "yes",
    "highway": "bus_stop",
    "name": "Wedells",
    "network": "Fil Bleu",
    "public_transport": "stop_position"
  }
},
{
  "type": "node",
  "id": 2235150184,
  "lat": 47.4086173,
  "lon": 0.7110483,
  "tags": {
    "bus": "yes",
    "highway": "bus_stop",
    "name": "Monsoudun",
    "network": "Fil Bleu",
    "public_transport": "stop_position"
  }
},
{
  "type": "node",
  "id": 2235150185,
  "lat": 47.4061244,
  "lon": 0.7120743,
  "tags": {
    "bus": "yes",
    "highway": "bus_stop",
    "name": "Wedells",
    "network": "Fil Bleu",
    "public_transport": "stop_position"
  }
},
{
  "type": "node",
  "id": 2235150186,
  "lat": 47.3580721,
  "lon": 0.7069118,
  "tags": {
    "bus": "yes",
    "highway": "bus_stop",
    "name": "Duquesne",
    "network": "Fil Bleu",
    "network:wikidata": "Q3071736",
    "network:wikipedia": "fr:Transports en commun de Tours",
    "operator": "Keolis Tours",
    "public_transport": "stop_position"
  }
},
{
  "type": "node",
  "id": 2235150189,
  "lat": 47.4089017,
  "lon": 0.7080802,
  "tags": {
    "bus": "yes",
    "highway": "bus_stop",
    "name": "Belle Isle",
    "network": "Fil Bleu",
    "public_transport": "stop_position"
  }
},
{
  "type": "node",
  "id": 2235150192,
  "lat": 47.4095605,
  "lon": 0.7135848,
  "tags": {
    "bus": "yes",
    "highway": "bus_stop",
    "name": "Saint-Libert",
    "network": "Fil Bleu",
    "public_transport": "stop_position"
  }
},
{
  "type": "node",
  "id": 2235150194,
  "lat": 47.4095072,
  "lon": 0.7131538,
  "tags": {
    "bus": "yes",
    "highway": "bus_stop",
    "name": "Saint-Libert",
    "network": "Fil Bleu",
    "public_transport": "stop_position"
  }
},
{
  "type": "node",
  "id": 2235150196,
  "lat": 47.4036474,
  "lon": 0.7109747,
  "tags": {
    "bus": "yes",
    "highway": "bus_stop",
    "name": "Place Rousseau",
    "network": "Fil Bleu",
    "public_transport": "stop_position"
  }
},
{
  "type": "node",
  "id": 2235150197,
  "lat": 47.4078109,
  "lon": 0.7148853,
  "tags": {
    "bus": "yes",
    "highway": "bus_stop",
    "name": "La Borde",
    "network": "Fil Bleu",
    "public_transport": "stop_position"
  }
},
{
  "type": "node",
  "id": 2235150199,
  "lat": 47.4091442,
  "lon": 0.7078572,
  "tags": {
    "bus": "yes",
    "highway": "bus_stop",
    "name": "Belle Isle",
    "network": "Fil Bleu",
    "public_transport": "stop_position"
  }
},
{
  "type": "node",
  "id": 2235150200,
  "lat": 47.3594999,
  "lon": 0.7068663,
  "tags": {
    "bus": "yes",
    "highway": "bus_stop",
    "name": "Carlotti",
    "network": "Fil Bleu",
    "network:wikidata": "Q3071736",
    "network:wikipedia": "fr:Transports en commun de Tours",
    "operator": "Keolis Tours",
    "public_transport": "stop_position"
  }
},
{
  "type": "node",
  "id": 2235150201,
  "lat": 47.3612375,
  "lon": 0.7074427,
  "tags": {
    "bus": "yes",
    "highway": "bus_stop",
    "name": "Montjoyeux",
    "network": "Fil Bleu",
    "network:wikidata": "Q3071736",
    "network:wikipedia": "fr:Transports en commun de Tours",
    "operator": "Keolis Tours",
    "public_transport": "stop_position"
  }
},
{
  "type": "node",
  "id": 2235150203,
  "lat": 47.4017084,
  "lon": 0.6889643,
  "tags": {
    "bench": "yes",
    "bus": "yes",
    "highway": "bus_stop",
    "name": "Capucins",
    "network": "Fil Bleu",
    "public_transport": "stop_position",
    "shelter": "yes"
  }
},
{
  "type": "node",
  "id": 2235150205,
  "lat": 47.4040682,
  "lon": 0.7106623,
  "tags": {
    "bus": "yes",
    "highway": "bus_stop",
    "name": "Place Rousseau",
    "network": "Fil Bleu",
    "public_transport": "stop_position"
  }
},
{
  "type": "node",
  "id": 2235150207,
  "lat": 47.4017624,
  "lon": 0.6895430,
  "tags": {
    "bus": "yes",
    "highway": "bus_stop",
    "name": "Capucins",
    "network": "Fil Bleu",
    "public_transport": "stop_position"
  }
},
{
  "type": "node",
  "id": 2235150208,
  "lat": 47.3579117,
  "lon": 0.7061253,
  "tags": {
    "bus": "yes",
    "highway": "bus_stop",
    "name": "Duquesne",
    "network": "Fil Bleu",
    "network:wikidata": "Q3071736",
    "network:wikipedia": "fr:Transports en commun de Tours",
    "operator": "Keolis Tours",
    "public_transport": "stop_position"
  }
},
{
  "type": "node",
  "id": 2235150209,
  "lat": 47.4079876,
  "lon": 0.7150806,
  "tags": {
    "bus": "yes",
    "highway": "bus_stop",
    "name": "La Borde",
    "network": "Fil Bleu",
    "network:wikidata": "Q3071736",
    "network:wikipedia": "fr:Transports en commun de Tours",
    "operator": "Keolis Tours",
    "public_transport": "stop_position"
  }
},
{
  "type": "node",
  "id": 2235150210,
  "lat": 47.4089149,
  "lon": 0.7062265,
  "tags": {
    "bus": "yes",
    "highway": "bus_stop",
    "name": "Dorgelès",
    "network": "Fil Bleu",
    "public_transport": "stop_position"
  }
},
{
  "type": "node",
  "id": 2235150211,
  "lat": 47.4020901,
  "lon": 0.6930730,
  "tags": {
    "bus": "yes",
    "highway": "bus_stop",
    "name": "Paul Bert",
    "network": "Fil Bleu",
    "public_transport": "stop_position"
  }
},
{
  "type": "node",
  "id": 2235150215,
  "lat": 47.3613205,
  "lon": 0.7071709,
  "tags": {
    "bus": "yes",
    "highway": "bus_stop",
    "name": "Montjoyeux",
    "network": "Fil Bleu",
    "network:wikidata": "Q3071736",
    "network:wikipedia": "fr:Transports en commun de Tours",
    "operator": "Keolis Tours",
    "public_transport": "stop_position"
  }
},
{
  "type": "node",
  "id": 2235150218,
  "lat": 47.3593787,
  "lon": 0.7069148,
  "tags": {
    "bus": "yes",
    "highway": "bus_stop",
    "name": "Carlotti",
    "network": "Fil Bleu",
    "network:wikidata": "Q3071736",
    "network:wikipedia": "fr:Transports en commun de Tours",
    "operator": "Keolis Tours",
    "public_transport": "stop_position"
  }
},
{
  "type": "node",
  "id": 2238959793,
  "lat": 47.4240272,
  "lon": 0.6746809,
  "tags": {
    "bus": "yes",
    "highway": "bus_stop",
    "name": "Augereau",
    "network": "Fil Bleu",
    "public_transport": "stop_position"
  }
},
{
  "type": "node",
  "id": 2238959810,
  "lat": 47.3899691,
  "lon": 0.6879168,
  "tags": {
    "bus": "yes",
    "highway": "bus_stop",
    "name": "Jean Jaurès (Béranger)",
    "network": "Fil Bleu",
    "network:wikidata": "Q3071736",
    "network:wikipedia": "fr:Transports en commun de Tours",
    "operator": "Keolis Tours",
    "public_transport": "stop_position"
  }
},
{
  "type": "node",
  "id": 2238959870,
  "lat": 47.4238139,
  "lon": 0.6732695,
  "tags": {
    "bus": "yes",
    "highway": "bus_stop",
    "name": "Augereau",
    "network": "Fil Bleu",
    "public_transport": "stop_position"
  }
},
{
  "type": "node",
  "id": 2238959947,
  "lat": 47.3915070,
  "lon": 0.6813879,
  "tags": {
    "bus": "yes",
    "highway": "bus_stop",
    "name": "Halles",
    "network": "Fil Bleu",
    "network:wikidata": "Q3071736",
    "network:wikipedia": "fr:Transports en commun de Tours",
    "operator": "Keolis Tours",
    "public_transport": "stop_position"
  }
},
{
  "type": "node",
  "id": 2238960052,
  "lat": 47.3941153,
  "lon": 0.6780156,
  "tags": {
    "bus": "yes",
    "highway": "bus_stop",
    "name": "Victoire",
    "network": "Fil Bleu",
    "network:wikidata": "Q3071736",
    "network:wikipedia": "fr:Transports en commun de Tours",
    "operator": "Keolis Tours",
    "public_transport": "stop_position"
  }
},
{
  "type": "node",
  "id": 2246208449,
  "lat": 47.3765140,
  "lon": 0.7079893,
  "tags": {
    "bus": "yes",
    "highway": "bus_stop",
    "name": "Beaujardin",
    "public_transport": "stop_position"
  }
},
{
  "type": "node",
  "id": 2246208490,
  "lat": 47.3637359,
  "lon": 0.7013179,
  "tags": {
    "bus": "yes",
    "highway": "bus_stop",
    "name": "Beethoven",
    "network": "Fil Bleu",
    "network:wikidata": "Q3071736",
    "network:wikipedia": "fr:Transports en commun de Tours",
    "operator": "Keolis Tours",
    "public_transport": "stop_position",
    "wheelchair": "no"
  }
},
{
  "type": "node",
  "id": 2246208500,
  "lat": 47.3596946,
  "lon": 0.6986666,
  "tags": {
    "bus": "yes",
    "highway": "bus_stop",
    "name": "Alouette",
    "network": "Fil Bleu",
    "network:wikidata": "Q3071736",
    "network:wikipedia": "fr:Transports en commun de Tours",
    "operator": "Keolis Tours",
    "public_transport": "stop_position"
  }
},
{
  "type": "node",
  "id": 2246208559,
  "lat": 47.3611803,
  "lon": 0.6946125,
  "tags": {
    "bus": "yes",
    "highway": "bus_stop",
    "name": "Bergeonnerie",
    "network": "Fil Bleu",
    "network:wikidata": "Q3071736",
    "network:wikipedia": "fr:Transports en commun de Tours",
    "operator": "Keolis Tours",
    "public_transport": "stop_position"
  }
},
{
  "type": "node",
  "id": 2246208565,
  "lat": 47.3741701,
  "lon": 0.6983670,
  "tags": {
    "bus": "yes",
    "highway": "bus_stop",
    "name": "Pompiers",
    "network": "Fil Bleu",
    "public_transport": "stop_position"
  }
},
{
  "type": "node",
  "id": 2250057088,
  "lat": 47.4188768,
  "lon": 0.7037891,
  "tags": {
    "bus": "yes",
    "highway": "bus_stop",
    "name": "Collège Ronsard",
    "network": "Fil Bleu",
    "public_transport": "stop_position"
  }
},
{
  "type": "node",
  "id": 2250057105,
  "lat": 47.4352971,
  "lon": 0.6923534,
  "tags": {
    "bus": "yes",
    "highway": "bus_stop",
    "name": "Suède",
    "network": "Fil Bleu",
    "public_transport": "stop_position"
  }
},
{
  "type": "node",
  "id": 2250057112,
  "lat": 47.4328233,
  "lon": 0.6863372,
  "tags": {
    "bus": "yes",
    "highway": "bus_stop",
    "name": "Abbaye Gatines",
    "network": "Fil Bleu",
    "public_transport": "stop_position"
  }
},
{
  "type": "node",
  "id": 2250057118,
  "lat": 47.3836794,
  "lon": 0.6951059,
  "tags": {
    "bus": "yes",
    "highway": "bus_stop",
    "name": "Palais des Sports",
    "network": "Fil Bleu",
    "network:wikidata": "Q3071736",
    "network:wikipedia": "fr:Transports en commun de Tours",
    "operator": "Keolis Tours",
    "public_transport": "stop_position"
  }
},
{
  "type": "node",
  "id": 2250057128,
  "lat": 47.3839908,
  "lon": 0.6918788,
  "tags": {
    "bus": "yes",
    "highway": "bus_stop",
    "name": "Boisdenier",
    "network": "Fil Bleu",
    "network:wikidata": "Q3071736",
    "network:wikipedia": "fr:Transports en commun de Tours",
    "operator": "Keolis Tours",
    "public_transport": "stop_position"
  }
},
{
  "type": "node",
  "id": 2250057131,
  "lat": 47.3805509,
  "lon": 0.6981330,
  "tags": {
    "bus": "yes",
    "highway": "bus_stop",
    "name": "Saint-Paul",
    "network": "Fil Bleu",
    "network:wikidata": "Q3071736",
    "network:wikipedia": "fr:Transports en commun de Tours",
    "operator": "Keolis Tours",
    "public_transport": "stop_position"
  }
},
{
  "type": "node",
  "id": 2250057148,
  "lat": 47.4365708,
  "lon": 0.6986263,
  "tags": {
    "bus": "yes",
    "highway": "bus_stop",
    "name": "Milletière",
    "network": "Fil Bleu",
    "public_transport": "stop_position"
  }
},
{
  "type": "node",
  "id": 2250057160,
  "lat": 47.4351108,
  "lon": 0.6916061,
  "tags": {
    "bus": "yes",
    "highway": "bus_stop",
    "name": "Suède",
    "network": "Fil Bleu",
    "public_transport": "stop_position"
  }
},
{
  "type": "node",
  "id": 2250057164,
  "lat": 47.4361140,
  "lon": 0.6986170,
  "tags": {
    "bus": "yes",
    "highway": "bus_stop",
    "name": "Milletière",
    "network": "Fil Bleu",
    "public_transport": "stop_position",
    "wheelchair": "yes"
  }
},
{
  "type": "node",
  "id": 2250057173,
  "lat": 47.3807543,
  "lon": 0.6992803,
  "tags": {
    "bus": "yes",
    "highway": "bus_stop",
    "name": "Saint-Paul",
    "network": "Fil Bleu",
    "network:wikidata": "Q3071736",
    "network:wikipedia": "fr:Transports en commun de Tours",
    "operator": "Keolis Tours",
    "public_transport": "stop_position"
  }
},
{
  "type": "node",
  "id": 2261649197,
  "lat": 47.3974566,
  "lon": 0.6668549,
  "tags": {
    "bus": "yes",
    "highway": "bus_stop",
    "name": "Saint-Cyr Église",
    "network": "Fil Bleu",
    "public_transport": "stop_position"
  }
},
{
  "type": "node",
  "id": 2261649251,
  "lat": 47.3974269,
  "lon": 0.6666390,
  "tags": {
    "bus": "yes",
    "highway": "bus_stop",
    "name": "Saint-Cyr Église",
    "network": "Fil Bleu",
    "public_transport": "stop_position"
  }
},
{
  "type": "node",
  "id": 2268229491,
  "lat": 47.4084973,
  "lon": 0.6982282,
  "tags": {
    "bus": "yes",
    "highway": "bus_stop",
    "name": "Saint-Symphorien",
    "network": "Fil Bleu",
    "network:wikidata": "Q3071736",
    "network:wikipedia": "fr:Transports en commun de Tours",
    "operator": "Keolis Tours",
    "public_transport": "stop_position"
  }
},
{
  "type": "node",
  "id": 2269494949,
  "lat": 47.4077931,
  "lon": 0.6793116,
  "tags": {
    "bus": "yes",
    "highway": "bus_stop",
    "name": "Scotto",
    "network": "Fil Bleu",
    "public_transport": "stop_position"
  }
},
{
  "type": "node",
  "id": 2272699958,
  "lat": 47.4329205,
  "lon": 0.6738195,
  "tags": {
    "bus": "yes",
    "highway": "bus_stop",
    "name": "Fontaine de Mie",
    "network": "Fil Bleu",
    "public_transport": "stop_position"
  }
},
{
  "type": "node",
  "id": 2272699996,
  "lat": 47.4309316,
  "lon": 0.6730687,
  "tags": {
    "bus": "yes",
    "highway": "bus_stop",
    "name": "Petite Gironde",
    "network": "Fil Bleu",
    "public_transport": "stop_position"
  }
},
{
  "type": "node",
  "id": 2272700019,
  "lat": 47.4248827,
  "lon": 0.6725599,
  "tags": {
    "bus": "yes",
    "highway": "bus_stop",
    "name": "Pinauderie",
    "network": "Fil Bleu",
    "public_transport": "stop_position"
  }
},
{
  "type": "node",
  "id": 2272700029,
  "lat": 47.4325890,
  "lon": 0.6736776,
  "tags": {
    "bus": "yes",
    "highway": "bus_stop",
    "name": "Fontaine de Mie",
    "network": "Fil Bleu",
    "public_transport": "stop_position"
  }
},
{
  "type": "node",
  "id": 2276969650,
  "lat": 47.4376410,
  "lon": 0.7084013,
  "tags": {
    "bus": "yes",
    "highway": "bus_stop",
    "name": "Mouchotte",
    "network": "Fil Bleu",
    "public_transport": "stop_position"
  }
},
{
  "type": "node",
  "id": 2276969665,
  "lat": 47.4025139,
  "lon": 0.7212242,
  "tags": {
    "bus": "yes",
    "highway": "bus_stop",
    "name": "Les Rochettes",
    "network": "Fil Bleu",
    "public_transport": "stop_position"
  }
},
{
  "type": "node",
  "id": 2276969667,
  "lat": 47.4025348,
  "lon": 0.7213044,
  "tags": {
    "bus": "yes",
    "highway": "bus_stop",
    "name": "Les Rochettes",
    "network": "Fil Bleu",
    "public_transport": "stop_position"
  }
},