{
  "version": 0.6,
  "generator": "Overpass API 0.7.57 93a4d346",
  "osm3s": {
    "timestamp_osm_base": "2022-02-13T13:29:38Z",
    "timestamp_areas_base": "2022-02-13T06:31:57Z",
    "copyright": "The data included in this document is from www.openstreetmap.org. The data is made available under ODbL."
  },
  "elements": [

{
  "type": "node",
  "id": 2415890784,
  "lat": 48.3080364,
  "lon": 4.0630462,
  "tags": {
    "bench": "yes",
    "bin": "no",
    "bus": "yes",
    "highway": "bus_stop",
    "name": "Alagiraude",
    "public_transport": "platform",
    "shelter": "yes"
  }
},
{
  "type": "node",
  "id": 2415890785,
  "lat": 48.3084370,
  "lon": 4.0627441,
  "tags": {
    "bench": "yes",
    "bin": "no",
    "bus": "yes",
    "highway": "bus_stop",
    "name": "Alagiraude",
    "public_transport": "platform",
    "shelter": "yes"
  }
},
{
  "type": "node",
  "id": 2415890790,
  "lat": 48.3084638,
  "lon": 4.0941444,
  "tags": {
    "bench": "no",
    "bin": "no",
    "bus": "yes",
    "highway": "bus_stop",
    "name": "Arbouin",
    "public_transport": "platform",
    "shelter": "no"
  }
},
{
  "type": "node",
  "id": 2415890800,
  "lat": 48.3034600,
  "lon": 4.0860612,
  "tags": {
    "bus": "yes",
    "highway": "bus_stop",
    "name": "Barbusse",
    "public_transport": "platform",
    "shelter": "yes"
  }
},
{
  "type": "node",
  "id": 2415890801,
  "lat": 48.3035695,
  "lon": 4.0860429,
  "tags": {
    "bus": "yes",
    "highway": "bus_stop",
    "name": "Barbusse",
    "public_transport": "platform",
    "shelter": "yes"
  }
},
{
  "type": "node",
  "id": 2415890803,
  "lat": 48.2846550,
  "lon": 4.0999389,
  "tags": {
    "bench": "yes",
    "bin": "yes",
    "bus": "yes",
    "highway": "bus_stop",
    "name": "Basse Moline",
    "public_transport": "platform",
    "shelter": "yes"
  }
},
{
  "type": "node",
  "id": 2415890805,
  "lat": 48.2874750,
  "lon": 4.0735071,
  "tags": {
    "bench": "no",
    "bin": "no",
    "highway": "bus_stop",
    "name": "Beauséjour",
    "public_transport": "platform",
    "shelter": "no"
  }
},
{
  "type": "node",
  "id": 2415890806,
  "lat": 48.2875356,
  "lon": 4.0734220,
  "tags": {
    "bench": "no",
    "bin": "no",
    "highway": "bus_stop",
    "name": "Beauséjour",
    "public_transport": "platform",
    "shelter": "no"
  }
},
{
  "type": "node",
  "id": 2415890814,
  "lat": 48.2927078,
  "lon": 4.0746475,
  "tags": {
    "bench": "yes",
    "bus": "yes",
    "highway": "bus_stop",
    "name": "Beurnonville",
    "public_transport": "platform",
    "shelter": "yes"
  }
},
{
  "type": "node",
  "id": 2415890815,
  "lat": 48.2931748,
  "lon": 4.0746745,
  "tags": {
    "bench": "yes",
    "bus": "yes",
    "highway": "bus_stop",
    "name": "Beurnonville",
    "public_transport": "platform",
    "shelter": "yes"
  }
},
{
  "type": "node",
  "id": 2415890816,
  "lat": 48.3061375,
  "lon": 4.0772912,
  "tags": {
    "bus": "yes",
    "highway": "bus_stop",
    "name": "Billotte",
    "public_transport": "platform",
    "shelter": "yes"
  }
},
{
  "type": "node",
  "id": 2415890817,
  "lat": 48.3070202,
  "lon": 4.0765708,
  "tags": {
    "bus": "yes",
    "highway": "bus_stop",
    "name": "Billotte",
    "public_transport": "platform",
    "shelter": "no"
  }
},
{
  "type": "node",
  "id": 2415890819,
  "lat": 48.3047152,
  "lon": 4.0540733,
  "tags": {
    "highway": "bus_stop",
    "name": "Blanqui-Clinique",
    "public_transport": "platform",
    "shelter": "yes"
  }
},
{
  "type": "node",
  "id": 2415890820,
  "lat": 48.3054409,
  "lon": 4.0520366,
  "tags": {
    "highway": "bus_stop",
    "name": "Blanqui-Clinique",
    "public_transport": "platform",
    "shelter": "yes"
  }
},
{
  "type": "node",
  "id": 2415890821,
  "lat": 48.3000755,
  "lon": 4.0946762,
  "tags": {
    "bench": "no",
    "bin": "no",
    "highway": "bus_stop",
    "name": "Blossières",
    "public_transport": "platform",
    "shelter": "no"
  }
},
{
  "type": "node",
  "id": 2415890828,
  "lat": 48.2969996,
  "lon": 4.0850736,
  "tags": {
    "highway": "bus_stop",
    "name": "Bourgeoys",
    "public_transport": "platform",
    "shelter": "yes"
  }
},
{
  "type": "node",
  "id": 2415890832,
  "lat": 48.3099055,
  "lon": 4.0745556,
  "tags": {
    "bus": "yes",
    "highway": "bus_stop",
    "name": "Brocard",
    "public_transport": "platform",
    "shelter": "yes"
  }
},
{
  "type": "node",
  "id": 2415890847,
  "lat": 48.2911243,
  "lon": 4.0701026,
  "tags": {
    "highway": "bus_stop",
    "name": "CCI",
    "public_transport": "platform",
    "shelter": "yes"
  }
},
{
  "type": "node",
  "id": 2415890864,
  "lat": 48.2821035,
  "lon": 4.0849783,
  "tags": {
    "bus": "yes",
    "highway": "bus_stop",
    "name": "Cassin",
    "public_transport": "platform",
    "shelter": "yes"
  }
},
{
  "type": "node",
  "id": 2415890865,
  "lat": 48.2824906,
  "lon": 4.0855954,
  "tags": {
    "bus": "yes",
    "highway": "bus_stop",
    "name": "Cassin",
    "public_transport": "platform",
    "shelter": "yes"
  }
},
{
  "type": "node",
  "id": 2415890866,
  "lat": 48.3006112,
  "lon": 4.0810715,
  "tags": {
    "bench": "yes",
    "bin": "yes",
    "bus": "yes",
    "highway": "bus_stop",
    "name": "Cathédrale",
    "public_transport": "platform",
    "shelter": "yes"
  }
},
{
  "type": "node",
  "id": 2415890880,
  "lat": 48.2690712,
  "lon": 4.0846377,
  "tags": {
    "bench": "yes",
    "bus": "yes",
    "highway": "bus_stop",
    "name": "Champagne",
    "public_transport": "platform",
    "ref:FR:TCAT": "20297",
    "shelter": "yes"
  }
},
{
  "type": "node",
  "id": 2415890881,
  "lat": 48.2691720,
  "lon": 4.0840886,
  "tags": {
    "bench": "yes",
    "bus": "yes",
    "highway": "bus_stop",
    "name": "Champagne",
    "public_transport": "platform",
    "ref:FR:TCAT": "20296",
    "shelter": "yes"
  }
},
{
  "type": "node",
  "id": 2415890882,
  "lat": 48.3165281,
  "lon": 4.0745255,
  "tags": {
    "bus": "yes",
    "highway": "bus_stop",
    "name": "Champs de la Loge",
    "public_transport": "platform",
    "shelter": "no"
  }
},
{
  "type": "node",
  "id": 2415890883,
  "lat": 48.3169373,
  "lon": 4.0741746,
  "tags": {
    "bus": "yes",
    "highway": "bus_stop",
    "name": "Champs de la Loge",
    "public_transport": "platform",
    "shelter": "yes"
  }
},
{
  "type": "node",
  "id": 2415890914,
  "lat": 48.2991341,
  "lon": 4.0873086,
  "tags": {
    "bus": "yes",
    "highway": "bus_stop",
    "name": "Charmilles",
    "public_transport": "platform",
    "shelter": "yes"
  }
},
{
  "type": "node",
  "id": 2415890927,
  "lat": 48.2666121,
  "lon": 4.0865743,
  "tags": {
    "bench": "yes",
    "bus": "yes",
    "highway": "bus_stop",
    "name": "Chartreux",
    "public_transport": "platform",
    "ref:FR:TCAT": "20507",
    "shelter": "yes"
  }
},
{
  "type": "node",
  "id": 2415890931,
  "lat": 48.2668395,
  "lon": 4.0867543,
  "tags": {
    "bench": "yes",
    "bus": "yes",
    "highway": "bus_stop",
    "name": "Chartreux",
    "public_transport": "platform",
    "ref:FR:TCAT": "20200",
    "shelter": "yes"
  }
},
{
  "type": "node",
  "id": 2415890964,
  "lat": 48.3010835,
  "lon": 4.0972110,
  "tags": {
    "bench": "no",
    "bin": "no",
    "bus": "yes",
    "covered": "no",
    "highway": "bus_stop",
    "name": "Chesterfield",
    "operator": "TCAT",
    "public_transport": "platform",
    "shelter": "no"
  }
},
{
  "type": "node",
  "id": 2415890969,
  "lat": 48.3065950,
  "lon": 4.0703842,
  "tags": {
    "bus": "yes",
    "highway": "bus_stop",
    "name": "Chomedey de Maisonneuve",
    "public_transport": "platform",
    "shelter": "yes"
  }
},
{
  "type": "node",
  "id": 2415891034,
  "lat": 48.3100027,
  "lon": 4.0589599,
  "tags": {
    "bench": "no",
    "bin": "no",
    "bus": "yes",
    "highway": "bus_stop",
    "name": "Cimetière de Troyes",
    "public_transport": "platform",
    "shelter": "no"
  }
},
{
  "type": "node",
  "id": 2415891038,
  "lat": 48.3101254,
  "lon": 4.0590158,
  "tags": {
    "bench": "no",
    "bin": "no",
    "bus": "yes",
    "highway": "bus_stop",
    "name": "Cimetière de Troyes",
    "public_transport": "platform",
    "shelter": "no"
  }
},
{
  "type": "node",
  "id": 2415891043,
  "lat": 48.2991407,
  "lon": 4.0780099,
  "tags": {
    "bench": "no",
    "bin": "yes",
    "bus": "yes",
    "highway": "bus_stop",
    "name": "Cité",
    "public_transport": "platform",
    "shelter": "no"
  }
},
{
  "type": "node",
  "id": 2415891075,
  "lat": 48.3069415,
  "lon": 4.0413399,
  "tags": {
    "bench": "yes",
    "bin": "yes",
    "bus": "yes",
    "highway": "bus_stop",
    "name": "Clos d'Orvilliers",
    "public_transport": "platform",
    "shelter": "yes"
  }
},
{
  "type": "node",
  "id": 2415891140,
  "lat": 48.3008871,
  "lon": 4.0705440,
  "tags": {
    "bench": "yes",
    "bus": "yes",
    "highway": "bus_stop",
    "name": "Conservatoire",
    "public_transport": "platform",
    "shelter": "yes"
  }
},
{
  "type": "node",
  "id": 2415891145,
  "lat": 48.3015471,
  "lon": 4.0695555,
  "tags": {
    "bench": "yes",
    "bin": "yes",
    "bus": "yes",
    "highway": "bus_stop",
    "name": "Conservatoire",
    "public_transport": "platform",
    "shelter": "yes"
  }
},
{
  "type": "node",
  "id": 2415891167,
  "lat": 48.3024353,
  "lon": 4.0953958,
  "tags": {
    "bench": "no",
    "bin": "no",
    "bus": "yes",
    "highway": "bus_stop",
    "name": "Cordonnier",
    "public_transport": "platform",
    "shelter": "no"
  }
},
{
  "type": "node",
  "id": 2415891173,
  "lat": 48.2898479,
  "lon": 4.1011330,
  "tags": {
    "bench": "yes",
    "highway": "bus_stop",
    "name": "Corrard de Bréban",
    "public_transport": "platform",
    "shelter": "yes"
  }
},
{
  "type": "node",
  "id": 2415891180,
  "lat": 48.2899091,
  "lon": 4.1012459,
  "tags": {
    "bench": "no",
    "bin": "no",
    "highway": "bus_stop",
    "name": "Corrard de Bréban",
    "public_transport": "platform",
    "shelter": "no"
  }
},
{
  "type": "node",
  "id": 2415891245,
  "lat": 48.2947452,
  "lon": 4.0629092,
  "tags": {
    "bench": "yes",
    "bin": "yes",
    "bus": "yes",
    "highway": "bus_stop",
    "name": "Courtalon",
    "public_transport": "platform",
    "shelter": "yes"
  }
},
{
  "type": "node",
  "id": 2415891255,
  "lat": 48.2949021,
  "lon": 4.0632759,
  "tags": {
    "highway": "bus_stop",
    "name": "Courtalon",
    "public_transport": "platform",
    "shelter": "yes"
  }
},
{
  "type": "node",
  "id": 2415891305,
  "lat": 48.2776647,
  "lon": 4.0821544,
  "tags": {
    "bench": "yes",
    "bin": "yes",
    "bus": "yes",
    "highway": "bus_stop",
    "name": "Croncels",
    "public_transport": "platform",
    "shelter": "yes"
  }
},
{
  "type": "node",
  "id": 2415891310,
  "lat": 48.2781415,
  "lon": 4.0820912,
  "tags": {
    "bench": "yes",
    "bin": "yes",
    "bus": "yes",
    "highway": "bus_stop",
    "name": "Croncels",
    "public_transport": "platform",
    "shelter": "yes"
  }
},
{
  "type": "node",
  "id": 2415891325,
  "lat": 48.3128215,
  "lon": 4.0568277,
  "tags": {
    "bench": "no",
    "bin": "no",
    "bus": "yes",
    "highway": "bus_stop",
    "name": "Cugnot",
    "public_transport": "platform",
    "shelter": "no"
  }
},
{
  "type": "node",
  "id": 2415891334,
  "lat": 48.2903934,
  "lon": 4.0949735,
  "tags": {
    "bench": "no",
    "bin": "no",
    "highway": "bus_stop",
    "name": "Cumines",
    "public_transport": "platform",
    "shelter": "no"
  }
},
{
  "type": "node",
  "id": 2415891339,
  "lat": 48.2904277,
  "lon": 4.0951977,
  "tags": {
    "bench": "no",
    "bin": "no",
    "highway": "bus_stop",
    "name": "Cumines",
    "public_transport": "platform",
    "shelter": "no"
  }
},
{
  "type": "node",
  "id": 2415891375,
  "lat": 48.2986807,
  "lon": 4.0937536,
  "tags": {
    "bench": "no",
    "bin": "no",
    "highway": "bus_stop",
    "name": "De Champaigne",
    "public_transport": "platform",
    "shelter": "no"
  }
},
{
  "type": "node",
  "id": 2415891406,
  "lat": 48.2985476,
  "lon": 4.0726890,
  "tags": {
    "bench": "yes",
    "bus": "yes",
    "covered": "yes",
    "highway": "bus_stop",
    "name": "De Gaulle",
    "public_transport": "platform",
    "shelter": "yes"
  }
},
{
  "type": "node",
  "id": 2415891410,
  "lat": 48.3057762,
  "lon": 4.0504737,
  "tags": {
    "bus": "yes",
    "highway": "bus_stop",
    "name": "De Vlaminck",
    "public_transport": "platform",
    "shelter": "yes"
  }
},
{
  "type": "node",
  "id": 2415891415,
  "lat": 48.3062037,
  "lon": 4.0496182,
  "tags": {
    "bus": "yes",
    "highway": "bus_stop",
    "name": "De Vlaminck",
    "public_transport": "platform",
    "shelter": "yes"
  }
},
{
  "type": "node",
  "id": 2415891427,
  "lat": 48.3017403,
  "lon": 4.0637629,
  "tags": {
    "bus": "yes",
    "highway": "bus_stop",
    "name": "Delaunay",
    "public_transport": "platform",
    "shelter": "yes"
  }
},
{
  "type": "node",
  "id": 2415891431,
  "lat": 48.3018967,
  "lon": 4.0637782,
  "tags": {
    "bus": "yes",
    "highway": "bus_stop",
    "name": "Delaunay",
    "public_transport": "platform",
    "shelter": "yes"
  }
},
{
  "type": "node",
  "id": 2415891436,
  "lat": 48.2972228,
  "lon": 4.0931753,
  "tags": {
    "bench": "no",
    "bin": "no",
    "highway": "bus_stop",
    "name": "Delphin",
    "public_transport": "platform",
    "shelter": "no"
  }
},
{
  "type": "node",
  "id": 2415891439,
  "lat": 48.3149205,
  "lon": 4.0747504,
  "tags": {
    "bus": "yes",
    "highway": "bus_stop",
    "name": "Demi-Lune",
    "public_transport": "platform",
    "shelter": "yes"
  }
},
{
  "type": "node",
  "id": 2415891440,
  "lat": 48.3150409,
  "lon": 4.0748744,
  "tags": {
    "bus": "yes",
    "highway": "bus_stop",
    "name": "Demi-Lune",
    "public_transport": "platform",
    "shelter": "no"
  }
},
{
  "type": "node",
  "id": 2415891446,
  "lat": 48.2994105,
  "lon": 4.0921441,
  "tags": {
    "bench": "no",
    "bin": "no",
    "highway": "bus_stop",
    "name": "Desvignes",
    "public_transport": "platform",
    "shelter": "no"
  }
},
{
  "type": "node",
  "id": 2415891459,
  "lat": 48.2872923,
  "lon": 4.0812339,
  "tags": {
    "bus": "yes",
    "highway": "bus_stop",
    "name": "Dutreix",
    "public_transport": "platform",
    "shelter": "yes"
  }
},
{
  "type": "node",
  "id": 2415891460,
  "lat": 48.2882881,
  "lon": 4.0810419,
  "tags": {
    "bus": "yes",
    "highway": "bus_stop",
    "name": "Dutreix",
    "public_transport": "platform",
    "shelter": "yes"
  }
},
{
  "type": "node",
  "id": 2415891461,
  "lat": 48.2868778,
  "lon": 4.0788225,
  "tags": {
    "bench": "yes",
    "bin": "yes",
    "highway": "bus_stop",
    "name": "Enfroy",
    "public_transport": "platform",
    "shelter": "yes"
  }
},
{
  "type": "node",
  "id": 2415891462,
  "lat": 48.2869378,
  "lon": 4.0783449,
  "tags": {
    "bench": "yes",
    "bin": "yes",
    "bus": "yes",
    "highway": "bus_stop",
    "name": "Enfroy",
    "public_transport": "platform",
    "shelter": "yes"
  }
},
{
  "type": "node",
  "id": 2415891466,
  "lat": 48.3050808,
  "lon": 4.0922837,
  "tags": {
    "bench": "yes",
    "bin": "yes",
    "bus": "yes",
    "highway": "bus_stop",
    "name": "Europe",
    "public_transport": "platform",
    "shelter": "yes"
  }
},
{
  "type": "node",
  "id": 2415891467,
  "lat": 48.3052314,
  "lon": 4.0922962,
  "tags": {
    "bench": "yes",
    "bin": "yes",
    "bus": "yes",
    "highway": "bus_stop",
    "name": "Europe",
    "network": "TCAT",
    "network:wikidata": "Q3537958",
    "network:wikipedia": "fr:Transports en commun de Troyes",
    "operator": "TCAT",
    "public_transport": "platform",
    "shelter": "yes"
  }
},
{
  "type": "node",
  "id": 2415891468,
  "lat": 48.3054302,
  "lon": 4.0918064,
  "tags": {
    "bench": "yes",
    "bin": "yes",
    "bus": "yes",
    "highway": "bus_stop",
    "lit": "yes",
    "name": "Europe",
    "public_transport": "platform",
    "shelter": "yes",
    "tactile_paving": "no"
  }
},
{
  "type": "node",
  "id": 2415891469,
  "lat": 48.2890214,
  "lon": 4.1030886,
  "tags": {
    "bench": "no",
    "bin": "no",
    "highway": "bus_stop",
    "name": "Fariat",
    "public_transport": "platform",
    "shelter": "no"
  }
},
{
  "type": "node",
  "id": 2415891470,
  "lat": 48.2890530,
  "lon": 4.1028496,
  "tags": {
    "bench": "no",
    "bin": "no",
    "highway": "bus_stop",
    "name": "Fariat",
    "public_transport": "platform",
    "shelter": "no"
  }
},
{
  "type": "node",
  "id": 2415891474,
  "lat": 48.2971815,
  "lon": 4.0749376,
  "tags": {
    "bench": "yes",
    "bin": "yes",
    "bus": "yes",
    "highway": "bus_stop",
    "name": "Foch",
    "network": "TCAT",
    "network:wikidata": "Q3537958",
    "network:wikipedia": "fr:Transports en commun de Troyes",
    "public_transport": "platform",
    "shelter": "yes",
    "tactile_paving": "yes"
  }
},
{
  "type": "node",
  "id": 2415891475,
  "lat": 48.2995301,
  "lon": 4.0732787,
  "tags": {
    "bench": "yes",
    "bus": "yes",
    "highway": "bus_stop",
    "name": "Fontaine",
    "public_transport": "platform",
    "shelter": "yes"
  }
},
{
  "type": "node",
  "id": 2415891478,
  "lat": 48.2969511,
  "lon": 4.0859747,
  "tags": {
    "highway": "bus_stop",
    "name": "Fortier",
    "public_transport": "platform",
    "shelter": "yes"
  }
},
{
  "type": "node",
  "id": 2415891480,
  "lat": 48.2964081,
  "lon": 4.0619253,
  "tags": {
    "bench": "no",
    "bin": "no",
    "bus": "yes",
    "highway": "bus_stop",
    "name": "Fossés Patris",
    "public_transport": "platform",
    "shelter": "no"
  }
},
{
  "type": "node",
  "id": 2415891495,
  "lat": 48.2959546,
  "lon": 4.0668029,
  "tags": {
    "bus": "yes",
    "highway": "bus_stop",
    "name": "Gare Carnot",
    "public_transport": "platform",
    "shelter": "yes"
  }
},
{
  "type": "node",
  "id": 2415891496,
  "lat": 48.2966707,
  "lon": 4.0670059,
  "tags": {
    "bench": "yes",
    "bus": "yes",
    "highway": "bus_stop",
    "name": "Gare Jardins",
    "public_transport": "platform",
    "shelter": "yes"
  }
},
{
  "type": "node",
  "id": 2415891497,
  "lat": 48.2943313,
  "lon": 4.0678935,
  "tags": {
    "bus": "yes",
    "highway": "bus_stop",
    "name": "Gare Patton",
    "public_transport": "platform",
    "shelter": "yes"
  }
},
{
  "type": "node",
  "id": 2415891498,
  "lat": 48.2978438,
  "lon": 4.0675225,
  "tags": {
    "bench": "yes",
    "bus": "yes",
    "highway": "bus_stop",
    "lit": "no",
    "name": "Gare Périer",
    "passenger_information_display": "yes",
    "public_transport": "platform",
    "shelter": "yes"
  }
},
{
  "type": "node",
  "id": 2415891499,
  "lat": 48.2948550,
  "lon": 4.0660139,
  "tags": {
    "bus": "yes",
    "highway": "bus_stop",
    "name": "Gare Voltaire",
    "network": "TCAT",
    "network:wikidata": "Q3537958",
    "network:wikipedia": "fr:Transports en commun de Troyes",
    "public_transport": "platform",
    "shelter": "yes"
  }
},
{
  "type": "node",
  "id": 2415891500,
  "lat": 48.2950094,
  "lon": 4.0661165,
  "tags": {
    "bench": "yes",
    "bus": "yes",
    "highway": "bus_stop",
    "name": "Gare Voltaire",
    "network": "TCAT",
    "network:wikidata": "Q3537958",
    "network:wikipedia": "fr:Transports en commun de Troyes",
    "public_transport": "platform",
    "shelter": "yes"
  }
},
{
  "type": "node",
  "id": 2415891503,
  "lat": 48.2998372,
  "lon": 4.0653004,
  "tags": {
    "bus": "yes",
    "highway": "bus_stop",
    "name": "CAF",
    "public_transport": "platform",
    "shelter": "yes"
  }
},
{
  "type": "node",
  "id": 2415891504,
  "lat": 48.3003500,
  "lon": 4.0650841,
  "tags": {
    "bus": "yes",
    "highway": "bus_stop",
    "name": "CAF",
    "network": "TCAT",
    "network:wikidata": "Q3537958",
    "network:wikipedia": "fr:Transports en commun de Troyes",
    "operator": "TCAT",
    "public_transport": "platform",
    "shelter": "yes"
  }
},
{
  "type": "node",
  "id": 2415891507,
  "lat": 48.2858132,
  "lon": 4.0746123,
  "tags": {
    "bus": "yes",
    "highway": "bus_stop",
    "name": "Gillon",
    "public_transport": "platform",
    "shelter": "yes"
  }
},
{
  "type": "node",
  "id": 2415891508,
  "lat": 48.2860890,
  "lon": 4.0755069,
  "tags": {
    "highway": "bus_stop",
    "name": "Gillon",
    "public_transport": "platform",
    "shelter": "yes"
  }
},
{
  "type": "node",
  "id": 2415891509,
  "lat": 48.2862001,
  "lon": 4.0754430,
  "tags": {
    "bus": "yes",
    "highway": "bus_stop",
    "name": "Gillon",
    "public_transport": "platform",
    "shelter": "yes"
  }
},
{
  "type": "node",
  "id": 2415891510,
  "lat": 48.3011612,
  "lon": 4.0798772,
  "tags": {
    "bench": "yes",
    "bin": "yes",
    "bus": "yes",
    "highway": "bus_stop",
    "name": "Girardon",
    "public_transport": "platform",
    "shelter": "yes"
  }
},
{
  "type": "node",
  "id": 2415891511,
  "lat": 48.2969366,
  "lon": 4.0950271,
  "tags": {
    "bench": "yes",
    "bin": "yes",
    "highway": "bus_stop",
    "name": "Gournay",
    "public_transport": "platform",
    "shelter": "yes"
  }
},
{
  "type": "node",
  "id": 2415891512,
  "lat": 48.2969589,
  "lon": 4.0946592,
  "tags": {
    "bench": "yes",
    "bin": "yes",
    "highway": "bus_stop",
    "name": "Gournay",
    "public_transport": "platform",
    "shelter": "yes"
  }
},
{
  "type": "node",
  "id": 2415891522,
  "lat": 48.3034431,
  "lon": 4.0593289,
  "tags": {
    "bus": "yes",
    "highway": "bus_stop",
    "name": "Guérarde",
    "public_transport": "platform",
    "shelter": "yes"
  }
},
{
  "type": "node",
  "id": 2415891523,
  "lat": 48.3035744,
  "lon": 4.0591606,
  "tags": {
    "bus": "yes",
    "highway": "bus_stop",
    "name": "Guérarde",
    "public_transport": "platform",
    "shelter": "yes"
  }
},
{
  "type": "node",
  "id": 2415891530,
  "lat": 48.3083770,
  "lon": 4.0563881,
  "tags": {
    "bench": "yes",
    "bin": "yes",
    "bus": "yes",
    "highway": "bus_stop",
    "name": "Haute Charme",
    "public_transport": "platform",
    "shelter": "yes"
  }
},
{
  "type": "node",
  "id": 2415891531,
  "lat": 48.3087347,
  "lon": 4.0566544,
  "tags": {
    "bench": "no",
    "bin": "no",
    "bus": "yes",
    "highway": "bus_stop",
    "name": "Haute Charme",
    "public_transport": "platform",
    "shelter": "no"
  }
},
{
  "type": "node",
  "id": 2415891532,
  "lat": 48.2867484,
  "lon": 4.1056813,
  "tags": {
    "bench": "no",
    "bin": "no",
    "highway": "bus_stop",
    "name": "Haute Moline",
    "public_transport": "platform",
    "shelter": "no"
  }
},
{
  "type": "node",
  "id": 2415891533,
  "lat": 48.2870222,
  "lon": 4.1052118,
  "tags": {
    "highway": "bus_stop",
    "name": "Haute Moline",
    "public_transport": "platform",
    "shelter": "no"
  }
},
{
  "type": "node",
  "id": 2415891537,
  "lat": 48.2805435,
  "lon": 4.0691732,
  "tags": {
    "bus": "yes",
    "highway": "bus_stop",
    "name": "Hauts Clos",
    "public_transport": "platform",
    "shelter": "yes"
  }
},
{
  "type": "node",
  "id": 2415891539,
  "lat": 48.2998185,
  "lon": 4.0773440,
  "tags": {
    "bench": "no",
    "bin": "no",
    "bus": "yes",
    "highway": "bus_stop",
    "name": "Hennequin",
    "public_transport": "platform",
    "shelter": "no"
  }
},
{
  "type": "node",
  "id": 2415891541,
  "lat": 48.2823013,
  "lon": 4.0709591,
  "tags": {
    "bus": "yes",
    "highway": "bus_stop",
    "name": "Herriot",
    "public_transport": "platform",
    "shelter": "yes"
  }
},
{
  "type": "node",
  "id": 2415891542,
  "lat": 48.3145967,
  "lon": 4.0611120,
  "tags": {
    "bench": "no",
    "bin": "no",
    "highway": "bus_stop",
    "name": "Hoche",
    "public_transport": "platform",
    "shelter": "no"
  }
},
{
  "type": "node",
  "id": 2415891546,
  "lat": 48.2946642,
  "lon": 4.0911986,
  "tags": {
    "bench": "no",
    "bin": "no",
    "highway": "bus_stop",
    "name": "Huguier",
    "public_transport": "platform",
    "shelter": "no"
  }
},
{
  "type": "node",
  "id": 2415891547,
  "lat": 48.2947798,
  "lon": 4.0912021,
  "tags": {
    "bench": "no",
    "bin": "no",
    "highway": "bus_stop",
    "name": "Huguier",
    "public_transport": "platform",
    "shelter": "no"
  }
},
{
  "type": "node",
  "id": 2415891553,
  "lat": 48.2698055,
  "lon": 4.0793170,
  "tags": {
    "bench": "yes",
    "bus": "yes",
    "highway": "bus_stop",
    "name": "IUT",
    "public_transport": "platform",
    "ref:FR:TCAT": "20634",
    "shelter": "yes"
  }
},
{
  "type": "node",
  "id": 2415891556,
  "lat": 48.2991184,
  "lon": 4.0864771,
  "tags": {
    "bus": "yes",
    "highway": "bus_stop",
    "name": "Isle",
    "public_transport": "platform",
    "shelter": "yes"
  }
},
{
  "type": "node",
  "id": 2415891557,
  "lat": 48.2962204,
  "lon": 4.0803182,
  "tags": {
    "bus": "yes",
    "highway": "bus_stop",
    "name": "Jacobins",
    "public_transport": "platform",
    "shelter": "yes"
  }
},
{
  "type": "node",
  "id": 2415891561,
  "lat": 48.3044872,
  "lon": 4.0790811,
  "tags": {
    "bus": "yes",
    "highway": "bus_stop",
    "name": "Jacquin",
    "public_transport": "platform",
    "shelter": "yes"
  }
},
{
  "type": "node",
  "id": 2415891566,
  "lat": 48.3046645,
  "lon": 4.0787318,
  "tags": {
    "bus": "yes",
    "highway": "bus_stop",
    "name": "Jacquin",
    "public_transport": "platform",
    "shelter": "yes"
  }
},
{
  "type": "node",
  "id": 2415891571,
  "lat": 48.2975105,
  "lon": 4.0590493,
  "tags": {
    "bench": "no",
    "bin": "no",
    "highway": "bus_stop",
    "name": "Jardins",
    "public_transport": "platform",
    "shelter": "no"
  }
},
{
  "type": "node",
  "id": 2415891573,
  "lat": 48.2946795,
  "lon": 4.0701870,
  "tags": {
    "bench": "yes",
    "bin": "yes",
    "bus": "yes",
    "check_date:shelter": "2021-09-16",
    "highway": "bus_stop",
    "name": "Jaurès",
    "public_transport": "platform",
    "shelter": "yes",
    "tactile_paving": "yes"
  }
},
{
  "type": "node",
  "id": 2415891574,
  "lat": 48.2991756,
  "lon": 4.0727988,
  "tags": {
    "bench": "yes",
    "bus": "yes",
    "highway": "bus_stop",
    "name": "Jean Moulin Argence",
    "public_transport": "platform",
    "shelter": "yes"
  }
},
{
  "type": "node",
  "id": 2415891575,
  "lat": 48.2930849,
  "lon": 4.0685457,
  "tags": {
    "highway": "bus_stop",
    "name": "Jeanne d'Arc",
    "public_transport": "platform",
    "shelter": "no"
  }
},
{
  "type": "node",
  "id": 2415891576,
  "lat": 48.2931327,
  "lon": 4.0690760,
  "tags": {
    "bus": "yes",
    "highway": "bus_stop",
    "name": "Jeanne d'Arc",
    "public_transport": "platform",
    "shelter": "yes"
  }
},
{
  "type": "node",
  "id": 2415891583,
  "lat": 48.3027862,
  "lon": 4.0837015,
  "tags": {
    "bench": "yes",
    "bin": "yes",
    "bus": "yes",
    "highway": "bus_stop",
    "name": "Kléber",
    "public_transport": "platform",
    "shelter": "yes"
  }
},
{
  "type": "node",
  "id": 2415891584,
  "lat": 48.3028287,
  "lon": 4.0835082,
  "tags": {
    "bench": "no",
    "bin": "no",
    "bus": "yes",
    "highway": "bus_stop",
    "name": "Kléber",
    "public_transport": "platform",
    "shelter": "no"
  }
},
{
  "type": "node",
  "id": 2415891586,
  "lat": 48.2859042,
  "lon": 4.1025469,
  "tags": {
    "bench": "no",
    "bin": "no",
    "highway": "bus_stop",
    "name": "La Brulée",
    "public_transport": "platform",
    "shelter": "no"
  }
},
{
  "type": "node",
  "id": 2415891587,
  "lat": 48.3038945,
  "lon": 4.0561352,
  "tags": {
    "bus": "yes",
    "highway": "bus_stop",
    "name": "Lacoste",
    "public_transport": "platform",
    "shelter": "yes"
  }
},
{
  "type": "node",
  "id": 2415891592,
  "lat": 48.2963676,
  "lon": 4.0762758,
  "tags": {
    "bench": "yes",
    "bus": "yes",
    "highway": "bus_stop",
    "name": "Langevin",
    "public_transport": "platform",
    "shelter": "yes"
  }
},
{
  "type": "node",
  "id": 2415891598,
  "lat": 48.3046848,
  "lon": 4.0719839,
  "tags": {
    "bus": "yes",
    "highway": "bus_stop",
    "name": "Largentier",
    "public_transport": "platform",
    "shelter": "yes"
  }
},
{
  "type": "node",
  "id": 2415891618,
  "lat": 48.2780593,
  "lon": 4.0674449,
  "tags": {
    "bench": "yes",
    "bus": "yes",
    "highway": "bus_stop",
    "name": "Lombards",
    "public_transport": "platform",
    "shelter": "yes"
  }
},
{
  "type": "node",
  "id": 2415891619,
  "lat": 48.2783556,
  "lon": 4.0671703,
  "tags": {
    "bench": "yes",
    "bus": "yes",
    "highway": "bus_stop",
    "name": "Lombards",
    "public_transport": "platform",
    "shelter": "yes"
  }
},
{
  "type": "node",
  "id": 2415891622,
  "lat": 48.2744688,
  "lon": 4.0731644,
  "tags": {
    "bench": "yes",
    "bus": "yes",
    "highway": "bus_stop",
    "name": "Lycée Technique",
    "public_transport": "platform",
    "shelter": "yes"
  }
},
{
  "type": "node",
  "id": 2415891623,
  "lat": 48.2749881,
  "lon": 4.0724947,
  "tags": {
    "bench": "yes",
    "bin": "yes",
    "bus": "yes",
    "highway": "bus_stop",
    "name": "Lycée Technique",
    "public_transport": "platform",
    "shelter": "yes"
  }
},
{
  "type": "node",
  "id": 2415891626,
  "lat": 48.2846560,
  "lon": 4.0831801,
  "tags": {
    "bus": "yes",
    "highway": "bus_stop",
    "name": "Macé",
    "public_transport": "platform",
    "shelter": "yes"
  }
},
{
  "type": "node",
  "id": 2415891627,
  "lat": 48.2848719,
  "lon": 4.0836338,
  "tags": {
    "bus": "yes",
    "highway": "bus_stop",
    "name": "Macé",
    "public_transport": "platform",
    "shelter": "yes"
  }
},
{
  "type": "node",
  "id": 2415891628,
  "lat": 48.2873744,
  "lon": 4.0766521,
  "tags": {
    "highway": "bus_stop",
    "name": "Madagascar",
    "public_transport": "platform",
    "shelter": "yes"
  }
},
{
  "type": "node",
  "id": 2415891629,
  "lat": 48.2873901,
  "lon": 4.0768415,
  "tags": {
    "highway": "bus_stop",
    "name": "Madagascar",
    "public_transport": "platform",
    "shelter": "yes"
  }
},
{
  "type": "node",
  "id": 2415891666,
  "lat": 48.2760161,
  "lon": 4.0706654,
  "tags": {
    "bench": "yes",
    "bus": "yes",
    "highway": "bus_stop",
    "name": "Marne",
    "public_transport": "platform",
    "shelter": "yes"
  }
},
{
  "type": "node",
  "id": 2415891667,
  "lat": 48.2760414,
  "lon": 4.0708620,
  "tags": {
    "bench": "yes",
    "bus": "yes",
    "highway": "bus_stop",
    "name": "Marne",
    "public_transport": "platform",
    "shelter": "yes"
  }
},
{
  "type": "node",
  "id": 2415891668,
  "lat": 48.3075173,
  "lon": 4.0430524,
  "tags": {
    "bench": "yes",
    "bus": "yes",
    "highway": "bus_stop",
    "name": "Marots",
    "public_transport": "platform",
    "shelter": "yes"
  }
},
{
  "type": "node",
  "id": 2415891674,
  "lat": 48.2729254,
  "lon": 4.0766155,
  "tags": {
    "bench": "yes",
    "bus": "yes",
    "highway": "bus_stop",
    "name": "Masson",
    "public_transport": "platform",
    "shelter": "yes"
  }
},
{
  "type": "node",
  "id": 2415891675,
  "lat": 48.2731920,
  "lon": 4.0762870,
  "tags": {
    "bench": "yes",
    "bus": "yes",
    "highway": "bus_stop",
    "name": "Masson",
    "public_transport": "platform",
    "shelter": "yes"
  }
},
{
  "type": "node",
  "id": 2415891684,
  "lat": 48.3010330,
  "lon": 4.0867145,
  "tags": {
    "bus": "yes",
    "highway": "bus_stop",
    "name": "Michelet",
    "public_transport": "platform",
    "shelter": "yes"
  }
},
{
  "type": "node",
  "id": 2415891685,
  "lat": 48.3014632,
  "lon": 4.0873576,
  "tags": {
    "bus": "yes",
    "highway": "bus_stop",
    "name": "Michelet",
    "public_transport": "platform",
    "shelter": "yes"
  }
},
{
  "type": "node",
  "id": 2415891686,
  "lat": 48.2858094,
  "lon": 4.0704740,
  "tags": {
    "bench": "no",
    "bin": "yes",
    "highway": "bus_stop",
    "name": "Mission",
    "public_transport": "platform",
    "shelter": "no"
  }
},
{
  "type": "node",
  "id": 2415891688,
  "lat": 48.3040966,
  "lon": 4.0883669,
  "tags": {
    "bus": "yes",
    "highway": "bus_stop",
    "name": "Moines",
    "public_transport": "platform",
    "shelter": "yes"
  }
},
{
  "type": "node",
  "id": 2415891689,
  "lat": 48.3043540,
  "lon": 4.0886397,
  "tags": {
    "bus": "yes",
    "highway": "bus_stop",
    "name": "Moines",
    "public_transport": "platform",
    "shelter": "yes"
  }
},
{
  "type": "node",
  "id": 2415891703,
  "lat": 48.3112368,
  "lon": 4.0667135,
  "tags": {
    "bus": "yes",
    "highway": "bus_stop",
    "name": "Mulsan",
    "network": "TCAT",
    "network:wikidata": "Q3537958",
    "network:wikipedia": "fr:Transports en commun de Troyes",
    "public_transport": "platform",
    "shelter": "no"
  }
},
{
  "type": "node",
  "id": 2415891708,
  "lat": 48.2923340,
  "lon": 4.0866792,
  "tags": {
    "bench": "no",
    "bin": "no",
    "bus": "yes",
    "highway": "bus_stop",
    "name": "Nesmy",
    "public_transport": "platform",
    "shelter": "no"
  }
},
{
  "type": "node",
  "id": 2415891709,
  "lat": 48.2924133,
  "lon": 4.0859736,
  "tags": {
    "bench": "yes",
    "bus": "yes",
    "highway": "bus_stop",
    "name": "Nesmy",
    "public_transport": "platform",
    "shelter": "yes"
  }
},
{
  "type": "node",
  "id": 2415891712,
  "lat": 48.2903724,
  "lon": 4.0940315,
  "tags": {
    "bench": "yes",
    "bin": "yes",
    "highway": "bus_stop",
    "name": "Niel",
    "public_transport": "platform",
    "shelter": "yes"
  }
},
{
  "type": "node",
  "id": 2415891713,
  "lat": 48.2909107,
  "lon": 4.0940691,
  "tags": {
    "bench": "yes",
    "highway": "bus_stop",
    "name": "Niel",
    "public_transport": "platform",
    "shelter": "yes"
  }
},
{
  "type": "node",
  "id": 2415891716,
  "lat": 48.2927991,
  "lon": 4.1014046,
  "tags": {
    "bench": "yes",
    "bin": "yes",
    "check_date:shelter": "2021-01-02",
    "highway": "bus_stop",
    "name": "Noëls",
    "public_transport": "platform",
    "shelter": "yes"
  }
},
{
  "type": "node",
  "id": 2415891721,
  "lat": 48.3034927,
  "lon": 4.0673854,
  "tags": {
    "bench": "yes",
    "bin": "yes",
    "bus": "yes",
    "highway": "bus_stop",
    "name": "Paix",
    "public_transport": "platform",
    "shelter": "yes"
  }
},
{
  "type": "node",
  "id": 2415891722,
  "lat": 48.3035356,
  "lon": 4.0674816,
  "tags": {
    "bench": "yes",
    "bin": "yes",
    "bus": "yes",
    "highway": "bus_stop",
    "name": "Paix",
    "public_transport": "platform",
    "shelter": "yes"
  }
},
{
  "type": "node",
  "id": 2415891723,
  "lat": 48.2975788,
  "lon": 4.0703192,
  "tags": {
    "bench": "no",
    "bin": "yes",
    "bus": "yes",
    "highway": "bus_stop",
    "name": "Palais de Justice",
    "public_transport": "platform",
    "shelter": "no",
    "tactile_paving": "yes"
  }
},
{
  "type": "node",
  "id": 2415891731,
  "lat": 48.3010432,
  "lon": 4.0917135,
  "tags": {
    "bench": "yes",
    "bin": "yes",
    "highway": "bus_stop",
    "name": "Parc de la Fontaine",
    "public_transport": "platform",
    "shelter": "yes"
  }
},
{
  "type": "node",
  "id": 2415891732,
  "lat": 48.2883902,
  "lon": 4.0750332,
  "tags": {
    "bench": "yes",
    "bin": "yes",
    "highway": "bus_stop",
    "name": "Pargeas",
    "public_transport": "platform",
    "shelter": "yes"
  }
},
{
  "type": "node",
  "id": 2415891733,
  "lat": 48.2884676,
  "lon": 4.0754579,
  "tags": {
    "bench": "yes",
    "bin": "yes",
    "highway": "bus_stop",
    "name": "Pargeas",
    "public_transport": "platform",
    "shelter": "yes"
  }
},
{
  "type": "node",
  "id": 2415891742,
  "lat": 48.2951838,
  "lon": 4.0822962,
  "tags": {
    "bench": "yes",
    "bus": "yes",
    "highway": "bus_stop",
    "name": "Piscine Zins",
    "public_transport": "platform",
    "shelter": "yes"
  }
},
{
  "type": "node",
  "id": 2415891743,
  "lat": 48.2980526,
  "lon": 4.0756310,
  "tags": {
    "bench": "no",
    "bin": "no",
    "bus": "yes",
    "highway": "bus_stop",
    "name": "Pithou",
    "public_transport": "platform",
    "shelter": "no",
    "tactile_paving": "no"
  }
},
{
  "type": "node",
  "id": 2415891763,
  "lat": 48.2940685,
  "lon": 4.0784509,
  "tags": {
    "bench": "yes",
    "bin": "no",
    "bus": "yes",
    "highway": "bus_stop",
    "name": "Poincaré",
    "network": "TCAT",
    "network:wikidata": "Q3537958",
    "network:wikipedia": "fr:Transports en commun de Troyes",
    "operator": "TCAT",
    "public_transport": "platform",
    "shelter": "yes"
  }
},
{
  "type": "node",
  "id": 2415891767,
  "lat": 48.2943244,
  "lon": 4.0786234,
  "tags": {
    "bench": "yes",
    "bus": "yes",
    "highway": "bus_stop",
    "name": "Poincaré",
    "public_transport": "platform",
    "shelter": "yes"
  }
},
{
  "type": "node",
  "id": 2415891771,
  "lat": 48.2951021,
  "lon": 4.0777183,
  "tags": {
    "bench": "yes",
    "bus": "yes",
    "highway": "bus_stop",
    "name": "Poincaré",
    "public_transport": "platform",
    "shelter": "yes"
  }
},
{
  "type": "node",
  "id": 2415891776,
  "lat": 48.2947039,
  "lon": 4.0788190,
  "tags": {
    "bench": "yes",
    "bus": "yes",
    "highway": "bus_stop",
    "name": "Poincaré",
    "public_transport": "platform",
    "shelter": "yes"
  }
},
{
  "type": "node",
  "id": 2415891779,
  "lat": 48.3040976,
  "lon": 4.0961607,
  "tags": {
    "bus": "yes",
    "highway": "bus_stop",
    "name": "Point du Jour",
    "public_transport": "platform",
    "shelter": "yes"
  }
},
{
  "type": "node",
  "id": 2415891783,
  "lat": 48.3041876,
  "lon": 4.0961309,
  "tags": {
    "bus": "yes",
    "highway": "bus_stop",
    "name": "Point du Jour",
    "public_transport": "platform",
    "shelter": "yes"
  }
},
{
  "type": "node",
  "id": 2415891787,
  "lat": 48.2917324,
  "lon": 4.0912609,
  "tags": {
    "bench": "yes",
    "bus": "yes",
    "highway": "bus_stop",
    "name": "Poirier",
    "public_transport": "platform",
    "shelter": "yes"
  }
},
{
  "type": "node",
  "id": 2415891791,
  "lat": 48.2923937,
  "lon": 4.0915171,
  "tags": {
    "bus": "yes",
    "highway": "bus_stop",
    "name": "Poirier",
    "public_transport": "platform",
    "shelter": "no"
  }
},
{
  "type": "node",
  "id": 2415891804,
  "lat": 48.2873605,
  "lon": 4.0771096,
  "tags": {
    "bench": "yes",
    "bus": "yes",
    "highway": "bus_stop",
    "name": "Pompidou",
    "public_transport": "platform",
    "shelter": "yes"
  }
},
{
  "type": "node",
  "id": 2415891810,
  "lat": 48.2900907,
  "lon": 4.0815116,
  "tags": {
    "highway": "bus_stop",
    "name": "Pont Blanc",
    "public_transport": "platform",
    "shelter": "yes"
  }
},
{
  "type": "node",
  "id": 2415891815,
  "lat": 48.2902630,
  "lon": 4.0816465,
  "tags": {
    "bus": "yes",
    "highway": "bus_stop",
    "name": "Pont Blanc",
    "public_transport": "platform",
    "shelter": "yes"
  }
},
{
  "type": "node",
  "id": 2415891830,
  "lat": 48.3087702,
  "lon": 4.0684626,
  "tags": {
    "bench": "yes",
    "bus": "yes",
    "covered": "yes",
    "highway": "bus_stop",
    "name": "Pont Vert",
    "public_transport": "platform",
    "shelter": "yes"
  }
},
{
  "type": "node",
  "id": 2415891841,
  "lat": 48.2914261,
  "lon": 4.0977258,
  "tags": {
    "bench": "no",
    "bin": "no",
    "highway": "bus_stop",
    "name": "Prés l'Évêque",
    "public_transport": "platform",
    "shelter": "no"
  }
},
{
  "type": "node",
  "id": 2415891845,
  "lat": 48.2921520,
  "lon": 4.0974992,
  "tags": {
    "bench": "no",
    "bin": "no",
    "highway": "bus_stop",
    "name": "Prés l'Évêque",
    "public_transport": "platform",
    "shelter": "no"
  }
},
{
  "type": "node",
  "id": 2415891896,
  "lat": 48.2978577,
  "lon": 4.0791025,
  "tags": {
    "bus": "yes",
    "highway": "bus_stop",
    "name": "Préfecture",
    "public_transport": "platform",
    "shelter": "yes"
  }
},
{
  "type": "node",
  "id": 2415891996,
  "lat": 48.2906205,
  "lon": 4.0890925,
  "tags": {
    "bench": "yes",
    "bin": "yes",
    "bus": "yes",
    "highway": "bus_stop",
    "name": "Quennedey",
    "public_transport": "platform",
    "shelter": "yes"
  }
},
{
  "type": "node",
  "id": 2415892002,
  "lat": 48.2914768,
  "lon": 4.0888387,
  "tags": {
    "bench": "yes",
    "bus": "yes",
    "highway": "bus_stop",
    "name": "Quennedey",
    "public_transport": "platform",
    "shelter": "yes"
  }
},
{
  "type": "node",
  "id": 2415892007,
  "lat": 48.2915510,
  "lon": 4.0881611,
  "tags": {
    "bench": "yes",
    "bus": "yes",
    "highway": "bus_stop",
    "name": "Quennedey",
    "public_transport": "platform",
    "shelter": "yes"
  }
},
{
  "type": "node",
  "id": 2415892013,
  "lat": 48.2699857,
  "lon": 4.0824812,
  "tags": {
    "bench": "yes",
    "bus": "yes",
    "highway": "bus_stop",
    "name": "Québec",
    "public_transport": "platform",
    "ref:FR:TCAT": "20298",
    "shelter": "yes"
  }
},
{
  "type": "node",
  "id": 2415892017,
  "lat": 48.2703036,
  "lon": 4.0820391,
  "tags": {
    "bench": "yes",
    "bus": "yes",
    "highway": "bus_stop",
    "name": "Québec",
    "public_transport": "platform",
    "ref:FR:TCAT": "20299",
    "shelter": "yes"
  }
},
{
  "type": "node",
  "id": 2415892087,
  "lat": 48.3054224,
  "lon": 4.0657850,
  "tags": {
    "bench": "yes",
    "bus": "yes",
    "highway": "bus_stop",
    "name": "Rogelin",
    "public_transport": "platform",
    "shelter": "yes"
  }
},
{
  "type": "node",
  "id": 2415892091,
  "lat": 48.3058130,
  "lon": 4.0656030,
  "tags": {
    "bench": "yes",
    "bin": "yes",
    "bus": "yes",
    "highway": "bus_stop",
    "name": "Rogelin",
    "public_transport": "platform",
    "shelter": "yes"
  }
},
{
  "type": "node",
  "id": 2415892122,
  "lat": 48.2802627,
  "lon": 4.0873150,
  "tags": {
    "highway": "bus_stop",
    "name": "Romagon",
    "public_transport": "platform",
    "shelter": "yes"
  }
},
{
  "type": "node",
  "id": 2415892162,
  "lat": 48.3023870,
  "lon": 4.0859957,
  "tags": {
    "bus": "yes",
    "highway": "bus_stop",
    "name": "Saint-Martin Ès Aires",
    "public_transport": "platform",
    "shelter": "yes"
  }
},
{
  "type": "node",
  "id": 2415892163,
  "lat": 48.3033528,
  "lon": 4.0623762,
  "tags": {
    "bus": "yes",
    "highway": "bus_stop",
    "name": "Saint-Martin",
    "public_transport": "platform",
    "shelter": "yes"
  }
},
{
  "type": "node",
  "id": 2415892164,
  "lat": 48.3036758,
  "lon": 4.0614965,
  "tags": {
    "bus": "yes",
    "highway": "bus_stop",
    "name": "Saint-Martin",
    "public_transport": "platform",
    "shelter": "yes"
  }
},
{
  "type": "node",
  "id": 2415892175,
  "lat": 48.2961313,
  "lon": 4.0741070,
  "tags": {
    "bench": "yes",
    "bus": "yes",
    "highway": "bus_stop",
    "name": "Saussier",
    "public_transport": "platform",
    "shelter": "yes"
  }
},
{
  "type": "node",
  "id": 2415892178,
  "lat": 48.3127949,
  "lon": 4.0747422,
  "tags": {
    "bus": "yes",
    "highway": "bus_stop",
    "name": "Securité Sociale",
    "public_transport": "platform",
    "shelter": "yes"
  }
},
{
  "type": "node",
  "id": 2415892179,
  "lat": 48.3130201,
  "lon": 4.0748804,
  "tags": {
    "bus": "yes",
    "highway": "bus_stop",
    "name": "Securité Sociale",
    "public_transport": "platform",
    "shelter": "no"
  }
},
{
  "type": "node",
  "id": 2415892181,
  "lat": 48.3015881,
  "lon": 4.0821786,
  "tags": {
    "bench": "no",
    "bin": "no",
    "bus": "yes",
    "highway": "bus_stop",
    "name": "Simart",
    "public_transport": "platform",
    "shelter": "no"
  }
},
{
  "type": "node",
  "id": 2415892182,
  "lat": 48.3019512,
  "lon": 4.0818004,
  "tags": {
    "bench": "yes",
    "bin": "yes",
    "bus": "yes",
    "highway": "bus_stop",
    "name": "Simart",
    "public_transport": "platform",
    "shelter": "yes"
  }
},
{
  "type": "node",
  "id": 2415892187,
  "lat": 48.2806684,
  "lon": 4.0802048,
  "tags": {
    "bench": "yes",
    "bin": "yes",
    "highway": "bus_stop",
    "name": "Somme",
    "public_transport": "platform",
    "shelter": "yes"
  }
},
{
  "type": "node",
  "id": 2415892188,
  "lat": 48.2808833,
  "lon": 4.0803161,
  "tags": {
    "bench": "yes",
    "bin": "no",
    "highway": "bus_stop",
    "name": "Somme",
    "public_transport": "platform",
    "shelter": "yes"
  }
},
{
  "type": "node",
  "id": 2415892190,
  "lat": 48.3073962,
  "lon": 4.0958085,
  "tags": {
    "bench": "yes",
    "bin": "yes",
    "bus": "yes",
    "highway": "bus_stop",
    "name": "Stade Arbouin",
    "public_transport": "platform",
    "shelter": "yes"
  }
},
{
  "type": "node",
  "id": 2415892191,
  "lat": 48.3074721,
  "lon": 4.0957220,
  "tags": {
    "bench": "yes",
    "bin": "yes",
    "bus": "yes",
    "highway": "bus_stop",
    "name": "Stade Arbouin",
    "public_transport": "platform",
    "shelter": "yes"
  }
},
{
  "type": "node",
  "id": 2415892194,
  "lat": 48.3093406,
  "lon": 4.0971961,
  "tags": {
    "bench": "yes",
    "bin": "yes",
    "bus": "yes",
    "highway": "bus_stop",
    "name": "Stade de l'Aube Camping",
    "public_transport": "platform",
    "shelter": "yes"
  }
},
{
  "type": "node",
  "id": 2415892195,
  "lat": 48.3094215,
  "lon": 4.0970278,
  "tags": {
    "bench": "yes",
    "bin": "yes",
    "bus": "yes",
    "highway": "bus_stop",
    "name": "Stade de l'Aube Camping",
    "public_transport": "platform",
    "shelter": "yes"
  }
},
{
  "type": "node",
  "id": 2415892199,
  "lat": 48.2835315,
  "lon": 4.0786675,
  "tags": {
    "bench": "yes",
    "bin": "yes",
    "highway": "bus_stop",
    "name": "Sup de Co",
    "public_transport": "platform",
    "shelter": "yes"
  }
},
{
  "type": "node",
  "id": 2415892200,
  "lat": 48.2845801,
  "lon": 4.0783422,
  "tags": {
    "bench": "yes",
    "bin": "yes",
    "highway": "bus_stop",
    "name": "Sup de Co",
    "public_transport": "platform",
    "shelter": "yes"
  }
},
{
  "type": "node",
  "id": 2415892202,
  "lat": 48.3085573,
  "lon": 4.0751396,
  "tags": {
    "bus": "yes",
    "highway": "bus_stop",
    "name": "Tamaris",
    "public_transport": "platform",
    "shelter": "yes"
  }
},
{
  "type": "node",
  "id": 2415892203,
  "lat": 48.3108866,
  "lon": 4.0745894,
  "tags": {
    "bus": "yes",
    "highway": "bus_stop",
    "name": "Brocard",
    "public_transport": "platform",
    "shelter": "no"
  }
},
{
  "type": "node",
  "id": 2415892205,
  "lat": 48.2956524,
  "lon": 4.0772425,
  "tags": {
    "bench": "no",
    "bin": "no",
    "bus": "yes",
    "highway": "bus_stop",
    "lit": "no",
    "name": "Tanneries",
    "public_transport": "platform",
    "shelter": "no",
    "tactile_paving": "yes"
  }
},
{
  "type": "node",
  "id": 2415892220,
  "lat": 48.2908614,
  "lon": 4.0754427,
  "tags": {
    "bench": "yes",
    "bus": "yes",
    "highway": "bus_stop",
    "name": "Terrasses",
    "public_transport": "platform",
    "shelter": "yes"
  }
},
{
  "type": "node",
  "id": 2415892221,
  "lat": 48.2907499,
  "lon": 4.0758145,
  "tags": {
    "bench": "yes",
    "bus": "yes",
    "highway": "bus_stop",
    "name": "Terrasses",
    "public_transport": "platform",
    "shelter": "yes"
  }
},
{
  "type": "node",
  "id": 2415892225,
  "lat": 48.3010918,
  "lon": 4.0750485,
  "tags": {
    "bus": "yes",
    "highway": "bus_stop",
    "name": "Théâtre de Champagne",
    "public_transport": "platform",
    "shelter": "yes"
  }
},
{
  "type": "node",
  "id": 2415892229,
  "lat": 48.3027037,
  "lon": 4.0766972,
  "tags": {
    "bus": "yes",
    "highway": "bus_stop",
    "name": "Tour",
    "public_transport": "platform",
    "shelter": "no"
  }
},
{
  "type": "node",
  "id": 2415892230,
  "lat": 48.3031370,
  "lon": 4.0766702,
  "tags": {
    "bus": "yes",
    "highway": "bus_stop",
    "name": "Tour",
    "public_transport": "platform",
    "shelter": "yes"
  }
},
{
  "type": "node",
  "id": 2415892236,
  "lat": 48.3098089,
  "lon": 4.0538198,
  "tags": {
    "bench": "yes",
    "bin": "yes",
    "bus": "yes",
    "highway": "bus_stop",
    "name": "Trouvassot",
    "public_transport": "platform",
    "shelter": "yes"
  }
},
{
  "type": "node",
  "id": 2415892241,
  "lat": 48.2984089,
  "lon": 4.0557773,
  "tags": {
    "bench": "no",
    "bin": "no",
    "highway": "bus_stop",
    "name": "Vanderbach",
    "public_transport": "platform",
    "shelter": "no"
  }
},
{
  "type": "node",
  "id": 2415892247,
  "lat": 48.2833679,
  "lon": 4.0718509,
  "tags": {
    "bus": "yes",
    "highway": "bus_stop",
    "name": "Verdun",
    "public_transport": "platform",
    "shelter": "yes"
  }
},
{
  "type": "node",
  "id": 2415892248,
  "lat": 48.2844051,
  "lon": 4.0731980,
  "tags": {
    "highway": "bus_stop",
    "name": "Verdun",
    "public_transport": "platform",
    "shelter": "yes"
  }
},
{
  "type": "node",
  "id": 2415892264,
  "lat": 48.2939442,
  "lon": 4.0833345,
  "tags": {
    "bench": "yes",
    "bin": "yes",
    "highway": "bus_stop",
    "name": "Vouldy",
    "public_transport": "platform",
    "shelter": "yes"
  }
},
{
  "type": "node",
  "id": 2415892265,
  "lat": 48.2940841,
  "lon": 4.0829817,
  "tags": {
    "bench": "yes",
    "bin": "yes",
    "highway": "bus_stop",
    "name": "Vouldy",
    "public_transport": "platform",
    "shelter": "yes"
  }
},
{
  "type": "node",
  "id": 2415892266,
  "lat": 48.2913518,
  "lon": 4.1029368,
  "tags": {
    "bench": "no",
    "bin": "no",
    "highway": "bus_stop",
    "name": "Véon à l'Âne",
    "public_transport": "platform",
    "shelter": "no"
  }
},
{
  "type": "node",
  "id": 2415892281,
  "lat": 48.2994772,
  "lon": 4.0502339,
  "tags": {
    "bench": "no",
    "bin": "no",
    "highway": "bus_stop",
    "name": "Érables",
    "public_transport": "platform",
    "shelter": "no"
  }
},
{
  "type": "node",
  "id": 2415892286,
  "lat": 48.2947442,
  "lon": 4.0799522,
  "tags": {
    "bench": "no",
    "bin": "yes",
    "bus": "yes",
    "highway": "bus_stop",
    "name": "14 Juillet",
    "network": "TCAT",
    "network:wikidata": "Q3537958",
    "network:wikipedia": "fr:Transports en commun de Troyes",
    "operator": "TCAT",
    "public_transport": "platform",
    "shelter": "no"
  }
},
{
  "type": "node",
  "id": 2438893683,
  "lat": 48.3048878,
  "lon": 4.0938773,
  "tags": {
    "bench": "no",
    "bin": "no",
    "bus": "yes",
    "highway": "bus_stop",
    "name": "Europe",
    "public_transport": "platform",
    "shelter": "no"
  }
},
{
  "type": "node",
  "id": 2438893684,
  "lat": 48.3065180,
  "lon": 4.0923421,
  "tags": {
    "bench": "no",
    "bin": "no",
    "highway": "bus_stop",
    "name": "Europe",
    "public_transport": "platform",
    "shelter": "no"
  }
},
{
  "type": "node",
  "id": 2591564090,
  "lat": 48.3067473,
  "lon": 4.0705162,
  "tags": {
    "bench": "yes",
    "bus": "yes",
    "covered": "yes",
    "highway": "bus_stop",
    "name": "Chomedey de Maisonneuve",
    "network": "TCAT",
    "network:wikidata": "Q3537958",
    "network:wikipedia": "fr:Transports en commun de Troyes",
    "operator": "TCAT",
    "public_transport": "platform",
    "shelter": "yes"
  }
},
{
  "type": "node",
  "id": 3464943301,
  "lat": 48.2957852,
  "lon": 4.0672829,
  "tags": {
    "bench": "no",
    "bin": "no",
    "bus": "yes",
    "highway": "bus_stop",
    "name": "Gare Carnot",
    "public_transport": "platform",
    "shelter": "no"
  }
},
{
  "type": "node",
  "id": 3836155572,
  "lat": 48.2902454,
  "lon": 4.0719720,
  "tags": {
    "bus": "yes",
    "highway": "bus_stop",
    "name": "Troyes (Delestraint-Belgique)",
    "public_transport": "stop_position"
  }
},
{
  "type": "node",
  "id": 3836155573,
  "lat": 48.2965794,
  "lon": 4.0650132,
  "tags": {
    "bus": "yes",
    "highway": "bus_stop",
    "name": "Troyes (gare)",
    "public_transport": "stop_position"
  }
},
{
  "type": "node",
  "id": 3864787964,
  "lat": 48.2941308,
  "lon": 4.0781902,
  "tags": {
    "fixme": "position",
    "highway": "bus_stop",
    "name": "Boulevard du 14 Juillet"
  }
},
{
  "type": "node",
  "id": 3864790966,
  "lat": 48.2933247,
  "lon": 4.0690107,
  "tags": {
    "bus": "yes",
    "fixme": "position",
    "highway": "bus_stop",
    "name": "Victor Hugo",
    "public_transport": "platform"
  }
},
{
  "type": "node",
  "id": 4279710782,
  "lat": 48.3038152,
  "lon": 4.0567939,
  "tags": {
    "bus": "yes",
    "highway": "bus_stop",
    "name": "Lacoste",
    "public_transport": "platform",
    "shelter": "no"
  }
},
{
  "type": "node",
  "id": 4279915156,
  "lat": 48.3003006,
  "lon": 4.0746463,
  "tags": {
    "bench": "yes",
    "bus": "yes",
    "highway": "bus_stop",
    "name": "Théâtre de Champagne",
    "public_transport": "platform",
    "shelter": "yes"
  }
},
{
  "type": "node",
  "id": 4322955209,
  "lat": 48.2982076,
  "lon": 4.0911769,
  "tags": {
    "bench": "no",
    "bin": "no",
    "covered": "no",
    "highway": "bus_stop",
    "name": "Jobert",
    "operator": "TCAT",
    "public_transport": "platform",
    "shelter": "no",
    "website": "http://tcat.fr"
  }
},
{
  "type": "node",
  "id": 4355240508,
  "lat": 48.3090108,
  "lon": 4.0685635,
  "tags": {
    "bench": "yes",
    "bus": "yes",
    "covered": "yes",
    "highway": "bus_stop",
    "name": "Pont Vert",
    "operator": "TCAT",
    "public_transport": "platform",
    "shelter": "yes"
  }
},
{
  "type": "node",
  "id": 4375806811,
  "lat": 48.3079529,
  "lon": 4.0754100,
  "tags": {
    "bus": "yes",
    "highway": "bus_stop",
    "name": "Tamaris",
    "public_transport": "platform",
    "shelter": "yes"
  }
},
{
  "type": "node",
  "id": 4398792516,
  "lat": 48.3046353,
  "lon": 4.0723076,
  "tags": {
    "bus": "yes",
    "highway": "bus_stop",
    "name": "Largentier",
    "public_transport": "platform",
    "shelter": "yes"
  }
},
{
  "type": "node",
  "id": 4398792520,
  "lat": 48.3123664,
  "lon": 4.0633036,
  "tags": {
    "highway": "bus_stop",
    "name": "Maraîchers",
    "public_transport": "platform"
  }
},
{
  "type": "node",
  "id": 4398792523,
  "lat": 48.3125796,
  "lon": 4.0632044,
  "tags": {
    "bus": "yes",
    "highway": "bus_stop",
    "name": "Maraîchers",
    "public_transport": "platform"
  }
},
{
  "type": "node",
  "id": 4398792528,
  "lat": 48.3110458,
  "lon": 4.0664800,
  "tags": {
    "highway": "bus_stop",
    "name": "Mulsan",
    "network": "TCAT",
    "network:wikidata": "Q3537958",
    "network:wikipedia": "fr:Transports en commun de Troyes",
    "public_transport": "platform",
    "shelter": "yes"
  }
},
{
  "type": "node",
  "id": 4400524102,
  "lat": 48.2958560,
  "lon": 4.0668608,
  "tags": {
    "bench": "no",
    "bin": "no",
    "bus": "yes",
    "highway": "bus_stop",
    "name": "Gare Carnot",
    "public_transport": "platform",
    "shelter": "no"
  }
},
{
  "type": "node",
  "id": 4400524120,
  "lat": 48.2918690,
  "lon": 4.0865501,
  "tags": {
    "bench": "no",
    "bin": "no",
    "bus": "yes",
    "highway": "bus_stop",
    "name": "Nesmy",
    "public_transport": "platform",
    "shelter": "no"
  }
},
{
  "type": "node",
  "id": 4400524126,
  "lat": 48.2924249,
  "lon": 4.1016654,
  "tags": {
    "bench": "no",
    "bin": "no",
    "check_date:shelter": "2020-12-28",
    "highway": "bus_stop",
    "name": "Noëls",
    "public_transport": "platform",
    "shelter": "no",
    "tactile_paving": "no"
  }
},
{
  "type": "node",
  "id": 4400524138,
  "lat": 48.2912679,
  "lon": 4.0979096,
  "tags": {
    "bench": "no",
    "bin": "no",
    "highway": "bus_stop",
    "name": "Prés l'Évêque",
    "public_transport": "platform",
    "shelter": "no"
  }
},
{
  "type": "node",
  "id": 4400524141,
  "lat": 48.2922048,
  "lon": 4.0974476,
  "tags": {
    "bench": "no",
    "bin": "yes",
    "highway": "bus_stop",
    "name": "Prés l'Évêque",
    "public_transport": "platform",
    "shelter": "no"
  }
},
{
  "type": "node",
  "id": 4400524145,
  "lat": 48.2915081,
  "lon": 4.0892040,
  "tags": {
    "bench": "no",
    "bin": "no",
    "bus": "yes",
    "highway": "bus_stop",
    "name": "Quennedey",
    "public_transport": "platform",
    "shelter": "no"
  }
},
{
  "type": "node",
  "id": 4400524157,
  "lat": 48.2913929,
  "lon": 4.1030597,
  "tags": {
    "bench": "no",
    "bin": "no",
    "highway": "bus_stop",
    "name": "Véon à l'Âne",
    "public_transport": "platform",
    "shelter": "no"
  }
},
{
  "type": "node",
  "id": 4400524320,
  "lat": 48.2950176,
  "lon": 4.0793449,
  "tags": {
    "bench": "yes",
    "bin": "yes",
    "bus": "yes",
    "highway": "bus_stop",
    "name": "14 Juillet",
    "network": "TCAT",
    "network:wikidata": "Q3537958",
    "network:wikipedia": "fr:Transports en commun de Troyes",
    "operator": "TCAT",
    "public_transport": "platform",
    "shelter": "yes"
  }
},
{
  "type": "node",
  "id": 4401901091,
  "lat": 48.2869504,
  "lon": 4.0774760,
  "tags": {
    "bench": "no",
    "bus": "yes",
    "highway": "bus_stop",
    "name": "Pompidou",
    "public_transport": "platform",
    "shelter": "no"
  }
},
{
  "type": "node",
  "id": 4416467452,
  "lat": 48.3079314,
  "lon": 4.0871074,
  "tags": {
    "bus": "yes",
    "highway": "bus_stop",
    "name": "Berthollet",
    "network": "TCAT",
    "network:wikidata": "Q3537958",
    "network:wikipedia": "fr:Transports en commun de Troyes",
    "operator": "TCAT",
    "public_transport": "platform"
  }
},
{
  "type": "node",
  "id": 4416467455,
  "lat": 48.3082570,
  "lon": 4.0871785,
  "tags": {
    "bus": "yes",
    "highway": "bus_stop",
    "name": "Berthollet",
    "network": "TCAT",
    "network:wikidata": "Q3537958",
    "network:wikipedia": "fr:Transports en commun de Troyes",
    "operator": "TCAT",
    "public_transport": "platform"
  }
},
{
  "type": "node",
  "id": 4416467463,
  "lat": 48.3057390,
  "lon": 4.0861471,
  "tags": {
    "highway": "bus_stop",
    "name": "Chaillouet",
    "public_transport": "platform"
  }
},
{
  "type": "node",
  "id": 4416467504,
  "lat": 48.3122426,
  "lon": 4.0836879,
  "tags": {
    "bus": "yes",
    "highway": "bus_stop",
    "name": "Malraux",
    "public_transport": "platform"
  }
},
{
  "type": "node",
  "id": 4416467507,
  "lat": 48.3123514,
  "lon": 4.0836906,
  "tags": {
    "bus": "yes",
    "highway": "bus_stop",
    "name": "Malraux",
    "public_transport": "platform"
  }
},
{
  "type": "node",
  "id": 4416467517,
  "lat": 48.3042202,
  "lon": 4.0822353,
  "tags": {
    "bus": "yes",
    "highway": "bus_stop",
    "name": "Philbois",
    "public_transport": "platform"
  }
},
{
  "type": "node",
  "id": 4416467519,
  "lat": 48.3043054,
  "lon": 4.0821713,
  "tags": {
    "bus": "yes",
    "highway": "bus_stop",
    "name": "Philbois",
    "public_transport": "platform"
  }
},
{
  "type": "node",
  "id": 4464893718,
  "lat": 48.3060918,
  "lon": 4.0635401,
  "tags": {
    "bench": "no",
    "bin": "no",
    "bus": "yes",
    "highway": "bus_stop",
    "name": "Marie de Champagne",
    "public_transport": "platform",
    "shelter": "no"
  }
},
{
  "type": "node",
  "id": 4568749028,
  "lat": 48.2969078,
  "lon": 4.0942324,
  "tags": {
    "bench": "no",
    "bin": "no",
    "highway": "bus_stop",
    "name": "Gournay",
    "public_transport": "platform",
    "shelter": "no"
  }
}

  ]
}
