{
  "version": 0.6,
  "generator": "Overpass API 0.7.57 93a4d346",
  "osm3s": {
    "timestamp_osm_base": "2022-02-13T13:29:38Z",
    "timestamp_areas_base": "2022-02-13T06:31:57Z",
    "copyright": "The data included in this document is from www.openstreetmap.org. The data is made available under ODbL."
  },
  "elements": [

{
  "type": "node",
  "id": 1198007495,
  "lat": 48.7984621,
  "lon": 2.4001899,
  "tags": {
    "STIF:zone": "3",
    "bench": "yes",
    "bin": "yes",
    "bus": "yes",
    "highway": "bus_stop",
    "name": "Gabriel Péri",
    "public_transport": "platform",
    "ref:FR:STIF": "36147",
    "ref:FR:STIF:stop_id": "StopPoint:59:7676485",
    "route_ref": "180;182",
    "shelter": "yes",
    "source:wheelchair": "STIF 2019-01",
    "tactile_paving": "no",
    "wheelchair": "yes"
  }
},
{
  "type": "node",
  "id": 1243284356,
  "lat": 48.7953993,
  "lon": 2.3976398,
  "tags": {
    "STIF:zone": "3",
    "bench": "yes",
    "bin": "yes",
    "bus": "yes",
    "highway": "bus_stop",
    "lit": "yes",
    "name": "Paul Vaillant-Couturier",
    "public_transport": "platform",
    "ref:FR:STIF": "41718",
    "ref:FR:STIF:stop_id": "StopPoint:59:7676484",
    "route_ref": "180",
    "shelter": "yes",
    "source:wheelchair": "STIF 2019-01",
    "tactile_paving": "no",
    "wheelchair": "no"
  }
},
{
  "type": "node",
  "id": 1493804618,
  "lat": 48.7941293,
  "lon": 2.4010154,
  "tags": {
    "STIF:zone": "3",
    "bench": "yes",
    "bin": "yes",
    "bus": "yes",
    "highway": "bus_stop",
    "lit": "yes",
    "name": "Gabriel Péri",
    "public_transport": "platform",
    "ref:FR:STIF": "37276",
    "ref:FR:STIF:stop_id": "StopPoint:59:5688828",
    "route_ref": "172",
    "shelter": "yes",
    "source:wheelchair": "STIF 2019-01",
    "tactile_paving": "no",
    "wheelchair": "yes"
  }
},
{
  "type": "node",
  "id": 1540442622,
  "lat": 48.8043269,
  "lon": 2.4050724,
  "tags": {
    "STIF:zone": "3",
    "bench": "no",
    "bin": "no",
    "bus": "yes",
    "highway": "bus_stop",
    "lit": "no",
    "name": "Port à l'Anglais",
    "public_transport": "platform",
    "ref:FR:STIF": "28801",
    "ref:FR:STIF:stop_id": "StopPoint:59:7676487",
    "route_ref": "180;217",
    "shelter": "no",
    "tactile_paving": "no",
    "wheelchair": "yes"
  }
},
{
  "type": "node",
  "id": 1544168301,
  "lat": 48.7920346,
  "lon": 2.3950906,
  "tags": {
    "STIF:zone": "3",
    "bench": "yes",
    "bin": "yes",
    "bus": "yes",
    "highway": "bus_stop",
    "lit": "yes",
    "name": "Église de Vitry",
    "public_transport": "platform",
    "ref:FR:STIF": "37280",
    "ref:FR:STIF:stop_id": "StopPoint:59:7676483",
    "route_ref": "132;180",
    "shelter": "yes",
    "source:wheelchair": "STIF 2019-01",
    "tactile_paving": "yes",
    "wheelchair": "yes"
  }
},
{
  "type": "node",
  "id": 1544168304,
  "lat": 48.7906444,
  "lon": 2.3922967,
  "tags": {
    "STIF:zone": "3",
    "bench": "yes",
    "bin": "yes",
    "bus": "yes",
    "highway": "bus_stop",
    "name": "Audigeois",
    "public_transport": "platform",
    "ref:FR:STIF": "29794",
    "ref:FR:STIF:stop_id": "StopPoint:59:4843823",
    "route_ref": "132;180",
    "shelter": "yes",
    "source:wheelchair": "STIF 2019-01",
    "tactile_paving": "yes",
    "wheelchair": "yes"
  }
},
{
  "type": "node",
  "id": 1636874151,
  "lat": 48.7964010,
  "lon": 2.4125825,
  "tags": {
    "STIF:zone": "3",
    "bus": "yes",
    "highway": "bus_stop",
    "name": "Salvador Allende - Edith Cavell",
    "public_transport": "platform",
    "ref:FR:STIF": "27806",
    "ref:FR:STIF:stop_id": "StopPoint:59:3619787",
    "route_ref": "217",
    "source:wheelchair": "STIF 2019-01",
    "wheelchair": "yes"
  }
},
{
  "type": "node",
  "id": 1648239778,
  "lat": 48.8016668,
  "lon": 2.4101745,
  "tags": {
    "STIF:zone": "3",
    "bench": "no",
    "bin": "no",
    "bus": "yes",
    "highway": "bus_stop",
    "lit": "no",
    "name": "Edith Cavell - Waldeck Rousseau",
    "public_transport": "platform",
    "ref:FR:STIF": "22466",
    "ref:FR:STIF:stop_id": "StopPoint:59:3619835",
    "route_ref": "217",
    "shelter": "no",
    "source:wheelchair": "STIF 2019-01",
    "tactile_paving": "no",
    "wheelchair": "yes",
    "wikidata": "Q56857579"
  }
},
{
  "type": "node",
  "id": 1679375146,
  "lat": 48.7730907,
  "lon": 2.3763221,
  "tags": {
    "STIF:zone": "3",
    "bus": "yes",
    "highway": "bus_stop",
    "name": "Cité du Moulin Vert",
    "public_transport": "platform",
    "ref:FR:STIF": "21172",
    "ref:FR:STIF:stop_id": "StopPoint:59:6563560",
    "route_ref": "185"
  }
},
{
  "type": "node",
  "id": 1679943171,
  "lat": 48.7776750,
  "lon": 2.3767885,
  "tags": {
    "STIF:zone": "3",
    "bench": "yes",
    "bin": "yes",
    "bus": "yes",
    "highway": "bus_stop",
    "name": "Paul Armangot",
    "public_transport": "platform",
    "ref:FR:STIF": "7850",
    "ref:FR:STIF:stop_id": "StopPoint:59:6563562",
    "shelter": "yes",
    "source": "survey 01/2018",
    "source:position": "BD Ortho IGN",
    "tactile_paving": "no"
  }
},
{
  "type": "node",
  "id": 1906548085,
  "lat": 48.7775023,
  "lon": 2.4088118,
  "tags": {
    "STIF:zone": "3",
    "bus": "yes",
    "highway": "bus_stop",
    "name": "Descartes",
    "public_transport": "platform",
    "ref:FR:RATP": "11341723",
    "ref:FR:STIF": "30141",
    "ref:FR:STIF:stop_id": "StopPoint:59:3785944",
    "route_ref": "182",
    "shelter": "yes",
    "source": "RATP - 07/2012",
    "source:wheelchair": "STIF 2019-01",
    "wheelchair": "yes"
  }
},
{
  "type": "node",
  "id": 1906548086,
  "lat": 48.7841142,
  "lon": 2.4078923,
  "tags": {
    "STIF:zone": "3",
    "bench": "yes",
    "bus": "yes",
    "highway": "bus_stop",
    "name": "Les Ardoines RER",
    "public_transport": "platform",
    "ref:FR:RATP": "11359079",
    "ref:FR:STIF": "411299;36151",
    "ref:FR:STIF:stop_id": "StopPoint:59:3785938;StopPoint:800:8759062R",
    "route_ref": "182;N133",
    "shelter": "yes",
    "source": "survey;RATP - 07/2012",
    "source:wheelchair": "STIF 2019-01",
    "tactile_paving": "no",
    "wheelchair": "yes"
  }
},
{
  "type": "node",
  "id": 1906548125,
  "lat": 48.7840321,
  "lon": 2.4076311,
  "tags": {
    "STIF:zone": "3",
    "bench": "yes",
    "bus": "yes",
    "highway": "bus_stop",
    "name": "Les Ardoines RER",
    "public_transport": "platform",
    "ref:FR:RATP": "11359079",
    "ref:FR:STIF": "27153;411299",
    "ref:FR:STIF:stop_id": "StopPoint:59:3785937;StopPoint:800:8759062",
    "route_ref": "182;N133",
    "shelter": "yes",
    "source:wheelchair": "STIF 2019-01",
    "tactile_paving": "no",
    "wheelchair": "yes"
  }
},
{
  "type": "node",
  "id": 1906548131,
  "lat": 48.7772796,
  "lon": 2.4085928,
  "tags": {
    "STIF:zone": "3",
    "bus": "yes",
    "highway": "bus_stop",
    "name": "Descartes",
    "public_transport": "platform",
    "ref:FR:RATP": "11341723",
    "ref:FR:STIF": "23367",
    "ref:FR:STIF:stop_id": "StopPoint:59:3785943",
    "route_ref": "182",
    "source": "RATP - 07/2012",
    "source:wheelchair": "STIF 2019-01",
    "wheelchair": "yes"
  }
},
{
  "type": "node",
  "id": 1938019380,
  "lat": 48.7926724,
  "lon": 2.3883211,
  "tags": {
    "STIF:zone": "3",
    "bus": "yes",
    "highway": "bus_stop",
    "name": "Henri de Vilmorin",
    "public_transport": "platform",
    "ref:FR:STIF": "37193",
    "ref:FR:STIF:stop_id": "StopPoint:59:5688826",
    "route_ref": "172",
    "shelter": "yes",
    "source:wheelchair": "STIF 2019-01",
    "wheelchair": "yes"
  }
},
{
  "type": "node",
  "id": 1938019384,
  "lat": 48.7925728,
  "lon": 2.3892704,
  "tags": {
    "STIF:zone": "3",
    "bus": "yes",
    "highway": "bus_stop",
    "name": "Henri de Vilmorin",
    "public_transport": "platform",
    "ref:FR:STIF": "23240",
    "ref:FR:STIF:stop_id": "StopPoint:59:5688825",
    "route_ref": "172",
    "shelter": "yes",
    "source:wheelchair": "STIF 2019-01",
    "wheelchair": "yes"
  }
},
{
  "type": "node",
  "id": 1938019388,
  "lat": 48.7940453,
  "lon": 2.4001597,
  "tags": {
    "STIF:zone": "3",
    "bench": "yes",
    "bin": "yes",
    "bus": "yes",
    "highway": "bus_stop",
    "lit": "yes",
    "name": "Gabriel Péri",
    "public_transport": "platform",
    "ref:FR:STIF": "18743",
    "ref:FR:STIF:stop_id": "StopPoint:59:5688829",
    "route_ref": "172",
    "shelter": "yes",
    "source:wheelchair": "STIF 2019-01",
    "tactile_paving": "no",
    "wheelchair": "yes"
  }
},
{
  "type": "node",
  "id": 1938019391,
  "lat": 48.7929380,
  "lon": 2.3923970,
  "tags": {
    "STIF:zone": "3",
    "bus": "yes",
    "highway": "bus_stop",
    "name": "Exploradome",
    "public_transport": "platform",
    "ref:FR:STIF": "23217",
    "ref:FR:STIF:stop_id": "StopPoint:59:5688854",
    "route_ref": "172;180",
    "shelter": "yes",
    "source:wheelchair": "STIF 2019-01",
    "wheelchair": "yes"
  }
},
{
  "type": "node",
  "id": 1938019403,
  "lat": 48.7922278,
  "lon": 2.3855226,
  "tags": {
    "STIF:zone": "3",
    "bus": "yes",
    "highway": "bus_stop",
    "name": "Musée MAC VAL",
    "public_transport": "platform",
    "ref:FR:STIF": "11232",
    "ref:FR:STIF:stop_id": "StopPoint:59:5688824",
    "route_ref": "172",
    "source:wheelchair": "STIF 2019-01",
    "wheelchair": "no"
  }
},
{
  "type": "node",
  "id": 1938023794,
  "lat": 48.7920818,
  "lon": 2.3860076,
  "tags": {
    "STIF:zone": "3",
    "bench": "no",
    "bus": "yes",
    "highway": "bus_stop",
    "name": "Musée MAC VAL",
    "public_transport": "platform",
    "ref:FR:STIF": "25843",
    "ref:FR:STIF:stop_id": "StopPoint:59:5688823",
    "route_ref": "172",
    "shelter": "no",
    "source:ref:FR:STIF": "opendata STIF - 04/2018"
  }
},
{
  "type": "node",
  "id": 1938023795,
  "lat": 48.7905652,
  "lon": 2.3805168,
  "tags": {
    "STIF:zone": "3",
    "bus": "yes",
    "highway": "bus_stop",
    "name": "Camélinat",
    "public_transport": "platform",
    "ref:FR:STIF": "7848",
    "ref:FR:STIF:stop_id": "StopPoint:59:5688822",
    "route_ref": "132;172;180",
    "source:wheelchair": "STIF 2019-01",
    "wheelchair": "yes"
  }
},
{
  "type": "node",
  "id": 1938023796,
  "lat": 48.7905092,
  "lon": 2.3806026,
  "tags": {
    "STIF:zone": "3",
    "bus": "yes",
    "highway": "bus_stop",
    "name": "Camélinat",
    "public_transport": "platform",
    "ref:FR:STIF": "36654",
    "ref:FR:STIF:stop_id": "StopPoint:59:5688821",
    "route_ref": "132;172;180",
    "source:wheelchair": "STIF 2019-01",
    "wheelchair": "yes"
  }
},
{
  "type": "node",
  "id": 1938046933,
  "lat": 48.7886730,
  "lon": 2.3759649,
  "tags": {
    "STIF:zone": "3",
    "bus": "yes",
    "highway": "bus_stop",
    "name": "Colonel Fabien",
    "public_transport": "platform",
    "ref:FR:STIF": "25840",
    "ref:FR:STIF:stop_id": "StopPoint:59:5688855",
    "route_ref": "172;180",
    "source:wheelchair": "STIF 2019-01",
    "wheelchair": "yes"
  }
},
{
  "type": "node",
  "id": 1938046934,
  "lat": 48.7885639,
  "lon": 2.3761633,
  "tags": {
    "STIF:zone": "3",
    "bus": "yes",
    "highway": "bus_stop",
    "name": "Colonel Fabien",
    "public_transport": "platform",
    "ref:FR:STIF": "25842",
    "ref:FR:STIF:stop_id": "StopPoint:59:5688820",
    "route_ref": "172:180;180;172",
    "source:wheelchair": "STIF 2019-01",
    "wheelchair": "yes"
  }
},
{
  "type": "node",
  "id": 1964314576,
  "lat": 48.7984306,
  "lon": 2.4000236,
  "tags": {
    "STIF:zone": "3",
    "bench": "yes",
    "bin": "yes",
    "bus": "yes",
    "highway": "bus_stop",
    "name": "Gabriel Péri",
    "public_transport": "platform",
    "ref:FR:STIF": "36146",
    "ref:FR:STIF:stop_id": "StopPoint:59:3785927",
    "route_ref": "180;182",
    "shelter": "yes",
    "source:wheelchair": "STIF 2019-01",
    "tactile_paving": "no",
    "wheelchair": "yes"
  }
},
{
  "type": "node",
  "id": 1964982901,
  "lat": 48.8025920,
  "lon": 2.4052621,
  "tags": {
    "STIF:zone": "3",
    "bench": "no",
    "bin": "no",
    "bus": "yes",
    "highway": "bus_stop",
    "lit": "no",
    "name": "Pasteur - Charles Fourier",
    "public_transport": "platform",
    "ref:FR:STIF": "27808",
    "ref:FR:STIF:stop_id": "StopPoint:59:3619836",
    "route_ref": "217;217",
    "shelter": "no",
    "source:wheelchair": "STIF 2019-01",
    "tactile_paving": "no",
    "wheelchair": "yes",
    "wikidata": "Q56859677"
  }
},
{
  "type": "node",
  "id": 2032396208,
  "lat": 48.8008888,
  "lon": 2.4017787,
  "tags": {
    "STIF:zone": "3",
    "bench": "yes",
    "bin": "yes",
    "bus": "yes",
    "highway": "bus_stop",
    "lit": "yes",
    "name": "Vitry-sur-Seine RER",
    "public_transport": "platform",
    "ref:FR:STIF": "23344",
    "ref:FR:STIF:stop_id": "StopPoint:59:7676389",
    "route_ref": "180",
    "shelter": "yes",
    "source:wheelchair": "STIF 2019-01",
    "tactile_paving": "no",
    "wheelchair": "no"
  }
},
{
  "type": "node",
  "id": 2046134312,
  "lat": 48.7933649,
  "lon": 2.3927755,
  "tags": {
    "STIF:zone": "3",
    "bench": "yes",
    "bus": "yes",
    "highway": "bus_stop",
    "name": "Exploradôme",
    "public_transport": "platform",
    "ref:FR:STIF": "37409",
    "ref:FR:STIF:stop_id": "StopPoint:59:4843469",
    "shelter": "yes",
    "source": "survey 01/2018",
    "source:position": "BD Ortho IGN"
  }
},
{
  "type": "node",
  "id": 2046134315,
  "lat": 48.7950981,
  "lon": 2.3918517,
  "tags": {
    "STIF:zone": "3",
    "bench": "yes",
    "bus": "yes",
    "highway": "bus_stop",
    "name": "Malraux - Charles Infroit",
    "public_transport": "platform",
    "ref:FR:STIF": "413087",
    "ref:FR:STIF:stop_id": "StopPoint:59:4843467",
    "shelter": "yes",
    "source": "survey 01/2018",
    "source:position": "BD Ortho IGN"
  }
},
{
  "type": "node",
  "id": 2046134316,
  "lat": 48.7933826,
  "lon": 2.3926326,
  "tags": {
    "STIF:zone": "3",
    "bench": "yes",
    "bus": "yes",
    "highway": "bus_stop",
    "name": "Exploradôme",
    "public_transport": "platform",
    "ref:FR:STIF": "37408",
    "ref:FR:STIF:stop_id": "StopPoint:59:4843468",
    "route_ref": "132",
    "shelter": "yes",
    "source": "survey 01/2018",
    "source:position": "BD Ortho IGN"
  }
},
{
  "type": "node",
  "id": 2046134317,
  "lat": 48.7950338,
  "lon": 2.3917502,
  "tags": {
    "STIF:zone": "3",
    "bench": "yes",
    "bus": "yes",
    "highway": "bus_stop",
    "name": "Malraux - Charles Infroit",
    "public_transport": "platform",
    "ref:FR:STIF": "23204",
    "ref:FR:STIF:stop_id": "StopPoint:59:4843466",
    "shelter": "yes",
    "source": "survey 01/2018",
    "source:position": "BD Ortho IGN"
  }
},
{
  "type": "node",
  "id": 2051402931,
  "lat": 48.7945274,
  "lon": 2.4004469,
  "tags": {
    "STIF:zone": "3",
    "bench": "yes",
    "bin": "yes",
    "bus": "yes",
    "highway": "bus_stop",
    "lit": "yes",
    "name": "Jean Jaurès",
    "public_transport": "platform",
    "ref:FR:STIF": "23369",
    "ref:FR:STIF:stop_id": "StopPoint:59:3785930",
    "route_ref": "182",
    "shelter": "yes",
    "source:wheelchair": "STIF 2019-01",
    "tactile_paving": "no",
    "wheelchair": "yes"
  }
},
{
  "type": "node",
  "id": 2051402932,
  "lat": 48.7937650,
  "lon": 2.4007164,
  "tags": {
    "STIF:zone": "3",
    "bench": "no",
    "bin": "yes",
    "bus": "yes",
    "highway": "bus_stop",
    "lit": "no",
    "name": "Jean Jaurès",
    "public_transport": "platform",
    "ref:FR:STIF": "37281",
    "ref:FR:STIF:stop_id": "StopPoint:59:3785929",
    "route_ref": "182",
    "shelter": "no",
    "source:wheelchair": "STIF 2019-01",
    "tactile_paving": "no",
    "wheelchair": "yes"
  }
},
{
  "type": "node",
  "id": 2054833675,
  "lat": 48.7948792,
  "lon": 2.3847034,
  "tags": {
    "STIF:zone": "3",
    "bus": "yes",
    "highway": "bus_stop",
    "name": "Charles Infroit",
    "public_transport": "platform",
    "ref:FR:STIF": "8158",
    "ref:FR:STIF:stop_id": "StopPoint:59:4677690",
    "route_ref": "183;N31",
    "source:wheelchair": "STIF 2019-01",
    "wheelchair": "no"
  }
},
{
  "type": "node",
  "id": 2054833690,
  "lat": 48.7946749,
  "lon": 2.3844202,
  "tags": {
    "STIF:zone": "3",
    "bus": "yes",
    "highway": "bus_stop",
    "name": "Charles Infroit",
    "public_transport": "platform",
    "ref:FR:STIF": "26695",
    "ref:FR:STIF:stop_id": "StopPoint:59:4471750",
    "route_ref": "183;N31",
    "source:wheelchair": "STIF 2019-01",
    "wheelchair": "no"
  }
},
{
  "type": "node",
  "id": 2057332223,
  "lat": 48.7999855,
  "lon": 2.4002702,
  "tags": {
    "STIF:zone": "3",
    "bench": "yes",
    "bus": "yes",
    "highway": "bus_stop",
    "name": "République - Vaillant-Couturier",
    "public_transport": "platform",
    "ref:FR:STIF": "23368",
    "ref:FR:STIF:stop_id": "StopPoint:59:3785925",
    "route_ref": "182;N133",
    "shelter": "yes",
    "source:wheelchair": "STIF 2019-01",
    "tactile_paving": "no",
    "wheelchair": "yes"
  }
},
{
  "type": "node",
  "id": 2057332224,
  "lat": 48.7997491,
  "lon": 2.4007433,
  "tags": {
    "STIF:zone": "3",
    "bench": "yes",
    "bin": "yes",
    "bus": "yes",
    "highway": "bus_stop",
    "lit": "yes",
    "name": "République - Vaillant-Couturier",
    "public_transport": "platform",
    "ref:FR:STIF": "411303",
    "ref:FR:STIF:stop_id": "StopPoint:59:3785926",
    "route_ref": "182;N133",
    "shelter": "yes",
    "source:wheelchair": "STIF 2019-01",
    "tactile_paving": "no",
    "wheelchair": "yes"
  }
},
{
  "type": "node",
  "id": 2074581253,
  "lat": 48.7954602,
  "lon": 2.3975579,
  "tags": {
    "STIF:zone": "3",
    "bench": "yes",
    "bin": "yes",
    "bus": "yes",
    "highway": "bus_stop",
    "name": "Paul Vaillant-Couturier",
    "public_transport": "platform",
    "ref:FR:STIF": "25845",
    "ref:FR:STIF:stop_id": "StopPoint:59:7676391",
    "route_ref": "180",
    "shelter": "yes",
    "source:wheelchair": "STIF 2019-01",
    "tactile_paving": "no",
    "wheelchair": "no"
  }
},
{
  "type": "node",
  "id": 2074588557,
  "lat": 48.7923890,
  "lon": 2.3950744,
  "tags": {
    "STIF:zone": "3",
    "bench": "yes",
    "bin": "yes",
    "bus": "yes",
    "highway": "bus_stop",
    "lit": "yes",
    "name": "Église de Vitry",
    "note": "Bus 132 180 Vitry-Moulin Vert/ Villejuif-Louis Aragon (Arrêt non desservi le mercredi et samedi de début à 15h00 en raison du Marché du Centre)",
    "public_transport": "platform",
    "ref:FR:STIF": "42077",
    "ref:FR:STIF:stop_id": "StopPoint:59:4843470",
    "route_ref": "132;180",
    "shelter": "yes",
    "source": "survey 01/2018",
    "source:position": "BD Ortho IGN",
    "source:wheelchair": "STIF 2019-01",
    "tactile_paving": "yes",
    "wheelchair": "yes"
  }
},
{
  "type": "node",
  "id": 2074591588,
  "lat": 48.7908088,
  "lon": 2.3933109,
  "tags": {
    "STIF:zone": "3",
    "bench": "yes",
    "bin": "yes",
    "bus": "yes",
    "highway": "bus_stop",
    "name": "Audigeois",
    "public_transport": "platform",
    "ref:FR:STIF": "37166",
    "ref:FR:STIF:stop_id": "StopPoint:59:7676482",
    "route_ref": "132;180",
    "shelter": "yes",
    "source:wheelchair": "STIF 2019-01",
    "tactile_paving": "no",
    "wheelchair": "yes"
  }
},
{
  "type": "node",
  "id": 2076655389,
  "lat": 48.7892511,
  "lon": 2.3885420,
  "tags": {
    "STIF:zone": "3",
    "bench": "yes",
    "bin": "yes",
    "bus": "yes",
    "disused:highway": "bus_stop",
    "disused:public_transport": "platform",
    "highway": "bus_stop",
    "name": "Hôtel de Ville de Vitry",
    "public_transport": "platform",
    "ref:FR:STIF": "23203",
    "ref:FR:STIF:stop_id": "StopPoint:59:4843474",
    "route_ref": "132;180",
    "shelter": "yes",
    "source:wheelchair": "STIF 2019-01",
    "tactile_paving": "no",
    "wheelchair": "yes"
  }
},
{
  "type": "node",
  "id": 2076655390,
  "lat": 48.7891215,
  "lon": 2.3890882,
  "tags": {
    "STIF:zone": "3",
    "bench": "no",
    "bin": "yes",
    "bus": "yes",
    "highway": "bus_stop",
    "lit": "no",
    "name": "Hôtel de Ville de Vitry",
    "public_transport": "platform",
    "ref:FR:STIF": "25844",
    "ref:FR:STIF:stop_id": "StopPoint:59:4471752",
    "route_ref": "N31",
    "shelter": "no",
    "source:wheelchair": "STIF 2019-01",
    "tactile_paving": "no",
    "wheelchair": "no"
  }
},
{
  "type": "node",
  "id": 2076655391,
  "lat": 48.7892325,
  "lon": 2.3894758,
  "tags": {
    "STIF:zone": "3",
    "bench": "no",
    "bin": "no",
    "bus": "yes",
    "highway": "bus_stop",
    "name": "Hôtel de Ville de Vitry",
    "public_transport": "platform",
    "ref:FR:STIF": "37000",
    "ref:FR:STIF:stop_id": "StopPoint:59:4677694",
    "route_ref": "N31",
    "shelter": "no",
    "source:wheelchair": "STIF 2019-01",
    "tactile_paving": "no",
    "wheelchair": "no"
  }
},
{
  "type": "node",
  "id": 2076657959,
  "lat": 48.7928025,
  "lon": 2.3865154,
  "tags": {
    "STIF:zone": "3",
    "bus": "yes",
    "highway": "bus_stop",
    "name": "Musée MAC VAL",
    "public_transport": "platform",
    "ref:FR:STIF": "26697",
    "ref:FR:STIF:stop_id": "StopPoint:59:4677692",
    "route_ref": "183;N31",
    "source:wheelchair": "STIF 2019-01",
    "wheelchair": "no"
  }
},
{
  "type": "node",
  "id": 2076657968,
  "lat": 48.7926975,
  "lon": 2.3861191,
  "tags": {
    "STIF:zone": "3",
    "bus": "yes",
    "highway": "bus_stop",
    "name": "Musée MAC VAL",
    "public_transport": "platform",
    "ref:FR:STIF": "26696",
    "ref:FR:STIF:stop_id": "StopPoint:59:4471751",
    "route_ref": "183;N31",
    "source:wheelchair": "STIF 2019-01",
    "wheelchair": "no"
  }
},
{
  "type": "node",
  "id": 2077788328,
  "lat": 48.7980535,
  "lon": 2.3818908,
  "tags": {
    "STIF:zone": "3",
    "bus": "yes",
    "highway": "bus_stop",
    "name": "La Civette",
    "public_transport": "platform",
    "ref:FR:STIF": "26693",
    "ref:FR:STIF:stop_id": "StopPoint:59:4471749",
    "route_ref": "183;N31",
    "source:wheelchair": "STIF 2019-01",
    "wheelchair": "no"
  }
},
{
  "type": "node",
  "id": 2077788329,
  "lat": 48.7987567,
  "lon": 2.3818099,
  "tags": {
    "STIF:zone": "3",
    "bus": "yes",
    "highway": "bus_stop",
    "name": "La Civette",
    "public_transport": "platform",
    "ref:FR:STIF": "26694",
    "ref:FR:STIF:stop_id": "StopPoint:59:4677688",
    "route_ref": "183;N31",
    "source:wheelchair": "STIF 2019-01",
    "wheelchair": "no"
  }
},
{
  "type": "node",
  "id": 2214925164,
  "lat": 48.7952806,
  "lon": 2.3938635,
  "tags": {
    "bus": "yes",
    "highway": "bus_stop",
    "public_transport": "platform"
  }
},
{
  "type": "node",
  "id": 2274067813,
  "lat": 48.7856207,
  "lon": 2.3918202,
  "tags": {
    "STIF:zone": "3",
    "bus": "yes",
    "highway": "bus_stop",
    "name": "Camille Groult",
    "public_transport": "platform",
    "ref:FR:STIF": "26698",
    "ref:FR:STIF:stop_id": "StopPoint:59:4471753",
    "route_ref": "183;N31",
    "source:wheelchair": "STIF 2019-01",
    "wheelchair": "no"
  }
},
{
  "type": "node",
  "id": 2274067832,
  "lat": 48.8033815,
  "lon": 2.3775257,
  "tags": {
    "STIF:zone": "3",
    "bus": "yes",
    "highway": "bus_stop",
    "name": "Centre Bus de Vitry",
    "public_transport": "platform",
    "ref:FR:STIF": "26691",
    "ref:FR:STIF:stop_id": "StopPoint:59:4471747",
    "route_ref": "183;N31",
    "source:wheelchair": "STIF 2019-01",
    "wheelchair": "no"
  }
},
{
  "type": "node",
  "id": 2274067848,
  "lat": 48.7830964,
  "lon": 2.3935194,
  "tags": {
    "STIF:zone": "3",
    "bus": "yes",
    "highway": "bus_stop",
    "name": "Constant Coquelin",
    "public_transport": "platform",
    "ref:FR:STIF": "41661",
    "ref:FR:STIF:stop_id": "StopPoint:59:4471754",
    "route_ref": "183;N31",
    "source:wheelchair": "STIF 2019-01",
    "wheelchair": "no"
  }
},
{
  "type": "node",
  "id": 2274067853,
  "lat": 48.7831082,
  "lon": 2.3940259,
  "tags": {
    "STIF:zone": "3",
    "bus": "yes",
    "highway": "bus_stop",
    "name": "Constant Coquelin",
    "public_transport": "platform",
    "ref:FR:STIF": "41660",
    "ref:FR:STIF:stop_id": "StopPoint:59:4677698",
    "route_ref": "183;N31",
    "source:wheelchair": "STIF 2019-01",
    "wheelchair": "no"
  }
},
{
  "type": "node",
  "id": 2274067864,
  "lat": 48.7779445,
  "lon": 2.3965728,
  "tags": {
    "STIF:zone": "3",
    "bus": "yes",
    "highway": "bus_stop",
    "name": "Les Plâtrières",
    "public_transport": "platform",
    "ref:FR:STIF": "26699",
    "ref:FR:STIF:stop_id": "StopPoint:59:4471755",
    "route_ref": "183;N31",
    "source:wheelchair": "STIF 2019-01",
    "wheelchair": "no"
  }
},
{
  "type": "node",
  "id": 2274067868,
  "lat": 48.8010197,
  "lon": 2.3793876,
  "tags": {
    "STIF:zone": "3",
    "bus": "yes",
    "highway": "bus_stop",
    "name": "Malassis",
    "public_transport": "platform",
    "ref:FR:STIF": "26692",
    "ref:FR:STIF:stop_id": "StopPoint:59:4471748",
    "route_ref": "183;N31",
    "source:wheelchair": "STIF 2019-01",
    "wheelchair": "no"
  }
},
{
  "type": "node",
  "id": 2337284690,
  "lat": 48.7783180,
  "lon": 2.4049810,
  "tags": {
    "STIF:zone": "3",
    "bus": "yes",
    "highway": "bus_stop",
    "name": "Cité Balzac",
    "public_transport": "platform",
    "ref:FR:STIF": "11231",
    "ref:FR:STIF:stop_id": "StopPoint:59:3785941",
    "route_ref": "182",
    "source:wheelchair": "STIF 2019-01",
    "wheelchair": "yes"
  }
},
{
  "type": "node",
  "id": 2374863818,
  "lat": 48.7863308,
  "lon": 2.4019905,
  "tags": {
    "STIF:zone": "3",
    "bus": "yes",
    "highway": "bus_stop",
    "name": "Paul Froment",
    "public_transport": "platform",
    "ref:FR:STIF": "23370",
    "ref:FR:STIF:stop_id": "StopPoint:59:3785933",
    "route_ref": "182",
    "source:wheelchair": "STIF 2019-01",
    "wheelchair": "yes"
  }
},
{
  "type": "node",
  "id": 2374863846,
  "lat": 48.7864831,
  "lon": 2.4025440,
  "tags": {
    "STIF:zone": "3",
    "bench": "yes",
    "bus": "yes",
    "highway": "bus_stop",
    "name": "Paul Froment",
    "public_transport": "platform",
    "ref:FR:STIF": "27154",
    "ref:FR:STIF:stop_id": "StopPoint:59:3785934",
    "route_ref": "182",
    "shelter": "yes",
    "source:wheelchair": "STIF 2019-01",
    "wheelchair": "yes"
  }
},
{
  "type": "node",
  "id": 2386269005,
  "lat": 48.7865539,
  "lon": 2.4072850,
  "tags": {
    "STIF:zone": "3",
    "bench": "no",
    "bus": "yes",
    "highway": "bus_stop",
    "name": "Jean-Pierre Timbaud",
    "public_transport": "platform",
    "ref:FR:STIF": "472427",
    "ref:FR:STIF:stop_id": "StopPoint:800:8798326R;StopPoint:59:3785936",
    "route_ref": "N133;182",
    "shelter": "no",
    "source:wheelchair": "STIF 2019-01",
    "wheelchair": "yes"
  }
},
{
  "type": "node",
  "id": 2386269008,
  "lat": 48.7869526,
  "lon": 2.4068238,
  "tags": {
    "STIF:zone": "3",
    "bench": "yes",
    "bus": "yes",
    "highway": "bus_stop",
    "name": "Jean-Pierre Timbaud",
    "public_transport": "platform",
    "ref:FR:STIF": "472059",
    "ref:FR:STIF:stop_id": "StopPoint:800:8798326;StopPoint:59:3785935",
    "route_ref": "N133;182",
    "shelter": "yes",
    "source:wheelchair": "STIF 2019-01",
    "wheelchair": "yes"
  }
},
{
  "type": "node",
  "id": 2879008410,
  "lat": 48.8002766,
  "lon": 2.3866165,
  "tags": {
    "STIF:zone": "3",
    "bench": "yes",
    "bus": "yes",
    "highway": "bus_stop",
    "name": "Place de la Liberté",
    "public_transport": "platform",
    "ref:FR:STIF": "23214",
    "ref:FR:STIF:stop_id": "StopPoint:59:4843463",
    "shelter": "yes",
    "source": "survey 01/2018"
  }
},
{
  "type": "node",
  "id": 2958294736,
  "lat": 48.8038579,
  "lon": 2.3843953,
  "tags": {
    "STIF:zone": "3",
    "bench": "yes",
    "bus": "yes",
    "highway": "bus_stop",
    "name": "Solidarité - Amédée Huon",
    "public_transport": "platform",
    "ref:FR:STIF": "23200",
    "ref:FR:STIF:stop_id": "StopPoint:59:4843529",
    "shelter": "yes",
    "source": "survey 01/2018",
    "source:position": "BD Ortho IGN"
  }
},
{
  "type": "node",
  "id": 3228007556,
  "lat": 48.7896035,
  "lon": 2.4027899,
  "tags": {
    "STIF:zone": "3",
    "bus": "yes",
    "highway": "bus_stop",
    "name": "Danielle Casanova",
    "public_transport": "platform",
    "ref:FR:STIF": "11230",
    "ref:FR:STIF:stop_id": "StopPoint:59:3785932",
    "route_ref": "182",
    "shelter": "yes",
    "source:wheelchair": "STIF 2019-01",
    "tactile_paving": "no",
    "wheelchair": "yes"
  }
},
{
  "type": "node",
  "id": 3228007557,
  "lat": 48.7896643,
  "lon": 2.4026647,
  "tags": {
    "STIF:zone": "3",
    "bus": "yes",
    "highway": "bus_stop",
    "name": "Danielle Casanova",
    "public_transport": "platform",
    "ref:FR:STIF": "23373",
    "ref:FR:STIF:stop_id": "StopPoint:59:3785931",
    "route_ref": "182",
    "shelter": "yes",
    "source:wheelchair": "STIF 2019-01",
    "tactile_paving": "no",
    "wheelchair": "yes"
  }
},
{
  "type": "node",
  "id": 3480017862,
  "lat": 48.7723964,
  "lon": 2.3681653,
  "tags": {
    "STIF:zone": "3",
    "bench": "no",
    "bus": "yes",
    "highway": "bus_stop",
    "name": "Vitry-sur-Seine – Moulin Vert",
    "public_transport": "platform",
    "ref:FR:STIF": "40155",
    "ref:FR:STIF:stop_id": "StopPoint:59:4843527",
    "route_ref": "132",
    "shelter": "yes",
    "source": "survey 01/2018"
  }
},
{
  "type": "node",
  "id": 3480017863,
  "lat": 48.7723176,
  "lon": 2.3681327,
  "tags": {
    "STIF:zone": "3",
    "bench": "no",
    "bus": "yes",
    "highway": "bus_stop",
    "name": "Vitry-sur-Seine – Moulin Vert",
    "public_transport": "platform",
    "ref:FR:STIF": "40154",
    "ref:FR:STIF:stop_id": "StopPoint:59:4843526",
    "route_ref": "132",
    "shelter": "no",
    "source": "survey 01/2018",
    "source:wheelchair": "STIF 2019-01",
    "wheelchair": "yes"
  }
},
{
  "type": "node",
  "id": 3583413832,
  "lat": 48.7786353,
  "lon": 2.3965906,
  "tags": {
    "STIF:zone": "3",
    "bus": "yes",
    "highway": "bus_stop",
    "name": "Les Plâtrières",
    "public_transport": "platform",
    "ref:FR:STIF": "26700",
    "ref:FR:STIF:stop_id": "StopPoint:59:4677700",
    "route_ref": "183;N31",
    "source:wheelchair": "STIF 2019-01",
    "wheelchair": "no"
  }
},
{
  "type": "node",
  "id": 3583741651,
  "lat": 48.7858561,
  "lon": 2.3921701,
  "tags": {
    "STIF:zone": "3",
    "bus": "yes",
    "highway": "bus_stop",
    "name": "Camille Groult",
    "public_transport": "platform",
    "ref:FR:STIF": "8159",
    "ref:FR:STIF:stop_id": "StopPoint:59:4677696",
    "route_ref": "183;N31",
    "source:wheelchair": "STIF 2019-01",
    "wheelchair": "no"
  }
},
{
  "type": "node",
  "id": 3889771582,
  "lat": 48.7812470,
  "lon": 2.3727792,
  "tags": {
    "STIF:zone": "3",
    "bus": "yes",
    "highway": "bus_stop",
    "name": "Édouard Tremblay",
    "public_transport": "platform",
    "ref:FR:STIF": "23264",
    "ref:FR:STIF:stop_id": "StopPoint:59:4378366",
    "route_ref": "185"
  }
},
{
  "type": "node",
  "id": 3889771584,
  "lat": 48.7822155,
  "lon": 2.3721248,
  "tags": {
    "STIF:zone": "3",
    "bus": "yes",
    "highway": "bus_stop",
    "name": "Édouard Tremblay",
    "public_transport": "platform",
    "ref:FR:STIF": "23265",
    "ref:FR:STIF:stop_id": "StopPoint:59:6563564",
    "route_ref": "185"
  }
},
{
  "type": "node",
  "id": 3890047092,
  "lat": 48.7795380,
  "lon": 2.3743089,
  "tags": {
    "STIF:zone": "3",
    "bench": "yes",
    "bin": "yes",
    "bus": "yes",
    "highway": "bus_stop",
    "name": "Julian Grimau - Voie Verte",
    "public_transport": "platform",
    "ref:FR:STIF": "23210",
    "ref:FR:STIF:stop_id": "StopPoint:59:4378367",
    "route_ref": "132;185",
    "shelter": "yes",
    "source": "survey 01/2018",
    "source:position": "BD Ortho IGN",
    "tactile_paving": "no"
  }
},
{
  "type": "node",
  "id": 3890047093,
  "lat": 48.7806091,
  "lon": 2.3734458,
  "tags": {
    "STIF:zone": "3",
    "bus": "yes",
    "highway": "bus_stop",
    "name": "Julian Grimau - Voie Verte",
    "public_transport": "platform",
    "ref:FR:STIF": "23215",
    "ref:FR:STIF:stop_id": "StopPoint:59:6563563",
    "route_ref": "185"
  }
},
{
  "type": "node",
  "id": 3890050124,
  "lat": 48.7751465,
  "lon": 2.3738790,
  "tags": {
    "STIF:zone": "3",
    "bench": "yes",
    "bus": "yes",
    "highway": "bus_stop",
    "name": "Camille Risch",
    "public_transport": "platform",
    "ref:FR:STIF": "25203",
    "ref:FR:STIF:stop_id": "StopPoint:59:4378369",
    "route_ref": "132;185",
    "shelter": "yes",
    "source": "survey 01/2018",
    "source:position": "BD Ortho IGN"
  }
},
{
  "type": "node",
  "id": 3890050125,
  "lat": 48.7726904,
  "lon": 2.3767530,
  "tags": {
    "STIF:zone": "3",
    "bus": "yes",
    "highway": "bus_stop",
    "name": "Cité du Moulin Vert",
    "public_transport": "platform",
    "ref:FR:STIF": "37165",
    "ref:FR:STIF:stop_id": "StopPoint:59:4378370",
    "route_ref": "185"
  }
},
{
  "type": "node",
  "id": 3890050126,
  "lat": 48.7751333,
  "lon": 2.3741083,
  "tags": {
    "STIF:zone": "3",
    "bench": "yes",
    "bus": "yes",
    "highway": "bus_stop",
    "name": "Camille Risch",
    "public_transport": "platform",
    "ref:FR:STIF": "25204",
    "ref:FR:STIF:stop_id": "StopPoint:59:6563561",
    "shelter": "yes",
    "source": "survey 01/2018"
  }
},
{
  "type": "node",
  "id": 3890050127,
  "lat": 48.7770405,
  "lon": 2.3765720,
  "tags": {
    "STIF:zone": "3",
    "bench": "yes",
    "bus": "yes",
    "highway": "bus_stop",
    "name": "Paul Armangot",
    "public_transport": "platform",
    "ref:FR:STIF": "7849",
    "ref:FR:STIF:stop_id": "StopPoint:59:4378368",
    "route_ref": "132;185",
    "shelter": "yes",
    "source": "survey 01/2018",
    "source:position": "BD Ortho IGN"
  }
},
{
  "type": "node",
  "id": 4133448499,
  "lat": 48.7993248,
  "lon": 2.3909540,
  "tags": {
    "STIF:zone": "3",
    "bench": "yes",
    "bus": "yes",
    "highway": "bus_stop",
    "name": "Lavoisier - Carrières",
    "public_transport": "platform",
    "ref:FR:STIF": "37410",
    "ref:FR:STIF:stop_id": "StopPoint:59:4843465",
    "shelter": "yes",
    "source": "survey 01/2018",
    "source:position": "BD Ortho IGN"
  }
},
{
  "type": "node",
  "id": 4133601033,
  "lat": 48.8002796,
  "lon": 2.3868913,
  "tags": {
    "STIF:zone": "3",
    "bench": "yes",
    "bus": "yes",
    "highway": "bus_stop",
    "name": "Place de la Liberté",
    "public_transport": "platform",
    "ref:FR:STIF": "23201",
    "ref:FR:STIF:stop_id": "StopPoint:59:4843462",
    "shelter": "yes",
    "source": "survey 01/2018",
    "source:position": "BD Ortho IGN"
  }
},
{
  "type": "node",
  "id": 4321290172,
  "lat": 48.7903718,
  "lon": 2.3844032,
  "tags": {
    "STIF:zone": "3",
    "bus": "yes",
    "highway": "bus_stop",
    "name": "Utrillo",
    "public_transport": "platform",
    "ref:FR:STIF": "413079",
    "ref:FR:STIF:stop_id": "StopPoint:59:4843826",
    "route_ref": "132;180",
    "source:wheelchair": "STIF 2019-01",
    "wheelchair": "yes"
  }
},
{
  "type": "node",
  "id": 4323387887,
  "lat": 48.7855794,
  "lon": 2.3777413,
  "tags": {
    "STIF:zone": "3",
    "bench": "yes",
    "bus": "yes",
    "highway": "bus_stop",
    "name": "Édouard Tremblay",
    "public_transport": "platform",
    "ref:FR:STIF": "23206",
    "ref:FR:STIF:stop_id": "StopPoint:59:4843829",
    "route_ref": "132",
    "shelter": "yes",
    "source": "survey 01/2018",
    "source:wheelchair": "STIF 2019-01",
    "wheelchair": "yes"
  }
},
{
  "type": "node",
  "id": 4328372522,
  "lat": 48.7736939,
  "lon": 2.3722897,
  "tags": {
    "STIF:zone": "3",
    "bench": "yes",
    "bus": "yes",
    "highway": "bus_stop",
    "name": "Cité Jardin",
    "public_transport": "platform",
    "ref:FR:STIF": "40157",
    "ref:FR:STIF:stop_id": "StopPoint:59:4843525",
    "shelter": "yes",
    "source": "survey 01/2018",
    "source:position": "BD Ortho IGN"
  }
},
{
  "type": "node",
  "id": 4330459067,
  "lat": 48.8022601,
  "lon": 2.3974760,
  "tags": {
    "bus": "yes",
    "highway": "bus_stop",
    "name": "Félix Faure",
    "public_transport": "platform"
  }
},
{
  "type": "node",
  "id": 4330833788,
  "lat": 48.7874970,
  "lon": 2.4127770,
  "tags": {
    "bus": "yes",
    "highway": "bus_stop",
    "name": "Rue Tortue",
    "public_transport": "platform"
  }
},
{
  "type": "node",
  "id": 5256692456,
  "lat": 48.7964571,
  "lon": 2.4124249,
  "tags": {
    "STIF:zone": "3",
    "bus": "yes",
    "highway": "bus_stop",
    "name": "Salvador Allende - Edith Cavell",
    "public_transport": "platform",
    "ref:FR:STIF": "461492",
    "ref:FR:STIF:stop_id": "StopPoint:59:3619786",
    "route_ref": "217",
    "source:wheelchair": "STIF 2019-01",
    "wheelchair": "yes"
  }
},
{
  "type": "node",
  "id": 5317040611,
  "lat": 48.7877136,
  "lon": 2.3859705,
  "tags": {
    "STIF:zone": "3",
    "bench": "yes",
    "bin": "yes",
    "bus": "yes",
    "highway": "bus_stop",
    "lit": "yes",
    "name": "Édouard Til",
    "public_transport": "platform",
    "ref:FR:STIF": "413081",
    "ref:FR:STIF:stop_id": "StopPoint:59:7676480",
    "route_ref": "132;180",
    "shelter": "yes",
    "source:wheelchair": "STIF 2019-01",
    "tactile_paving": "no",
    "wheelchair": "yes"
  }
},
{
  "type": "node",
  "id": 5317040613,
  "lat": 48.7896256,
  "lon": 2.3842464,
  "tags": {
    "STIF:zone": "3",
    "bus": "yes",
    "highway": "bus_stop",
    "name": "Utrillo",
    "public_transport": "platform",
    "ref:FR:STIF": "413080",
    "ref:FR:STIF:stop_id": "StopPoint:59:7676479",
    "route_ref": "132;180",
    "source:wheelchair": "STIF 2019-01",
    "wheelchair": "yes"
  }
},
{
  "type": "node",
  "id": 5317040617,
  "lat": 48.7855068,
  "lon": 2.3779426,
  "tags": {
    "STIF:zone": "3",
    "bench": "yes",
    "bus": "yes",
    "highway": "bus_stop",
    "name": "Édouard Tremblay",
    "public_transport": "platform",
    "ref:FR:STIF": "23212",
    "ref:FR:STIF:stop_id": "StopPoint:59:4843515",
    "shelter": "yes",
    "source": "survey 01/2018"
  }
},
{
  "type": "node",
  "id": 5317040619,
  "lat": 48.7829102,
  "lon": 2.3805732,
  "tags": {
    "STIF:zone": "3",
    "bench": "yes",
    "bus": "yes",
    "highway": "bus_stop",
    "name": "Groupe Scolaire Jean-Jacques Rousseau",
    "public_transport": "platform",
    "ref:FR:STIF": "23199",
    "ref:FR:STIF:stop_id": "StopPoint:59:4843517",
    "shelter": "yes",
    "source": "survey 01/2018",
    "source:position": "BD Ortho IGN"
  }
},
{
  "type": "node",
  "id": 5317040921,
  "lat": 48.7800527,
  "lon": 2.3742331,
  "tags": {
    "STIF:zone": "3",
    "bench": "yes",
    "bin": "yes",
    "bus": "yes",
    "highway": "bus_stop",
    "name": "Julian Grimau - Voie Verte",
    "public_transport": "platform",
    "ref:FR:STIF": "23209",
    "ref:FR:STIF:stop_id": "StopPoint:59:4843519",
    "shelter": "yes",
    "source": "survey 01/2018",
    "source:position": "BD Ortho IGN",
    "tactile_paving": "no"
  }
},
{
  "type": "node",
  "id": 5323551108,
  "lat": 48.7734522,
  "lon": 2.3712941,
  "tags": {
    "STIF:zone": "3",
    "bench": "no",
    "bus": "yes",
    "highway": "bus_stop",
    "name": "Cité Jardin",
    "public_transport": "platform",
    "ref:FR:STIF": "40156",
    "ref:FR:STIF:stop_id": "StopPoint:59:4843834",
    "route_ref": "132",
    "shelter": "no",
    "source": "survey 01/2018",
    "source:wheelchair": "STIF 2019-01",
    "wheelchair": "yes"
  }
},
{
  "type": "node",
  "id": 5323551113,
  "lat": 48.7824675,
  "lon": 2.3804612,
  "tags": {
    "STIF:zone": "3",
    "bench": "yes",
    "bus": "yes",
    "highway": "bus_stop",
    "name": "Groupe Scolaire Jean-Jacques Rousseau",
    "public_transport": "platform",
    "ref:FR:STIF": "37167",
    "ref:FR:STIF:stop_id": "StopPoint:59:4843516",
    "route_ref": "132",
    "shelter": "yes",
    "source": "survey 01/2018",
    "source:wheelchair": "STIF 2019-01",
    "wheelchair": "yes"
  }
},
{
  "type": "node",
  "id": 5323551118,
  "lat": 48.7878165,
  "lon": 2.3859845,
  "tags": {
    "STIF:zone": "3",
    "bench": "yes",
    "bin": "yes",
    "bus": "yes",
    "highway": "bus_stop",
    "lit": "yes",
    "name": "Édouard Til",
    "public_transport": "platform",
    "ref:FR:STIF": "23202",
    "ref:FR:STIF:stop_id": "StopPoint:59:4843825",
    "route_ref": "132;180",
    "shelter": "yes",
    "source:wheelchair": "STIF 2019-01",
    "tactile_paving": "no",
    "wheelchair": "yes"
  }
},
{
  "type": "node",
  "id": 5323551524,
  "lat": 48.7987727,
  "lon": 2.3913436,
  "tags": {
    "STIF:zone": "3",
    "bench": "yes",
    "bus": "yes",
    "highway": "bus_stop",
    "name": "Lavoisier - Carrières",
    "public_transport": "platform",
    "ref:FR:STIF": "23211",
    "ref:FR:STIF:stop_id": "StopPoint:59:4843464",
    "shelter": "yes",
    "source": "survey 01/2018",
    "source:position": "BD Ortho IGN"
  }
},
{
  "type": "node",
  "id": 5443966631,
  "lat": 48.7959323,
  "lon": 2.4158962,
  "tags": {
    "STIF:zone": "3",
    "bus": "yes",
    "highway": "bus_stop",
    "name": "Pont de Vitry",
    "public_transport": "platform",
    "ref:FR:STIF": "26793",
    "ref:FR:STIF:stop_id": "StopPoint:59:5688832",
    "route_ref": "9;172;217",
    "shelter": "yes",
    "source:wheelchair": "STIF 2019-01",
    "tactile_paving": "no",
    "wheelchair": "yes"
  }
},
{
  "type": "node",
  "id": 5443966632,
  "lat": 48.7934564,
  "lon": 2.4099890,
  "tags": {
    "STIF:zone": "3",
    "bus": "yes",
    "highway": "bus_stop",
    "name": "Eugène Hénaff",
    "public_transport": "platform",
    "ref:FR:STIF": "415245",
    "ref:FR:STIF:stop_id": "StopPoint:4:97",
    "route_ref": "9"
  }
},
{
  "type": "node",
  "id": 5443966633,
  "lat": 48.7877372,
  "lon": 2.4175755,
  "tags": {
    "STIF:zone": "3",
    "bus": "yes",
    "highway": "bus_stop",
    "name": "Rue des Fusillés",
    "public_transport": "platform",
    "ref:FR:STIF": "415227",
    "ref:FR:STIF:stop_id": "StopPoint:4:92",
    "route_ref": "9"
  }
},
{
  "type": "node",
  "id": 5443966634,
  "lat": 48.7819620,
  "lon": 2.4167410,
  "tags": {
    "STIF:zone": "3",
    "bus": "yes",
    "highway": "bus_stop",
    "name": "Passerelle",
    "public_transport": "platform",
    "ref:FR:STIF": "415234",
    "ref:FR:STIF:stop_id": "StopPoint:4:100",
    "route_ref": "9"
  }
},
{
  "type": "node",
  "id": 5443966636,
  "lat": 48.7958144,
  "lon": 2.4101954,
  "tags": {
    "STIF:zone": "3",
    "bus": "yes",
    "highway": "bus_stop",
    "name": "Charles Heller",
    "public_transport": "platform",
    "ref:FR:STIF": "37277",
    "ref:FR:STIF:stop_id": "StopPoint:59:5688831",
    "route_ref": "9;172",
    "source:wheelchair": "STIF 2019-01",
    "wheelchair": "yes"
  }
},
{
  "type": "node",
  "id": 5443966637,
  "lat": 48.7878480,
  "lon": 2.4176890,
  "tags": {
    "STIF:zone": "3",
    "bus": "yes",
    "highway": "bus_stop",
    "name": "Rue des Fusillés",
    "public_transport": "platform",
    "ref:FR:STIF": "415230",
    "ref:FR:STIF:stop_id": "StopPoint:4:93",
    "route_ref": "9"
  }
},
{
  "type": "node",
  "id": 5443966638,
  "lat": 48.7825720,
  "lon": 2.4175040,
  "tags": {
    "STIF:zone": "3",
    "bus": "yes",
    "highway": "bus_stop",
    "name": "Passerelle",
    "public_transport": "platform",
    "ref:FR:STIF": "415237",
    "ref:FR:STIF:stop_id": "StopPoint:4:101",
    "route_ref": "9"
  }
},
{
  "type": "node",
  "id": 5443966640,
  "lat": 48.7956565,
  "lon": 2.4095801,
  "tags": {
    "STIF:zone": "3",
    "bus": "yes",
    "highway": "bus_stop",
    "name": "Charles Heller",
    "public_transport": "platform",
    "ref:FR:STIF": "37278",
    "ref:FR:STIF:stop_id": "StopPoint:59:5688830",
    "route_ref": "9;172",
    "shelter": "yes",
    "source:wheelchair": "STIF 2019-01",
    "wheelchair": "yes"
  }
},
{
  "type": "node",
  "id": 5443966643,
  "lat": 48.7882833,
  "lon": 2.4120482,
  "tags": {
    "STIF:zone": "3",
    "bus": "yes",
    "highway": "bus_stop",
    "name": "Rue Tortue",
    "public_transport": "platform",
    "ref:FR:STIF": "415223",
    "ref:FR:STIF:stop_id": "StopPoint:4:104",
    "route_ref": "9",
    "source": "STIF - 12/2016"
  }
},
{
  "type": "node",
  "id": 5443966644,
  "lat": 48.7952885,
  "lon": 2.4172341,
  "tags": {
    "STIF:zone": "3",
    "bench": "yes",
    "bin": "no",
    "bus": "yes",
    "highway": "bus_stop",
    "lit": "no",
    "name": "Centre Commercial Pont de Vitry",
    "public_transport": "platform",
    "ref:FR:STIF": "415248",
    "ref:FR:STIF:stop_id": "StopPoint:4:91",
    "route_ref": "9",
    "shelter": "yes",
    "tactile_paving": "no"
  }
},
{
  "type": "node",
  "id": 5443966645,
  "lat": 48.7781062,
  "lon": 2.4140775,
  "tags": {
    "STIF:zone": "3",
    "bench": "no",
    "bin": "no",
    "bus": "yes",
    "highway": "bus_stop",
    "lit": "yes",
    "name": "Jules Guesde",
    "public_transport": "platform",
    "ref:FR:STIF": "415241",
    "ref:FR:STIF:stop_id": "StopPoint:4:98",
    "route_ref": "9",
    "shelter": "yes",
    "tactile_paving": "no"
  }
},
{
  "type": "node",
  "id": 5443966647,
  "lat": 48.7885368,
  "lon": 2.4120947,
  "tags": {
    "STIF:zone": "3",
    "bus": "yes",
    "highway": "bus_stop",
    "name": "Rue Tortue",
    "public_transport": "platform",
    "ref:FR:STIF": "415226",
    "ref:FR:STIF:stop_id": "StopPoint:4:105",
    "route_ref": "9",
    "source": "STIF - 12/2016"
  }
},
{
  "type": "node",
  "id": 5443966649,
  "lat": 48.7784130,
  "lon": 2.4144780,
  "tags": {
    "STIF:zone": "3",
    "bench": "no",
    "bin": "no",
    "bus": "yes",
    "highway": "bus_stop",
    "lit": "yes",
    "name": "Jules Guesde",
    "public_transport": "platform",
    "ref:FR:STIF": "415238",
    "ref:FR:STIF:stop_id": "StopPoint:4:99",
    "route_ref": "9",
    "shelter": "no",
    "tactile_paving": "no"
  }
},
{
  "type": "node",
  "id": 5443966652,
  "lat": 48.7962799,
  "lon": 2.4158022,
  "tags": {
    "STIF:zone": "3",
    "bus": "yes",
    "highway": "bus_stop",
    "name": "Pont de Vitry",
    "public_transport": "platform",
    "ref:FR:STIF": "37275",
    "ref:FR:STIF:stop_id": "StopPoint:59:5688833",
    "route_ref": "9;172;217",
    "shelter": "yes",
    "source:wheelchair": "STIF 2019-01",
    "wheelchair": "yes"
  }
},
{
  "type": "node",
  "id": 5443966654,
  "lat": 48.7922028,
  "lon": 2.4105025,
  "tags": {
    "STIF:zone": "3",
    "bus": "yes",
    "highway": "bus_stop",
    "name": "Eugène Hénaff",
    "public_transport": "platform",
    "ref:FR:STIF": "415242",
    "ref:FR:STIF:stop_id": "StopPoint:4:96",
    "route_ref": "9"
  }
},
{
  "type": "node",
  "id": 5626224936,
  "lat": 48.7927344,
  "lon": 2.3924491,
  "tags": {
    "STIF:zone": "3",
    "bench": "yes",
    "bin": "yes",
    "bus": "yes",
    "highway": "bus_stop",
    "name": "Exploradome",
    "public_transport": "platform",
    "ref:FR:STIF": "23216",
    "ref:FR:STIF:stop_id": "StopPoint:59:5688827",
    "route_ref": "172",
    "shelter": "yes",
    "source:wheelchair": "STIF 2019-01",
    "wheelchair": "yes"
  }
},
{
  "type": "node",
  "id": 5632362296,
  "lat": 48.7779580,
  "lon": 2.3676270,
  "tags": {
    "STIF:zone": "3",
    "bus": "yes",
    "highway": "bus_stop",
    "name": "École Départementale",
    "public_transport": "platform",
    "ref:FR:STIF": "39784",
    "ref:FR:STIF:stop_id": "StopPoint:59:7153155",
    "route_ref": "N22",
    "source:wheelchair": "STIF 2019-01",
    "wheelchair": "no",
    "wikidata": "Q56869349"
  }
},
{
  "type": "node",
  "id": 5894775089,
  "lat": 48.8009850,
  "lon": 2.4019638,
  "tags": {
    "STIF:zone": "3",
    "bench": "yes",
    "bin": "yes",
    "bus": "yes",
    "highway": "bus_stop",
    "name": "Vitry-sur-Seine RER",
    "public_transport": "platform",
    "ref:FR:STIF": "37195",
    "ref:FR:STIF:stop_id": "StopPoint:59:7676486",
    "route_ref": "180",
    "shelter": "yes",
    "source:wheelchair": "STIF 2019-01",
    "tactile_paving": "no",
    "wheelchair": "no"
  }
},
{
  "type": "node",
  "id": 5894775091,
  "lat": 48.8010534,
  "lon": 2.4022422,
  "tags": {
    "STIF:zone": "3",
    "bench": "no",
    "bin": "no",
    "bus": "yes",
    "highway": "bus_stop",
    "name": "Vitry-sur-Seine RER",
    "public_transport": "platform",
    "ref:FR:STIF": "22465",
    "ref:FR:STIF:stop_id": "StopPoint:59:3619782",
    "route_ref": "217",
    "shelter": "no",
    "source:wheelchair": "STIF 2019-01",
    "tactile_paving": "no",
    "wheelchair": "yes"
  }
},
{
  "type": "node",
  "id": 5949552599,
  "lat": 48.7728430,
  "lon": 2.3679623,
  "tags": {
    "STIF:zone": "3",
    "bus": "yes",
    "highway": "bus_stop",
    "name": "Moulin Vert",
    "public_transport": "platform",
    "ref:FR:STIF": "40154",
    "route_ref": "N22"
  }
},
{
  "type": "node",
  "id": 6163063303,
  "lat": 48.7997655,
  "lon": 2.4007068,
  "tags": {
    "STIF:zone": "3",
    "bench": "yes",
    "bin": "yes",
    "bus": "yes",
    "highway": "bus_stop",
    "lit": "yes",
    "name": "Vitry sur Seine Noctilien",
    "public_transport": "platform",
    "ref:FR:STIF": "411303",
    "ref:FR:STIF:stop_id": "StopPoint:800:8759064R",
    "route_ref": "N133",
    "shelter": "yes",
    "tactile_paving": "no"
  }
},
{
  "type": "node",
  "id": 6280443244,
  "lat": 48.7804896,
  "lon": 2.4036112,
  "tags": {
    "STIF:zone": "3",
    "bus": "yes",
    "highway": "bus_stop",
    "name": "Anselme Rondenay",
    "public_transport": "platform",
    "ref:FR:STIF": "36154",
    "ref:FR:STIF:stop_id": "StopPoint:59:3785940",
    "route_ref": "182",
    "source:wheelchair": "STIF 2019-01",
    "wheelchair": "yes"
  }
},
{
  "type": "node",
  "id": 6280443245,
  "lat": 48.7784389,
  "lon": 2.4050839,
  "tags": {
    "STIF:zone": "3",
    "bus": "yes",
    "highway": "bus_stop",
    "name": "Cité Balzac",
    "public_transport": "platform",
    "ref:FR:STIF": "36152",
    "ref:FR:STIF:stop_id": "StopPoint:59:3785942",
    "route_ref": "182",
    "source:wheelchair": "STIF 2019-01",
    "wheelchair": "yes"
  }
},
{
  "type": "node",
  "id": 6280443247,
  "lat": 48.7756195,
  "lon": 2.4093326,
  "tags": {
    "STIF:zone": "3",
    "bus": "yes",
    "highway": "bus_stop",
    "name": "Léon Geffroy",
    "public_transport": "platform",
    "ref:FR:RATP": "11341722",
    "ref:FR:STIF": "30142",
    "ref:FR:STIF:stop_id": "StopPoint:59:3785946",
    "route_ref": "182",
    "shelter": "yes",
    "source": "RATP - 07/2012",
    "source:wheelchair": "STIF 2019-01",
    "wheelchair": "yes"
  }
},
{
  "type": "node",
  "id": 6280443256,
  "lat": 48.7759036,
  "lon": 2.4089927,
  "tags": {
    "STIF:zone": "3",
    "bus": "yes",
    "highway": "bus_stop",
    "name": "Léon Geffroy",
    "public_transport": "platform",
    "ref:FR:STIF": "23374",
    "ref:FR:STIF:stop_id": "StopPoint:59:3785945",
    "route_ref": "182",
    "source:wheelchair": "STIF 2019-01",
    "wheelchair": "yes"
  }
},
{
  "type": "node",
  "id": 6280443259,
  "lat": 48.7806887,
  "lon": 2.4033115,
  "tags": {
    "STIF:zone": "3",
    "bus": "yes",
    "highway": "bus_stop",
    "name": "Anselme Rondenay",
    "public_transport": "platform",
    "ref:FR:STIF": "23371",
    "ref:FR:STIF:stop_id": "StopPoint:59:3785939",
    "route_ref": "182",
    "source:wheelchair": "STIF 2019-01",
    "wheelchair": "yes"
  }
},
{
  "type": "node",
  "id": 6280443267,
  "lat": 48.8022590,
  "lon": 2.3974790,
  "tags": {
    "STIF:zone": "3",
    "bus": "yes",
    "highway": "bus_stop",
    "name": "Félix Faure",
    "public_transport": "platform",
    "ref:FR:STIF": "23372",
    "ref:FR:STIF:stop_id": "StopPoint:59:3785924",
    "route_ref": "182",
    "source:wheelchair": "STIF 2019-01",
    "wheelchair": "yes"
  }
},
{
  "type": "node",
  "id": 6288567569,
  "lat": 48.8049274,
  "lon": 2.4078123,
  "tags": {
    "STIF:zone": "3",
    "bench": "no",
    "bin": "no",
    "bus": "yes",
    "highway": "bus_stop",
    "lit": "no",
    "name": "Vitry-sur-Seine - Duras",
    "public_transport": "platform",
    "ref:FR:STIF": "463619",
    "ref:FR:STIF:stop_id": "StopPoint:59:7898976",
    "route_ref": "25",
    "shelter": "no",
    "short_name": "Duras",
    "source": "survey 2019-05",
    "source:wheelchair": "STIF 2019-01",
    "tactile_paving": "no",
    "wheelchair": "no"
  }
},
{
  "type": "node",
  "id": 6335943760,
  "lat": 48.7891848,
  "lon": 2.3886908,
  "tags": {
    "STIF:zone": "3",
    "bench": "yes",
    "bin": "yes",
    "bus": "yes",
    "disused:highway": "bus_stop",
    "disused:public_transport": "platform",
    "highway": "bus_stop",
    "name": "Hôtel de Ville de Vitry",
    "public_transport": "platform",
    "ref:FR:STIF": "36141",
    "route_ref": "132;180",
    "shelter": "yes",
    "source": "survey 01/2018",
    "tactile_paving": "no"
  }
},
{
  "type": "node",
  "id": 6669355403,
  "lat": 48.8011008,
  "lon": 2.4022776,
  "tags": {
    "STIF:zone": "3",
    "bench": "no",
    "bin": "no",
    "bus": "yes",
    "highway": "bus_stop",
    "lit": "yes",
    "name": "Vitry-sur-Seine RER",
    "pole": "no",
    "public_transport": "platform",
    "route_ref": "217",
    "shelter": "no",
    "tactile_paving": "no"
  }
},
{
  "type": "node",
  "id": 7312855447,
  "lat": 48.8022978,
  "lon": 2.4109597,
  "tags": {
    "bench": "yes",
    "bin": "no",
    "bus": "yes",
    "highway": "bus_stop",
    "lit": "no",
    "name": "Waldeck Rousseau-Jules Guesde",
    "public_transport": "platform",
    "route_ref": "217",
    "shelter": "yes",
    "tactile_paving": "no"
  }
},
{
  "type": "node",
  "id": 7312855448,
  "lat": 48.8047084,
  "lon": 2.4083915,
  "tags": {
    "bench": "yes",
    "bin": "no",
    "bus": "yes",
    "highway": "bus_stop",
    "lit": "no",
    "name": "Port à l'Anglais-Jules Guesde",
    "public_transport": "platform",
    "route_ref": "217",
    "shelter": "yes",
    "tactile_paving": "no"
  }
}

  ]
}
