{
  "version": 0.6,
  "generator": "Overpass API 0.7.57 93a4d346",
  "osm3s": {
    "timestamp_osm_base": "2022-02-13T13:29:38Z",
    "timestamp_areas_base": "2022-02-13T06:31:57Z",
    "copyright": "The data included in this document is from www.openstreetmap.org. The data is made available under ODbL."
  },
  "elements": [

{
  "type": "node",
  "id": 796105883,
  "lat": 47.1243055,
  "lon": 2.4037185,
  "tags": {
    "advertising": "no",
    "bench": "no",
    "bus": "yes",
    "covered": "no",
    "highway": "bus_stop",
    "name": "14 Juillet",
    "public_transport": "platform",
    "route_ref": "3-d1-VitaBus Soir",
    "shelter": "no",
    "tactile_paving": "no",
    "website": "https://www.agglobus.com/",
    "wheelchair": "yes"
  }
},
{
  "type": "node",
  "id": 797329823,
  "lat": 47.1002853,
  "lon": 2.3965384,
  "tags": {
    "advertising": "poster_box",
    "bench": "yes",
    "bus": "yes",
    "covered": "no",
    "highway": "bus_stop",
    "name": "Franklin",
    "public_transport": "platform",
    "route_ref": "A-7-d1",
    "shelter": "yes",
    "tactile_paving": "yes",
    "website": "https://www.agglobus.com/",
    "wheelchair": "yes"
  }
},
{
  "type": "node",
  "id": 797329872,
  "lat": 47.1000321,
  "lon": 2.3960306,
  "tags": {
    "advertising": "no",
    "bench": "yes",
    "bus": "yes",
    "covered": "no",
    "highway": "bus_stop",
    "name": "Franklin",
    "public_transport": "platform",
    "route_ref": "A-7-d1",
    "shelter": "no",
    "tactile_paving": "no",
    "website": "https://www.agglobus.com/",
    "wheelchair": "yes"
  }
},
{
  "type": "node",
  "id": 899219029,
  "lat": 47.1248091,
  "lon": 2.3936905,
  "tags": {
    "advertising": "no",
    "bench": "yes",
    "bus": "yes",
    "covered": "no",
    "highway": "bus_stop",
    "name": "Racines",
    "public_transport": "platform",
    "route_ref": "3-d1",
    "shelter": "yes",
    "tactile_paving": "no",
    "website": "https://www.agglobus.com/",
    "wheelchair": "limited",
    "wheelchair:description": "Trottoir bas (voire inexistant), mais tous les bus (sauf cas très exceptionnels) sont équipés au centre d'une rampe électrique."
  }
},
{
  "type": "node",
  "id": 983511750,
  "lat": 47.0586762,
  "lon": 2.3946923,
  "tags": {
    "advertising": "no",
    "bench": "yes",
    "bus": "yes",
    "covered": "no",
    "highway": "bus_stop",
    "name": "Base de Voile",
    "public_transport": "platform",
    "route_ref": "3-d3",
    "shelter": "no",
    "tactile_paving": "no",
    "website": "https://www.agglobus.com/",
    "wheelchair": "limited",
    "wheelchair:description": "Trottoir bas (voire inexistant), mais tous les bus (sauf cas très exceptionnels) sont équipés au centre d'une rampe électrique."
  }
},
{
  "type": "node",
  "id": 2949997241,
  "lat": 47.0965677,
  "lon": 2.3950364,
  "tags": {
    "advertising": "poster_box",
    "bench": "yes",
    "bus": "yes",
    "covered": "no",
    "highway": "bus_stop",
    "name": "Ampère",
    "public_transport": "platform",
    "route_ref": "A-d1",
    "shelter": "yes",
    "tactile_paving": "yes",
    "website": "https://www.agglobus.com/",
    "wheelchair": "yes"
  }
},
{
  "type": "node",
  "id": 2949997242,
  "lat": 47.0971572,
  "lon": 2.3951344,
  "tags": {
    "advertising": "no",
    "bench": "no",
    "bus": "yes",
    "covered": "no",
    "highway": "bus_stop",
    "name": "Ampère",
    "public_transport": "platform",
    "route_ref": "A-d1",
    "shelter": "no",
    "tactile_paving": "no",
    "website": "https://www.agglobus.com/",
    "wheelchair": "yes"
  }
},
{
  "type": "node",
  "id": 2949997252,
  "lat": 47.0784329,
  "lon": 2.3992555,
  "tags": {
    "advertising": "no",
    "bench": "yes",
    "bus": "yes",
    "covered": "no",
    "highway": "bus_stop",
    "name": "Europe - André Malraux",
    "public_transport": "platform",
    "route_ref": "A-B-C-12-15-Navette Avaricum-d1-d2",
    "shelter": "no",
    "tactile_paving": "no",
    "website": "https://www.agglobus.com/",
    "wheelchair": "limited",
    "wheelchair:description": "Trottoir bas (voire inexistant), mais tous les bus (sauf cas très exceptionnels) sont équipés au centre d'une rampe électrique."
  }
},
{
  "type": "node",
  "id": 2949997259,
  "lat": 47.0754473,
  "lon": 2.4065169,
  "tags": {
    "advertising": "poster_box",
    "bench": "yes",
    "bus": "yes",
    "covered": "no",
    "highway": "bus_stop",
    "name": "Foch",
    "public_transport": "platform",
    "route_ref": "A-B-C-7-d1-d2",
    "shelter": "yes",
    "tactile_paving": "no",
    "website": "https://www.agglobus.com/",
    "wheelchair": "limited",
    "wheelchair:description": "Trottoir bas (voire inexistant), mais tous les bus (sauf cas très exceptionnels) sont équipés au centre d'une rampe électrique."
  }
},
{
  "type": "node",
  "id": 2949997261,
  "lat": 47.0733579,
  "lon": 2.4097339,
  "tags": {
    "advertising": "poster_box",
    "bench": "yes",
    "bus": "yes",
    "covered": "no",
    "highway": "bus_stop",
    "name": "Jacques Cœur",
    "public_transport": "platform",
    "route_ref": "A-B-C-7-d1-d2-VitaBus Soir",
    "shelter": "yes",
    "tactile_paving": "yes",
    "website": "https://www.agglobus.com/",
    "wheelchair": "yes"
  }
},
{
  "type": "node",
  "id": 2949997262,
  "lat": 47.0736739,
  "lon": 2.4095775,
  "tags": {
    "advertising": "no",
    "bench": "yes",
    "bus": "yes",
    "covered": "no",
    "highway": "bus_stop",
    "name": "Jacques Cœur",
    "public_transport": "platform",
    "route_ref": "A-B-C-7-d1-d2-VitaBus Soir",
    "shelter": "yes",
    "tactile_paving": "no",
    "website": "https://www.agglobus.com/",
    "wheelchair": "yes"
  }
},
{
  "type": "node",
  "id": 2949997263,
  "lat": 47.0712668,
  "lon": 2.4124243,
  "tags": {
    "advertising": "poster_box",
    "bench": "yes",
    "bus": "yes",
    "covered": "no",
    "highway": "bus_stop",
    "name": "Parc à Fourrages",
    "public_transport": "platform",
    "route_ref": "A-7-d2",
    "shelter": "yes",
    "tactile_paving": "yes",
    "website": "https://www.agglobus.com/",
    "wheelchair": "yes"
  }
},
{
  "type": "node",
  "id": 2949997264,
  "lat": 47.0717541,
  "lon": 2.4116158,
  "tags": {
    "advertising": "no",
    "bench": "no",
    "bus": "yes",
    "covered": "no",
    "highway": "bus_stop",
    "name": "Parc à Fourrages",
    "public_transport": "platform",
    "route_ref": "A-7-d2",
    "shelter": "no",
    "tactile_paving": "yes",
    "website": "https://www.agglobus.com/",
    "wheelchair": "yes"
  }
},
{
  "type": "node",
  "id": 2949997277,
  "lat": 47.0609881,
  "lon": 2.4005203,
  "tags": {
    "advertising": "no",
    "bench": "yes",
    "bus": "yes",
    "covered": "no",
    "highway": "bus_stop",
    "name": "Lac",
    "public_transport": "platform",
    "route_ref": "A-d2",
    "shelter": "yes",
    "tactile_paving": "yes",
    "website": "https://www.agglobus.com/",
    "wheelchair": "yes"
  }
},
{
  "type": "node",
  "id": 2949997278,
  "lat": 47.0601339,
  "lon": 2.4020378,
  "tags": {
    "advertising": "no",
    "bench": "no",
    "bus": "yes",
    "covered": "no",
    "highway": "bus_stop",
    "name": "Lac",
    "public_transport": "platform",
    "route_ref": "A-d2",
    "shelter": "no",
    "tactile_paving": "yes",
    "website": "https://www.agglobus.com/",
    "wheelchair": "yes"
  }
},
{
  "type": "node",
  "id": 2963656025,
  "lat": 47.0916651,
  "lon": 2.3990008,
  "tags": {
    "advertising": "poster_box",
    "bench": "yes",
    "bus": "yes",
    "covered": "no",
    "highway": "bus_stop",
    "name": "Centre Nautique",
    "public_transport": "platform",
    "route_ref": "4-d5",
    "shelter": "yes",
    "tactile_paving": "no",
    "website": "https://www.agglobus.com/",
    "wheelchair": "yes"
  }
},
{
  "type": "node",
  "id": 2963656026,
  "lat": 47.0918600,
  "lon": 2.3988442,
  "tags": {
    "advertising": "poster_box",
    "bench": "yes",
    "bus": "yes",
    "covered": "no",
    "highway": "bus_stop",
    "name": "Centre Nautique",
    "public_transport": "platform",
    "route_ref": "4-d5",
    "shelter": "yes",
    "tactile_paving": "no",
    "website": "https://www.agglobus.com/",
    "wheelchair": "limited",
    "wheelchair:description": "Trottoir bas (voire inexistant), mais tous les bus (sauf cas très exceptionnels) sont équipés au centre d'une rampe électrique."
  }
},
{
  "type": "node",
  "id": 2989322553,
  "lat": 47.0931272,
  "lon": 2.3993536,
  "tags": {
    "advertising": "no",
    "bench": "no",
    "bin": "no",
    "bus": "yes",
    "covered": "no",
    "highway": "bus_stop",
    "name": "Pierre Semard",
    "public_transport": "platform",
    "route_ref": "3-4-d4",
    "shelter": "no",
    "tactile_paving": "no",
    "website": "https://www.agglobus.com/",
    "wheelchair": "limited",
    "wheelchair:description": "Trottoir bas (voire inexistant), mais tous les bus (sauf cas très exceptionnels) sont équipés au centre d'une rampe électrique."
  }
},
{
  "type": "node",
  "id": 3154128379,
  "lat": 47.0868136,
  "lon": 2.3944403,
  "tags": {
    "advertising": "poster_box",
    "bench": "yes",
    "bus": "yes",
    "covered": "no",
    "highway": "bus_stop",
    "name": "Avaricum",
    "public_transport": "platform",
    "route_ref": "3-4-10-12-15-Navette Avaricum",
    "shelter": "yes",
    "tactile_paving": "yes",
    "website": "https://www.agglobus.com/",
    "wheelchair": "yes"
  }
},
{
  "type": "node",
  "id": 3625956854,
  "lat": 47.0880941,
  "lon": 2.3969846,
  "tags": {
    "advertising": "poster_box",
    "bench": "yes",
    "bus": "yes",
    "covered": "no",
    "highway": "bus_stop",
    "name": "Parmentier",
    "public_transport": "platform",
    "route_ref": "3-4",
    "shelter": "yes",
    "tactile_paving": "yes",
    "website": "https://www.agglobus.com/",
    "wheelchair": "yes"
  }
},
{
  "type": "node",
  "id": 3625956857,
  "lat": 47.0858214,
  "lon": 2.4003483,
  "tags": {
    "advertising": "no",
    "bench": "no",
    "bus": "yes",
    "covered": "no",
    "highway": "bus_stop",
    "name": "Saint-Bonnet",
    "public_transport": "platform",
    "route_ref": "4-12-15-Navette Avaricum",
    "shelter": "no",
    "tactile_paving": "yes",
    "website": "https://www.agglobus.com/",
    "wheelchair": "yes"
  }
},
{
  "type": "node",
  "id": 3632079994,
  "lat": 47.0905730,
  "lon": 2.4016811,
  "tags": {
    "advertising": "no",
    "bench": "no",
    "bus": "yes",
    "covered": "no",
    "highway": "bus_stop",
    "name": "Beauvoir",
    "public_transport": "platform",
    "route_ref": "10",
    "shelter": "no",
    "tactile_paving": "no",
    "website": "https://www.agglobus.com/",
    "wheelchair": "limited",
    "wheelchair:description": "Trottoir bas (voire inexistant), mais tous les bus (sauf cas très exceptionnels) sont équipés au centre d'une rampe électrique."
  }
},
{
  "type": "node",
  "id": 3632080001,
  "lat": 47.0928672,
  "lon": 2.4029054,
  "tags": {
    "advertising": "no",
    "bench": "no",
    "bus": "yes",
    "covered": "no",
    "highway": "bus_stop",
    "name": "Marx Dormoy",
    "public_transport": "platform",
    "route_ref": "10",
    "shelter": "no",
    "tactile_paving": "no",
    "website": "https://www.agglobus.com/",
    "wheelchair": "limited",
    "wheelchair:description": "Trottoir bas (voire inexistant), mais tous les bus (sauf cas très exceptionnels) sont équipés au centre d'une rampe électrique."
  }
},
{
  "type": "node",
  "id": 3632214812,
  "lat": 47.0590101,
  "lon": 2.3906219,
  "tags": {
    "advertising": "no",
    "bench": "no",
    "bus": "yes",
    "covered": "no",
    "highway": "bus_stop",
    "name": "Archives",
    "public_transport": "platform",
    "route_ref": "3-d3",
    "shelter": "no",
    "tactile_paving": "no",
    "website": "https://www.agglobus.com/",
    "wheelchair": "limited",
    "wheelchair:description": "Trottoir bas (voire inexistant), mais tous les bus (sauf cas très exceptionnels) sont équipés au centre d'une rampe électrique."
  }
},
{
  "type": "node",
  "id": 3632214813,
  "lat": 47.0741084,
  "lon": 2.3891954,
  "tags": {
    "advertising": "no",
    "bench": "yes",
    "bus": "yes",
    "covered": "no",
    "highway": "bus_stop",
    "name": "Barbès",
    "public_transport": "platform",
    "route_ref": "3-d3",
    "shelter": "no",
    "tactile_paving": "yes",
    "website": "https://www.agglobus.com/",
    "wheelchair": "yes"
  }
},
{
  "type": "node",
  "id": 3632214816,
  "lat": 47.0719396,
  "lon": 2.3886037,
  "tags": {
    "advertising": "no",
    "bench": "no",
    "bus": "yes",
    "covered": "no",
    "highway": "bus_stop",
    "name": "Beugnon",
    "public_transport": "platform",
    "route_ref": "3-d3",
    "shelter": "no",
    "tactile_paving": "no",
    "website": "https://www.agglobus.com/",
    "wheelchair": "limited",
    "wheelchair:description": "Trottoir bas (voire inexistant), mais tous les bus (sauf cas très exceptionnels) sont équipés au centre d'une rampe électrique."
  }
},
{
  "type": "node",
  "id": 3632214825,
  "lat": 47.0723047,
  "lon": 2.3795427,
  "tags": {
    "advertising": "no",
    "bench": "yes",
    "bus": "yes",
    "covered": "yes",
    "highway": "bus_stop",
    "name": "Goulevents",
    "public_transport": "platform",
    "route_ref": "4;8;d4",
    "shelter": "no",
    "tactile_paving": "yes",
    "website": "https://www.agglobus.com/",
    "wheelchair": "yes"
  }
},
{
  "type": "node",
  "id": 3632214826,
  "lat": 47.0725117,
  "lon": 2.3800150,
  "tags": {
    "advertising": "poster_box",
    "bench": "yes",
    "bus": "yes",
    "covered": "no",
    "highway": "bus_stop",
    "name": "Goulevents",
    "public_transport": "platform",
    "route_ref": "4-8-d4",
    "shelter": "yes",
    "tactile_paving": "yes",
    "website": "https://www.agglobus.com/",
    "wheelchair": "yes"
  }
},
{
  "type": "node",
  "id": 3632214829,
  "lat": 47.0662560,
  "lon": 2.3780159,
  "tags": {
    "advertising": "no",
    "bench": "yes",
    "bus": "yes",
    "covered": "no",
    "highway": "bus_stop",
    "name": "Guynemer",
    "public_transport": "platform",
    "route_ref": "4-d4",
    "shelter": "yes",
    "tactile_paving": "yes",
    "website": "https://www.agglobus.com/",
    "wheelchair": "yes"
  }
},
{
  "type": "node",
  "id": 3632214830,
  "lat": 47.0667677,
  "lon": 2.3773780,
  "tags": {
    "advertising": "no",
    "bench": "no",
    "bus": "yes",
    "covered": "no",
    "highway": "bus_stop",
    "name": "Guynemer",
    "public_transport": "platform",
    "route_ref": "4-d4",
    "shelter": "no",
    "tactile_paving": "yes",
    "website": "https://www.agglobus.com/",
    "wheelchair": "yes"
  }
},
{
  "type": "node",
  "id": 3632214835,
  "lat": 47.0772560,
  "lon": 2.3869652,
  "tags": {
    "advertising": "no",
    "bench": "no",
    "bus": "yes",
    "covered": "no",
    "highway": "bus_stop",
    "name": "Jean-Jacques Rousseau",
    "public_transport": "platform",
    "route_ref": "4",
    "shelter": "no",
    "tactile_paving": "yes",
    "website": "https://www.agglobus.com/",
    "wheelchair": "yes"
  }
},
{
  "type": "node",
  "id": 3632214837,
  "lat": 47.0686256,
  "lon": 2.3876648,
  "tags": {
    "advertising": "no",
    "bench": "no",
    "bus": "yes",
    "covered": "no",
    "highway": "bus_stop",
    "name": "Jules Guesde",
    "public_transport": "platform",
    "route_ref": "3-13-d3",
    "shelter": "no",
    "tactile_paving": "no",
    "website": "https://www.agglobus.com/",
    "wheelchair": "yes"
  }
},
{
  "type": "node",
  "id": 3632214838,
  "lat": 47.0770452,
  "lon": 2.3900029,
  "tags": {
    "advertising": "no",
    "bench": "yes",
    "bus": "yes",
    "covered": "no",
    "highway": "bus_stop",
    "name": "Théophile Lamy",
    "public_transport": "platform",
    "route_ref": "3-d3",
    "shelter": "no",
    "tactile_paving": "yes",
    "website": "https://www.agglobus.com/",
    "wheelchair": "yes"
  }
},
{
  "type": "node",
  "id": 3632214840,
  "lat": 47.0713839,
  "lon": 2.3782424,
  "tags": {
    "advertising": "no",
    "bench": "yes",
    "bus": "yes",
    "covered": "no",
    "highway": "bus_stop",
    "name": "Bellevue",
    "public_transport": "platform",
    "route_ref": "4;8;d4",
    "shelter": "no",
    "tactile_paving": "yes",
    "website": "https://www.agglobus.com/",
    "wheelchair": "yes"
  }
},
{
  "type": "node",
  "id": 3632214841,
  "lat": 47.0716093,
  "lon": 2.3787257,
  "tags": {
    "advertising": "poster_box",
    "bench": "yes",
    "bus": "yes",
    "covered": "no",
    "highway": "bus_stop",
    "name": "Bellevue",
    "public_transport": "platform",
    "route_ref": "4-8-d4",
    "shelter": "yes",
    "tactile_paving": "yes",
    "website": "https://www.agglobus.com/",
    "wheelchair": "yes"
  }
},
{
  "type": "node",
  "id": 3632214843,
  "lat": 47.0612924,
  "lon": 2.3859996,
  "tags": {
    "advertising": "no",
    "bench": "yes",
    "bus": "yes",
    "covered": "no",
    "highway": "bus_stop",
    "name": "Les Ormeaux",
    "public_transport": "platform",
    "route_ref": "3-d3",
    "shelter": "yes",
    "tactile_paving": "no",
    "website": "https://www.agglobus.com/",
    "wheelchair": "limited",
    "wheelchair:description": "Trottoir bas (voire inexistant), mais tous les bus (sauf cas très exceptionnels) sont équipés au centre d'une rampe électrique."
  }
},
{
  "type": "node",
  "id": 3632214854,
  "lat": 47.0746817,
  "lon": 2.3831740,
  "tags": {
    "advertising": "poster_box",
    "bench": "yes",
    "bus": "yes",
    "covered": "no",
    "highway": "bus_stop",
    "name": "Saint-Henri",
    "public_transport": "platform",
    "route_ref": "4-8-d4",
    "shelter": "yes",
    "tactile_paving": "yes",
    "website": "https://www.agglobus.com/",
    "wheelchair": "yes"
  }
},
{
  "type": "node",
  "id": 3632214855,
  "lat": 47.0748320,
  "lon": 2.3831742,
  "tags": {
    "advertising": "no",
    "bench": "yes",
    "bus": "yes",
    "covered": "no",
    "highway": "bus_stop",
    "name": "Saint-Henri",
    "public_transport": "platform",
    "route_ref": "4;8;d4",
    "shelter": "no",
    "tactile_paving": "yes",
    "website": "https://www.agglobus.com/",
    "wheelchair": "yes"
  }
},
{
  "type": "node",
  "id": 3675020249,
  "lat": 47.1179523,
  "lon": 2.3935698,
  "tags": {
    "advertising": "no",
    "bench": "no",
    "bus": "yes",
    "covered": "no",
    "highway": "bus_stop",
    "name": "Alouettes",
    "public_transport": "platform",
    "route_ref": "3-d1",
    "shelter": "no",
    "tactile_paving": "yes",
    "website": "https://www.agglobus.com/",
    "wheelchair": "yes"
  }
},
{
  "type": "node",
  "id": 3675020255,
  "lat": 47.1226096,
  "lon": 2.4080428,
  "tags": {
    "advertising": "no",
    "bench": "no",
    "bus": "yes",
    "covered": "no",
    "highway": "bus_stop",
    "name": "Danton",
    "public_transport": "platform",
    "route_ref": "3-d1",
    "shelter": "no",
    "tactile_paving": "no",
    "website": "https://www.agglobus.com/",
    "wheelchair": "limited",
    "wheelchair:description": "Trottoir bas (voire inexistant), mais tous les bus (sauf cas très exceptionnels) sont équipés au centre d'une rampe électrique."
  }
},
{
  "type": "node",
  "id": 3675020256,
  "lat": 47.1231567,
  "lon": 2.4077707,
  "tags": {
    "advertising": "no",
    "bench": "no",
    "bus": "yes",
    "covered": "no",
    "highway": "bus_stop",
    "name": "Danton",
    "public_transport": "platform",
    "route_ref": "3-d1",
    "shelter": "no",
    "tactile_paving": "yes",
    "website": "https://www.agglobus.com/",
    "wheelchair": "yes"
  }
},
{
  "type": "node",
  "id": 3675238626,
  "lat": 47.1046242,
  "lon": 2.4047524,
  "tags": {
    "advertising": "no",
    "bench": "no",
    "bus": "yes",
    "covered": "no",
    "highway": "bus_stop",
    "name": "Cothenet",
    "note": "Desservi uniquement les mercredis",
    "public_transport": "platform",
    "route_ref": "3",
    "shelter": "no",
    "tactile_paving": "yes",
    "website": "https://www.agglobus.com/",
    "wheelchair": "yes"
  }
},
{
  "type": "node",
  "id": 3675238632,
  "lat": 47.1082283,
  "lon": 2.4084878,
  "tags": {
    "advertising": "no",
    "bench": "no",
    "bus": "yes",
    "covered": "no",
    "highway": "bus_stop",
    "name": "Merlattes",
    "public_transport": "platform",
    "route_ref": "3-d5",
    "shelter": "no",
    "tactile_paving": "no",
    "website": "https://www.agglobus.com/",
    "wheelchair": "yes"
  }
},
{
  "type": "node",
  "id": 3675238646,
  "lat": 47.1025054,
  "lon": 2.4118420,
  "tags": {
    "advertising": "poster_box",
    "bench": "yes",
    "bus": "yes",
    "covered": "no",
    "highway": "bus_stop",
    "name": "Mallarmé",
    "public_transport": "platform",
    "route_ref": "7-d5",
    "shelter": "yes",
    "tactile_paving": "yes",
    "website": "https://www.agglobus.com/",
    "wheelchair": "yes"
  }
},
{
  "type": "node",
  "id": 3675238647,
  "lat": 47.1020707,
  "lon": 2.4125370,
  "tags": {
    "advertising": "poster_box",
    "bench": "yes",
    "bus": "yes",
    "covered": "no",
    "highway": "bus_stop",
    "name": "Mallarmé",
    "public_transport": "platform",
    "route_ref": "7-d5",
    "shelter": "yes",
    "tactile_paving": "yes",
    "website": "https://www.agglobus.com/",
    "wheelchair": "yes"
  }
},
{
  "type": "node",
  "id": 3675238654,
  "lat": 47.0980475,
  "lon": 2.4152842,
  "tags": {
    "advertising": "no",
    "bench": "no",
    "bus": "yes",
    "covered": "no",
    "highway": "bus_stop",
    "name": "Franz Léhar",
    "public_transport": "platform",
    "route_ref": "B-d4-d5",
    "shelter": "no",
    "tactile_paving": "no",
    "website": "https://www.agglobus.com/",
    "wheelchair": "limited",
    "wheelchair:description": "Trottoir bas (voire inexistant), mais tous les bus (sauf cas très exceptionnels) sont équipés au centre d'une rampe électrique."
  }
},
{
  "type": "node",
  "id": 3675238655,
  "lat": 47.0976514,
  "lon": 2.4137097,
  "tags": {
    "advertising": "poster_box",
    "bench": "yes",
    "bus": "yes",
    "covered": "no",
    "highway": "bus_stop",
    "name": "Franz Léhar",
    "public_transport": "platform",
    "route_ref": "B-d4-d5",
    "shelter": "yes",
    "tactile_paving": "no",
    "website": "https://www.agglobus.com/",
    "wheelchair": "limited",
    "wheelchair:description": "Trottoir bas (voire inexistant), mais tous les bus (sauf cas très exceptionnels) sont équipés au centre d'une rampe électrique."
  }
},
{
  "type": "node",
  "id": 3675238660,
  "lat": 47.1028816,
  "lon": 2.4286686,
  "tags": {
    "advertising": "no",
    "bench": "no",
    "bus": "yes",
    "covered": "no",
    "highway": "bus_stop",
    "name": "Gaston Berger",
    "public_transport": "platform",
    "route_ref": "B-d4",
    "shelter": "no",
    "tactile_paving": "yes",
    "website": "https://www.agglobus.com/",
    "wheelchair": "yes"
  }
},
{
  "type": "node",
  "id": 3675238661,
  "lat": 47.1028729,
  "lon": 2.4283341,
  "tags": {
    "advertising": "no",
    "bench": "yes",
    "bus": "yes",
    "covered": "no",
    "highway": "bus_stop",
    "name": "Gaston Berger",
    "public_transport": "platform",
    "route_ref": "B-d4",
    "shelter": "yes",
    "tactile_paving": "yes",
    "website": "https://www.agglobus.com/",
    "wheelchair": "yes"
  }
},
{
  "type": "node",
  "id": 3675238664,
  "lat": 47.1052217,
  "lon": 2.4242859,
  "tags": {
    "advertising": "no",
    "bench": "no",
    "bus": "yes",
    "covered": "no",
    "highway": "bus_stop",
    "name": "Saint-Michel",
    "public_transport": "platform",
    "route_ref": "B-d4",
    "shelter": "no",
    "tactile_paving": "yes",
    "website": "https://www.agglobus.com/",
    "wheelchair": "yes"
  }
},
{
  "type": "node",
  "id": 3675238665,
  "lat": 47.1052103,
  "lon": 2.4241296,
  "tags": {
    "advertising": "no",
    "bench": "no",
    "bus": "yes",
    "covered": "no",
    "highway": "bus_stop",
    "name": "Saint-Michel",
    "public_transport": "platform",
    "route_ref": "B-d4",
    "shelter": "no",
    "tactile_paving": "yes",
    "website": "https://www.agglobus.com/",
    "wheelchair": "yes"
  }
},
{
  "type": "node",
  "id": 3684298887,
  "lat": 47.0836121,
  "lon": 2.4201578,
  "tags": {
    "advertising": "no",
    "bench": "no",
    "bus": "yes",
    "covered": "no",
    "highway": "bus_stop",
    "name": "Pignoux",
    "public_transport": "platform",
    "route_ref": "C-7",
    "shelter": "no",
    "tactile_paving": "no",
    "website": "https://www.agglobus.com/",
    "wheelchair": "limited",
    "wheelchair:description": "Trottoir bas (voire inexistant), mais tous les bus (sauf cas très exceptionnels) sont équipés au centre d'une rampe électrique."
  }
},
{
  "type": "node",
  "id": 3684298889,
  "lat": 47.0800224,
  "lon": 2.4153256,
  "tags": {
    "advertising": "no",
    "bench": "yes",
    "bus": "yes",
    "covered": "no",
    "highway": "bus_stop",
    "name": "Technopôle",
    "public_transport": "platform",
    "route_ref": "C-4",
    "shelter": "yes",
    "tactile_paving": "no",
    "website": "https://www.agglobus.com/",
    "wheelchair": "yes"
  }
},
{
  "type": "node",
  "id": 3684298890,
  "lat": 47.0805265,
  "lon": 2.4149673,
  "tags": {
    "advertising": "no",
    "bench": "no",
    "bus": "yes",
    "covered": "no",
    "highway": "bus_stop",
    "name": "Technopôle",
    "public_transport": "platform",
    "route_ref": "C-4-d1",
    "shelter": "no",
    "tactile_paving": "no",
    "website": "https://www.agglobus.com/",
    "wheelchair": "yes"
  }
},
{
  "type": "node",
  "id": 3684298895,
  "lat": 47.0800538,
  "lon": 2.4277706,
  "tags": {
    "advertising": "no",
    "bench": "no",
    "bus": "yes",
    "covered": "no",
    "highway": "bus_stop",
    "name": "Capitaine Locard",
    "public_transport": "platform",
    "route_ref": "B-7-d1",
    "shelter": "no",
    "tactile_paving": "yes",
    "website": "https://www.agglobus.com/",
    "wheelchair": "yes"
  }
},
{
  "type": "node",
  "id": 3684298896,
  "lat": 47.0799774,
  "lon": 2.4279032,
  "tags": {
    "advertising": "no",
    "bench": "no",
    "bus": "yes",
    "covered": "no",
    "highway": "bus_stop",
    "name": "Capitaine Locard",
    "public_transport": "platform",
    "route_ref": "B-7-d1",
    "shelter": "no",
    "tactile_paving": "yes",
    "website": "https://www.agglobus.com/",
    "wheelchair": "yes"
  }
},
{
  "type": "node",
  "id": 3684298922,
  "lat": 47.0835991,
  "lon": 2.4278276,
  "tags": {
    "advertising": "poster_box",
    "bench": "no",
    "bus": "yes",
    "covered": "no",
    "highway": "bus_stop",
    "name": "L.E.P.",
    "public_transport": "platform",
    "route_ref": "C-7",
    "shelter": "no",
    "tactile_paving": "yes",
    "website": "https://www.agglobus.com/",
    "wheelchair": "yes"
  }
},
{
  "type": "node",
  "id": 3684298923,
  "lat": 47.0837408,
  "lon": 2.4270355,
  "tags": {
    "advertising": "no",
    "bench": "yes",
    "bus": "yes",
    "covered": "yes",
    "highway": "bus_stop",
    "name": "L.E.P.",
    "public_transport": "platform",
    "route_ref": "C-7",
    "shelter": "no",
    "tactile_paving": "yes",
    "website": "https://www.agglobus.com/",
    "wheelchair": "yes"
  }
},
{
  "type": "node",
  "id": 3684298924,
  "lat": 47.0837615,
  "lon": 2.4232272,
  "tags": {
    "advertising": "no",
    "bench": "no",
    "bus": "yes",
    "covered": "no",
    "highway": "bus_stop",
    "name": "Lapparent",
    "public_transport": "platform",
    "route_ref": "C-7",
    "shelter": "no",
    "tactile_paving": "yes",
    "website": "https://www.agglobus.com/",
    "wheelchair": "yes"
  }
},
{
  "type": "node",
  "id": 3684305225,
  "lat": 47.0836785,
  "lon": 2.4242659,
  "tags": {
    "advertising": "no",
    "bench": "no",
    "bus": "yes",
    "covered": "no",
    "highway": "bus_stop",
    "name": "Lapparent",
    "public_transport": "platform",
    "route_ref": "C-7",
    "shelter": "no",
    "tactile_paving": "yes",
    "website": "https://www.agglobus.com/",
    "wheelchair": "yes"
  }
},
{
  "type": "node",
  "id": 3684305226,
  "lat": 47.0744451,
  "lon": 2.4191874,
  "tags": {
    "advertising": "no",
    "bench": "no",
    "bus": "yes",
    "covered": "no",
    "highway": "bus_stop",
    "name": "Napoléon III",
    "public_transport": "platform",
    "route_ref": "4",
    "shelter": "no",
    "tactile_paving": "no",
    "website": "https://www.agglobus.com/",
    "wheelchair": "limited",
    "wheelchair:description": "Trottoir bas (voire inexistant), mais tous les bus (sauf cas très exceptionnels) sont équipés au centre d'une rampe électrique."
  }
},
{
  "type": "node",
  "id": 3684305227,
  "lat": 47.0723679,
  "lon": 2.4221522,
  "tags": {
    "advertising": "no",
    "bench": "yes",
    "bus": "yes",
    "covered": "no",
    "highway": "bus_stop",
    "name": "Pyramides",
    "public_transport": "platform",
    "route_ref": "4",
    "shelter": "yes",
    "tactile_paving": "yes",
    "website": "https://www.agglobus.com/",
    "wheelchair": "yes"
  }
},
{
  "type": "node",
  "id": 3684305228,
  "lat": 47.0740112,
  "lon": 2.4139723,
  "tags": {
    "advertising": "no",
    "bench": "no",
    "bus": "yes",
    "covered": "no",
    "highway": "bus_stop",
    "name": "Carnot",
    "public_transport": "platform",
    "route_ref": "B-C-d1",
    "shelter": "no",
    "tactile_paving": "yes",
    "website": "https://www.agglobus.com/",
    "wheelchair": "yes"
  }
},
{
  "type": "node",
  "id": 3684305229,
  "lat": 47.0740046,
  "lon": 2.4137494,
  "tags": {
    "advertising": "no",
    "bench": "no",
    "bus": "yes",
    "covered": "no",
    "highway": "bus_stop",
    "name": "Carnot",
    "public_transport": "platform",
    "route_ref": "B-C-d1",
    "shelter": "no",
    "tactile_paving": "yes",
    "website": "https://www.agglobus.com/",
    "wheelchair": "yes"
  }
},
{
  "type": "node",
  "id": 3684305232,
  "lat": 47.0740495,
  "lon": 2.3986889,
  "tags": {
    "advertising": "no",
    "bench": "no",
    "bus": "yes",
    "covered": "no",
    "highway": "bus_stop",
    "name": "Albert Hervet",
    "public_transport": "platform",
    "route_ref": "12-15",
    "shelter": "no",
    "tactile_paving": "no",
    "website": "https://www.agglobus.com/",
    "wheelchair": "limited",
    "wheelchair:description": "Trottoir bas (voire inexistant), mais tous les bus (sauf cas très exceptionnels) sont équipés au centre d'une rampe électrique."
  }
},
{
  "type": "node",
  "id": 3684305233,
  "lat": 47.0712892,
  "lon": 2.3988722,
  "tags": {
    "advertising": "no",
    "bench": "no",
    "bus": "yes",
    "covered": "no",
    "highway": "bus_stop",
    "name": "Berthelot",
    "public_transport": "platform",
    "route_ref": "<vide>",
    "shelter": "no",
    "tactile_paving": "no",
    "website": "https://www.agglobus.com/",
    "wheelchair": "limited",
    "wheelchair:description": "Trottoir bas (voire inexistant), mais tous les bus (sauf cas très exceptionnels) sont équipés au centre d'une rampe électrique."
  }
},
{
  "type": "node",
  "id": 3684305234,
  "lat": 47.0711727,
  "lon": 2.3987706,
  "tags": {
    "advertising": "no",
    "bench": "no",
    "bus": "yes",
    "covered": "no",
    "highway": "bus_stop",
    "name": "Berthelot",
    "public_transport": "platform",
    "route_ref": "<vide>",
    "shelter": "no",
    "tactile_paving": "no",
    "website": "https://www.agglobus.com/",
    "wheelchair": "limited",
    "wheelchair:description": "Trottoir bas (voire inexistant), mais tous les bus (sauf cas très exceptionnels) sont équipés au centre d'une rampe électrique."
  }
},
{
  "type": "node",
  "id": 3684305237,
  "lat": 47.0723113,
  "lon": 2.4074109,
  "tags": {
    "advertising": "no",
    "bench": "no",
    "bus": "yes",
    "covered": "no",
    "highway": "bus_stop",
    "name": "Abbé Moreux",
    "public_transport": "platform",
    "route_ref": "12-15",
    "shelter": "no",
    "tactile_paving": "no",
    "website": "https://www.agglobus.com/",
    "wheelchair": "limited",
    "wheelchair:description": "Trottoir bas (voire inexistant), mais tous les bus (sauf cas très exceptionnels) sont équipés au centre d'une rampe électrique."
  }
},
{
  "type": "node",
  "id": 3684305239,
  "lat": 47.0695833,
  "lon": 2.4091097,
  "tags": {
    "advertising": "no",
    "bench": "no",
    "bus": "yes",
    "covered": "no",
    "highway": "bus_stop",
    "name": "Garcin",
    "public_transport": "platform",
    "route_ref": "12-15",
    "shelter": "no",
    "tactile_paving": "no",
    "website": "https://www.agglobus.com/",
    "wheelchair": "limited",
    "wheelchair:description": "Trottoir bas (voire inexistant), mais tous les bus (sauf cas très exceptionnels) sont équipés au centre d'une rampe électrique."
  }
},
{
  "type": "node",
  "id": 3684305243,
  "lat": 47.0658074,
  "lon": 2.4185598,
  "tags": {
    "advertising": "no",
    "bench": "no",
    "bus": "yes",
    "covered": "no",
    "highway": "bus_stop",
    "name": "Fileuses",
    "public_transport": "platform",
    "route_ref": "7-12-15",
    "shelter": "no",
    "tactile_paving": "yes",
    "website": "https://www.agglobus.com/",
    "wheelchair": "yes"
  }
},
{
  "type": "node",
  "id": 3684305245,
  "lat": 47.0635992,
  "lon": 2.4210738,
  "tags": {
    "advertising": "no",
    "bench": "no",
    "bus": "yes",
    "covered": "no",
    "highway": "bus_stop",
    "name": "Pijolins",
    "public_transport": "platform",
    "route_ref": "7-12-15",
    "shelter": "no",
    "tactile_paving": "yes",
    "website": "https://www.agglobus.com/",
    "wheelchair": "yes"
  }
},
{
  "type": "node",
  "id": 3684305248,
  "lat": 47.0617486,
  "lon": 2.4228910,
  "tags": {
    "advertising": "no",
    "bench": "no",
    "bus": "yes",
    "covered": "no",
    "highway": "bus_stop",
    "name": "Justices",
    "public_transport": "platform",
    "route_ref": "7-12-15",
    "shelter": "no",
    "tactile_paving": "yes",
    "website": "https://www.agglobus.com/",
    "wheelchair": "yes"
  }
},
{
  "type": "node",
  "id": 3684305250,
  "lat": 47.0592925,
  "lon": 2.4205995,
  "tags": {
    "advertising": "no",
    "bench": "no",
    "bus": "yes",
    "covered": "no",
    "highway": "bus_stop",
    "name": "Centre Aéré",
    "public_transport": "platform",
    "route_ref": "7-12-15",
    "shelter": "no",
    "tactile_paving": "yes",
    "website": "https://www.agglobus.com/",
    "wheelchair": "yes"
  }
},
{
  "type": "node",
  "id": 3684305256,
  "lat": 47.0537685,
  "lon": 2.4101125,
  "tags": {
    "advertising": "no",
    "bench": "no",
    "bus": "yes",
    "covered": "no",
    "highway": "bus_stop",
    "name": "Camille Claudel",
    "public_transport": "platform",
    "route_ref": "15",
    "shelter": "no",
    "tactile_paving": "no",
    "website": "https://www.agglobus.com/",
    "wheelchair": "limited",
    "wheelchair:description": "Trottoir bas (voire inexistant), mais tous les bus (sauf cas très exceptionnels) sont équipés au centre d'une rampe électrique."
  }
},
{
  "type": "node",
  "id": 3698729754,
  "lat": 47.0662871,
  "lon": 2.3688315,
  "tags": {
    "advertising": "no",
    "bench": "no",
    "bus": "yes",
    "covered": "no",
    "highway": "bus_stop",
    "name": "Gagarine",
    "public_transport": "platform",
    "route_ref": "4-d4",
    "shelter": "no",
    "tactile_paving": "no",
    "website": "https://www.agglobus.com/",
    "wheelchair": "yes"
  }
},
{
  "type": "node",
  "id": 3698729755,
  "lat": 47.0663959,
  "lon": 2.3692831,
  "tags": {
    "advertising": "no",
    "bench": "yes",
    "bus": "yes",
    "covered": "no",
    "highway": "bus_stop",
    "name": "Gagarine",
    "public_transport": "platform",
    "route_ref": "4-d4",
    "shelter": "yes",
    "tactile_paving": "no",
    "website": "https://www.agglobus.com/",
    "wheelchair": "yes"
  }
},
{
  "type": "node",
  "id": 3698729756,
  "lat": 47.0651754,
  "lon": 2.3661699,
  "tags": {
    "advertising": "no",
    "bench": "no",
    "bus": "yes",
    "covered": "no",
    "highway": "bus_stop",
    "name": "Airville",
    "public_transport": "platform",
    "route_ref": "4-d4",
    "shelter": "no",
    "tactile_paving": "no",
    "website": "https://www.agglobus.com/",
    "wheelchair": "yes"
  }
},
{
  "type": "node",
  "id": 3698729757,
  "lat": 47.0650595,
  "lon": 2.3661099,
  "tags": {
    "advertising": "no",
    "bench": "no",
    "bus": "yes",
    "covered": "no",
    "highway": "bus_stop",
    "name": "Airville",
    "public_transport": "platform",
    "route_ref": "4-d4",
    "shelter": "no",
    "tactile_paving": "no",
    "website": "https://www.agglobus.com/",
    "wheelchair": "yes"
  }
},
{
  "type": "node",
  "id": 3698729758,
  "lat": 47.0637004,
  "lon": 2.3627846,
  "tags": {
    "advertising": "no",
    "bench": "no",
    "bus": "yes",
    "covered": "no",
    "highway": "bus_stop",
    "name": "Clément Ader",
    "public_transport": "platform",
    "route_ref": "4-d4",
    "shelter": "no",
    "tactile_paving": "no",
    "website": "https://www.agglobus.com/",
    "wheelchair": "yes"
  }
},
{
  "type": "node",
  "id": 3698729759,
  "lat": 47.0636977,
  "lon": 2.3629724,
  "tags": {
    "advertising": "no",
    "bench": "yes",
    "bus": "yes",
    "covered": "no",
    "highway": "bus_stop",
    "name": "Clément Ader",
    "public_transport": "platform",
    "route_ref": "4-d4",
    "shelter": "no",
    "tactile_paving": "no",
    "website": "https://www.agglobus.com/",
    "wheelchair": "yes"
  }
},
{
  "type": "node",
  "id": 3698729762,
  "lat": 47.0604961,
  "lon": 2.3558630,
  "tags": {
    "advertising": "no",
    "bench": "no",
    "bus": "yes",
    "covered": "no",
    "highway": "bus_stop",
    "name": "Brassens",
    "public_transport": "platform",
    "route_ref": "4-d4",
    "shelter": "no",
    "tactile_paving": "yes",
    "website": "https://www.agglobus.com/",
    "wheelchair": "yes"
  }
},
{
  "type": "node",
  "id": 3698729763,
  "lat": 47.0605815,
  "lon": 2.3561649,
  "tags": {
    "advertising": "no",
    "bench": "no",
    "bus": "yes",
    "covered": "no",
    "highway": "bus_stop",
    "name": "Brassens",
    "public_transport": "platform",
    "route_ref": "4-d4",
    "shelter": "no",
    "tactile_paving": "yes",
    "website": "https://www.agglobus.com/",
    "wheelchair": "yes"
  }
},
{
  "type": "node",
  "id": 3698729771,
  "lat": 47.0615014,
  "lon": 2.3633197,
  "tags": {
    "advertising": "no",
    "bench": "no",
    "bus": "yes",
    "covered": "no",
    "highway": "bus_stop",
    "name": "Durand",
    "public_transport": "platform",
    "route_ref": "8-d4",
    "shelter": "no",
    "tactile_paving": "yes",
    "website": "https://www.agglobus.com/",
    "wheelchair": "yes"
  }
},
{
  "type": "node",
  "id": 3698730532,
  "lat": 47.0675771,
  "lon": 2.3732038,
  "tags": {
    "advertising": "poster_box",
    "bench": "yes",
    "bus": "yes",
    "covered": "no",
    "highway": "bus_stop",
    "name": "Les Ailes",
    "public_transport": "platform",
    "route_ref": "4-8-d4",
    "shelter": "yes",
    "tactile_paving": "no",
    "website": "https://www.agglobus.com/",
    "wheelchair": "yes"
  }
},
{
  "type": "node",
  "id": 3698730533,
  "lat": 47.0678502,
  "lon": 2.3732735,
  "tags": {
    "advertising": "no",
    "bench": "no",
    "bus": "yes",
    "covered": "no",
    "highway": "bus_stop",
    "name": "Les Ailes",
    "public_transport": "platform",
    "route_ref": "4;8;d4",
    "shelter": "no",
    "tactile_paving": "no",
    "website": "https://www.agglobus.com/",
    "wheelchair": "yes"
  }
},
{
  "type": "node",
  "id": 3711121324,
  "lat": 47.0870575,
  "lon": 2.3946638,
  "tags": {
    "advertising": "no",
    "bench": "yes",
    "bus": "yes",
    "covered": "no",
    "highway": "bus_stop",
    "name": "Avaricum",
    "public_transport": "platform",
    "route_ref": "3-4-10-12-15",
    "shelter": "yes",
    "tactile_paving": "yes",
    "website": "https://www.agglobus.com/",
    "wheelchair": "yes"
  }
},
{
  "type": "node",
  "id": 3786609563,
  "lat": 47.0571431,
  "lon": 2.4070830,
  "tags": {
    "advertising": "no",
    "bench": "yes",
    "bus": "yes",
    "covered": "no",
    "highway": "bus_stop",
    "name": "La Rottée",
    "public_transport": "platform",
    "route_ref": "A-d2",
    "shelter": "yes",
    "tactile_paving": "yes",
    "website": "https://www.agglobus.com/",
    "wheelchair": "yes"
  }
},
{
  "type": "node",
  "id": 4038692182,
  "lat": 47.0937738,
  "lon": 2.3937430,
  "tags": {
    "bus": "yes",
    "highway": "bus_stop",
    "name": "Gare SNCF quai B",
    "public_transport": "platform"
  }
},
{
  "type": "node",
  "id": 4046023786,
  "lat": 47.0935886,
  "lon": 2.3936526,
  "tags": {
    "bus": "yes",
    "highway": "bus_stop",
    "name": "Gare SNCF quai A",
    "public_transport": "platform",
    "shelter": "yes"
  }
},
{
  "type": "node",
  "id": 4330942307,
  "lat": 47.0787800,
  "lon": 2.3910830,
  "tags": {
    "advertising": "poster_box",
    "bench": "yes",
    "bin": "yes",
    "bus": "yes",
    "covered": "no",
    "highway": "bus_stop",
    "lit": "yes",
    "name": "Auron",
    "public_transport": "platform",
    "route_ref": "A-B-C-2-d1-d2-d3",
    "shelter": "yes",
    "tactile_paving": "yes",
    "website": "https://www.agglobus.com/",
    "wheelchair": "yes"
  }
},
{
  "type": "node",
  "id": 4330942308,
  "lat": 47.0794585,
  "lon": 2.3906806,
  "tags": {
    "advertising": "no",
    "bench": "yes",
    "bus": "yes",
    "covered": "no",
    "highway": "bus_stop",
    "name": "Auron",
    "public_transport": "platform",
    "route_ref": "A-B-C-2-d1-d2-d3",
    "shelter": "no",
    "tactile_paving": "no",
    "website": "https://www.agglobus.com/",
    "wheelchair": "yes"
  }
},
{
  "type": "node",
  "id": 4330942309,
  "lat": 47.0804974,
  "lon": 2.3826230,
  "tags": {
    "advertising": "no",
    "bench": "no",
    "bus": "yes",
    "covered": "no",
    "highway": "bus_stop",
    "name": "Avenir",
    "public_transport": "platform",
    "route_ref": "6;8;13;d4;VitaBus Soir",
    "shelter": "no",
    "tactile_paving": "no",
    "website": "https://www.agglobus.com/",
    "wheelchair": "limited",
    "wheelchair:description": "Trottoir bas (voire inexistant), mais tous les bus (sauf cas très exceptionnels) sont équipés au centre d'une rampe électrique."
  }
},
{
  "type": "node",
  "id": 4330942310,
  "lat": 47.0808581,
  "lon": 2.3831715,
  "tags": {
    "advertising": "poster_box",
    "bench": "yes",
    "bus": "yes",
    "covered": "no",
    "highway": "bus_stop",
    "name": "Avenir",
    "public_transport": "platform",
    "route_ref": "6-8-9-13-d4-VitaBus Soir",
    "shelter": "yes",
    "tactile_paving": "yes",
    "website": "https://www.agglobus.com/",
    "wheelchair": "yes"
  }
},
{
  "type": "node",
  "id": 4330942311,
  "lat": 47.0809558,
  "lon": 2.3398699,
  "tags": {
    "advertising": "no",
    "bench": "yes",
    "bus": "yes",
    "covered": "no",
    "highway": "bus_stop",
    "name": "Avertins",
    "public_transport": "platform",
    "route_ref": "9",
    "shelter": "yes",
    "tactile_paving": "no",
    "website": "https://www.agglobus.com/",
    "wheelchair": "limited",
    "wheelchair:description": "Trottoir bas (voire inexistant), mais tous les bus (sauf cas très exceptionnels) sont équipés au centre d'une rampe électrique."
  }
},
{
  "type": "node",
  "id": 4330942312,
  "lat": 47.0811805,
  "lon": 2.3395052,
  "tags": {
    "advertising": "no",
    "bench": "no",
    "bus": "yes",
    "covered": "no",
    "highway": "bus_stop",
    "name": "Avertins",
    "public_transport": "platform",
    "route_ref": "9",
    "shelter": "no",
    "tactile_paving": "no",
    "website": "https://www.agglobus.com/",
    "wheelchair": "limited",
    "wheelchair:description": "Trottoir bas (voire inexistant), mais tous les bus (sauf cas très exceptionnels) sont équipés au centre d'une rampe électrique."
  }
},
{
  "type": "node",
  "id": 4330942313,
  "lat": 47.0759437,
  "lon": 2.3721329,
  "tags": {
    "advertising": "no",
    "bench": "no",
    "bus": "yes",
    "covered": "no",
    "highway": "bus_stop",
    "name": "Beauregard",
    "public_transport": "platform",
    "route_ref": "6",
    "shelter": "no",
    "tactile_paving": "yes",
    "website": "https://www.agglobus.com/",
    "wheelchair": "yes"
  }
},
{
  "type": "node",
  "id": 4330942314,
  "lat": 47.0760113,
  "lon": 2.3723555,
  "tags": {
    "advertising": "no",
    "bench": "no",
    "bus": "yes",
    "covered": "no",
    "highway": "bus_stop",
    "name": "Beauregard",
    "public_transport": "platform",
    "route_ref": "6",
    "shelter": "no",
    "tactile_paving": "no",
    "website": "https://www.agglobus.com/",
    "wheelchair": "yes"
  }
},
{
  "type": "node",
  "id": 4330942315,
  "lat": 47.0760168,
  "lon": 2.3761455,
  "tags": {
    "advertising": "no",
    "bench": "no",
    "bus": "yes",
    "covered": "no",
    "highway": "bus_stop",
    "name": "Castors",
    "public_transport": "platform",
    "route_ref": "6",
    "shelter": "no",
    "tactile_paving": "yes",
    "website": "https://www.agglobus.com/",
    "wheelchair": "yes"
  }
},
{
  "type": "node",
  "id": 4330942316,
  "lat": 47.0760953,
  "lon": 2.3759041,
  "tags": {
    "advertising": "no",
    "bench": "no",
    "bus": "yes",
    "covered": "no",
    "highway": "bus_stop",
    "name": "Castors",
    "public_transport": "platform",
    "route_ref": "6",
    "shelter": "no",
    "tactile_paving": "no",
    "website": "https://www.agglobus.com/",
    "wheelchair": "yes"
  }
},
{
  "type": "node",
  "id": 4330942317,
  "lat": 47.0905655,
  "lon": 2.4214912,
  "tags": {
    "advertising": "poster_box",
    "bench": "yes",
    "bus": "yes",
    "covered": "no",
    "highway": "bus_stop",
    "name": "Centre Commercial Chaussée de Chappe",
    "public_transport": "platform",
    "route_ref": "2-7-d3",
    "shelter": "yes",
    "tactile_paving": "yes",
    "website": "https://www.agglobus.com/",
    "wheelchair": "yes"
  }
},
{
  "type": "node",
  "id": 4330942318,
  "lat": 47.0921542,
  "lon": 2.4221268,
  "tags": {
    "advertising": "poster_box",
    "bench": "yes",
    "bus": "yes",
    "covered": "no",
    "highway": "bus_stop",
    "name": "Centre Commercial Chaussée de Chappe",
    "public_transport": "platform",
    "route_ref": "2-7-d3",
    "shelter": "yes",
    "tactile_paving": "yes",
    "website": "https://www.agglobus.com/",
    "wheelchair": "yes"
  }
},
{
  "type": "node",
  "id": 4330942319,
  "lat": 47.0828024,
  "lon": 2.3785058,
  "tags": {
    "advertising": "no",
    "bench": "no",
    "bus": "yes",
    "covered": "no",
    "highway": "bus_stop",
    "name": "Charbonneaux",
    "public_transport": "platform",
    "route_ref": "9",
    "shelter": "no",
    "tactile_paving": "yes",
    "website": "https://www.agglobus.com/",
    "wheelchair": "yes"
  }
},
{
  "type": "node",
  "id": 4330942320,
  "lat": 47.0828636,
  "lon": 2.3785568,
  "tags": {
    "advertising": "no",
    "bench": "no",
    "bus": "yes",
    "covered": "no",
    "highway": "bus_stop",
    "name": "Charbonneaux",
    "public_transport": "platform",
    "route_ref": "9",
    "shelter": "no",
    "tactile_paving": "yes",
    "website": "https://www.agglobus.com/",
    "wheelchair": "yes"
  }
},
{
  "type": "node",
  "id": 4330942321,
  "lat": 47.0759547,
  "lon": 2.3680559,
  "tags": {
    "advertising": "no",
    "bench": "yes",
    "bus": "yes",
    "covered": "no",
    "highway": "bus_stop",
    "name": "Commandant Malbert",
    "public_transport": "platform",
    "route_ref": "6",
    "shelter": "yes",
    "tactile_paving": "yes",
    "website": "https://www.agglobus.com/",
    "wheelchair": "yes"
  }
},
{
  "type": "node",
  "id": 4330942322,
  "lat": 47.0760204,
  "lon": 2.3671037,
  "tags": {
    "advertising": "no",
    "bench": "no",
    "bus": "yes",
    "covered": "no",
    "highway": "bus_stop",
    "name": "Commandant Malbert",
    "public_transport": "platform",
    "route_ref": "6",
    "shelter": "no",
    "tactile_paving": "yes",
    "website": "https://www.agglobus.com/",
    "wheelchair": "yes"
  }
},
{
  "type": "node",
  "id": 4330942327,
  "lat": 47.0794887,
  "lon": 2.3988761,
  "tags": {
    "advertising": "poster_box",
    "bench": "yes",
    "bus": "yes",
    "covered": "no",
    "highway": "bus_stop",
    "name": "Europe",
    "public_transport": "platform",
    "route_ref": "2-V2-V13-V15-d3",
    "shelter": "yes",
    "tactile_paving": "no",
    "website": "https://www.agglobus.com/",
    "wheelchair": "limited",
    "wheelchair:description": "Trottoir réhaussé mais l'accès au bus nécessite de traverser un creux. Néanmoins, tous les bus (sauf cas très exceptionnels) sont équipés au centre d'une rampe électrique."
  }
},
{
  "type": "node",
  "id": 4330942328,
  "lat": 47.0796366,
  "lon": 2.3984952,
  "tags": {
    "advertising": "poster_box",
    "bench": "yes",
    "bus": "yes",
    "covered": "no",
    "highway": "bus_stop",
    "name": "Europe",
    "public_transport": "platform",
    "route_ref": "2-Navette Auron-d3",
    "shelter": "yes",
    "tactile_paving": "no",
    "website": "https://www.agglobus.com/",
    "wheelchair": "limited",
    "wheelchair:description": "Trottoir réhaussé mais l'accès au bus nécessite de traverser un creux. Néanmoins, tous les bus (sauf cas très exceptionnels) sont équipés au centre d'une rampe électrique."
  }
},
{
  "type": "node",
  "id": 4330942329,
  "lat": 47.0950850,
  "lon": 2.4248868,
  "tags": {
    "advertising": "poster_box",
    "bench": "yes",
    "bus": "yes",
    "covered": "no",
    "highway": "bus_stop",
    "name": "Fourchette",
    "public_transport": "platform",
    "route_ref": "2-d3",
    "shelter": "yes",
    "tactile_paving": "no",
    "website": "https://www.agglobus.com/",
    "wheelchair": "limited",
    "wheelchair:description": "Trottoir bas (voire inexistant), mais tous les bus (sauf cas très exceptionnels) sont équipés au centre d'une rampe électrique."
  }
},
{
  "type": "node",
  "id": 4330942330,
  "lat": 47.0952522,
  "lon": 2.4248658,
  "tags": {
    "advertising": "poster_box",
    "bench": "yes",
    "bus": "yes",
    "covered": "no",
    "highway": "bus_stop",
    "name": "Fourchette",
    "public_transport": "platform",
    "route_ref": "2-d3",
    "shelter": "yes",
    "tactile_paving": "no",
    "website": "https://www.agglobus.com/",
    "wheelchair": "limited",
    "wheelchair:description": "Trottoir bas (voire inexistant), mais tous les bus (sauf cas très exceptionnels) sont équipés au centre d'une rampe électrique."
  }
},
{
  "type": "node",
  "id": 4330942331,
  "lat": 47.0828795,
  "lon": 2.3891853,
  "tags": {
    "advertising": "poster_box",
    "bench": "yes",
    "bus": "yes",
    "covered": "no",
    "highway": "bus_stop",
    "name": "Juranville",
    "public_transport": "platform",
    "route_ref": "A-B-C-2-3-4-6-8-9-10-13-d1-d2-d3-VitaBus Soir",
    "shelter": "yes",
    "tactile_paving": "no",
    "website": "https://www.agglobus.com/",
    "wheelchair": "yes"
  }
},
{
  "type": "node",
  "id": 4330942332,
  "lat": 47.0828932,
  "lon": 2.3888192,
  "tags": {
    "advertising": "poster_box",
    "bench": "yes",
    "bus": "yes",
    "covered": "no",
    "highway": "bus_stop",
    "name": "Juranville",
    "public_transport": "platform",
    "route_ref": "A-B-C-2-3-4-Navette Prado-d1-d2-d3-VitaBus Soir",
    "shelter": "yes",
    "tactile_paving": "yes",
    "website": "https://www.agglobus.com/",
    "wheelchair": "yes"
  }
},
{
  "type": "node",
  "id": 4330942335,
  "lat": 47.0825773,
  "lon": 2.4134647,
  "tags": {
    "advertising": "poster_box",
    "bench": "yes",
    "bus": "yes",
    "covered": "no",
    "highway": "bus_stop",
    "name": "Lahitolle",
    "public_transport": "platform",
    "route_ref": "2-4-d3-VitaBus Soir",
    "shelter": "yes",
    "tactile_paving": "no",
    "website": "https://www.agglobus.com/",
    "wheelchair": "yes"
  }
},
{
  "type": "node",
  "id": 4330942336,
  "lat": 47.0826686,
  "lon": 2.4133305,
  "tags": {
    "advertising": "no",
    "bench": "no",
    "bus": "yes",
    "covered": "no",
    "highway": "bus_stop",
    "name": "Lahitolle",
    "public_transport": "platform",
    "route_ref": "2-4-d3-VitaBus Soir",
    "shelter": "no",
    "tactile_paving": "no",
    "website": "https://www.agglobus.com/",
    "wheelchair": "yes"
  }
},
{
  "type": "node",
  "id": 4330942350,
  "lat": 47.0756606,
  "lon": 2.3611761,
  "tags": {
    "advertising": "poster_box",
    "bench": "yes",
    "bus": "yes",
    "covered": "no",
    "highway": "bus_stop",
    "name": "Louis Armand",
    "public_transport": "platform",
    "route_ref": "6-VitaBus Soir",
    "shelter": "yes",
    "tactile_paving": "yes",
    "website": "https://www.agglobus.com/",
    "wheelchair": "yes"
  }
},
{
  "type": "node",
  "id": 4330942351,
  "lat": 47.0757501,
  "lon": 2.3606262,
  "tags": {
    "advertising": "no",
    "bench": "no",
    "bus": "yes",
    "covered": "no",
    "highway": "bus_stop",
    "name": "Louis Armand",
    "public_transport": "platform",
    "route_ref": "6-VitaBus Soir",
    "shelter": "no",
    "tactile_paving": "yes",
    "website": "https://www.agglobus.com/",
    "wheelchair": "yes"
  }
},
{
  "type": "node",
  "id": 4330942354,
  "lat": 47.0804841,
  "lon": 2.4053429,
  "tags": {
    "advertising": "no",
    "bench": "no",
    "bus": "yes",
    "covered": "no",
    "highway": "bus_stop",
    "name": "Malus",
    "public_transport": "platform",
    "route_ref": "2-12-15-d3",
    "shelter": "no",
    "tactile_paving": "no",
    "website": "https://www.agglobus.com/",
    "wheelchair": "limited",
    "wheelchair:description": "Trottoir bas (voire inexistant), mais tous les bus (sauf cas très exceptionnels) sont équipés au centre d'une rampe électrique."
  }
},
{
  "type": "node",
  "id": 4330942355,
  "lat": 47.0805344,
  "lon": 2.4058861,
  "tags": {
    "advertising": "no",
    "bench": "no",
    "bus": "yes",
    "covered": "no",
    "highway": "bus_stop",
    "name": "Malus",
    "public_transport": "platform",
    "route_ref": "2-12-15-d3",
    "shelter": "no",
    "tactile_paving": "no",
    "website": "https://www.agglobus.com/",
    "wheelchair": "limited",
    "wheelchair:description": "Trottoir bas (voire inexistant), mais tous les bus (sauf cas très exceptionnels) sont équipés au centre d'une rampe électrique."
  }
},
{
  "type": "node",
  "id": 4330942356,
  "lat": 47.0815303,
  "lon": 2.3810499,
  "tags": {
    "advertising": "no",
    "bench": "no",
    "bus": "yes",
    "covered": "no",
    "highway": "bus_stop",
    "name": "Marguerite de Navarre",
    "public_transport": "platform",
    "route_ref": "9",
    "shelter": "no",
    "tactile_paving": "no",
    "website": "https://www.agglobus.com/",
    "wheelchair": "limited",
    "wheelchair:description": "Trottoir bas (voire inexistant), mais tous les bus (sauf cas très exceptionnels) sont équipés au centre d'une rampe électrique."
  }
},
{
  "type": "node",
  "id": 4330942357,
  "lat": 47.0816700,
  "lon": 2.3810807,
  "tags": {
    "advertising": "no",
    "bench": "yes",
    "bus": "yes",
    "covered": "no",
    "highway": "bus_stop",
    "name": "Marguerite de Navarre",
    "public_transport": "platform",
    "route_ref": "9",
    "shelter": "no",
    "tactile_paving": "no",
    "website": "https://www.agglobus.com/",
    "wheelchair": "limited",
    "wheelchair:description": "Trottoir bas (voire inexistant), mais tous les bus (sauf cas très exceptionnels) sont équipés au centre d'une rampe électrique."
  }
},
{
  "type": "node",
  "id": 4330942358,
  "lat": 47.0799480,
  "lon": 2.4022141,
  "tags": {
    "advertising": "poster_box",
    "bench": "yes",
    "bus": "yes",
    "covered": "no",
    "highway": "bus_stop",
    "name": "Marronniers",
    "public_transport": "platform",
    "route_ref": "2-12-15-d3",
    "shelter": "yes",
    "tactile_paving": "no",
    "website": "https://www.agglobus.com/",
    "wheelchair": "yes"
  }
},
{
  "type": "node",
  "id": 4330942359,
  "lat": 47.0799773,
  "lon": 2.4015999,
  "tags": {
    "advertising": "no",
    "bench": "no",
    "bus": "yes",
    "covered": "no",
    "highway": "bus_stop",
    "name": "Marronniers",
    "public_transport": "platform",
    "route_ref": "2-12-15-d3",
    "shelter": "no",
    "tactile_paving": "no",
    "website": "https://www.agglobus.com/",
    "wheelchair": "limited",
    "wheelchair:description": "Trottoir bas (voire inexistant), mais tous les bus (sauf cas très exceptionnels) sont équipés au centre d'une rampe électrique."
  }
},
{
  "type": "node",
  "id": 4330942360,
  "lat": 47.0831448,
  "lon": 2.3735598,
  "tags": {
    "advertising": "no",
    "bench": "no",
    "bus": "yes",
    "covered": "no",
    "highway": "bus_stop",
    "name": "Messager",
    "public_transport": "platform",
    "route_ref": "9",
    "shelter": "no",
    "tactile_paving": "no",
    "website": "https://www.agglobus.com/",
    "wheelchair": "limited",
    "wheelchair:description": "Trottoir bas (voire inexistant), mais tous les bus (sauf cas très exceptionnels) sont équipés au centre d'une rampe électrique."
  }
},
{
  "type": "node",
  "id": 4330942361,
  "lat": 47.0831576,
  "lon": 2.3736872,
  "tags": {
    "advertising": "no",
    "bench": "no",
    "bus": "yes",
    "covered": "no",
    "highway": "bus_stop",
    "name": "Messager",
    "public_transport": "platform",
    "route_ref": "9",
    "shelter": "no",
    "tactile_paving": "no",
    "website": "https://www.agglobus.com/",
    "wheelchair": "limited",
    "wheelchair:description": "Trottoir bas (voire inexistant), mais tous les bus (sauf cas très exceptionnels) sont équipés au centre d'une rampe électrique."
  }
},
{
  "type": "node",
  "id": 4330942363,
  "lat": 47.0848119,
  "lon": 2.3909204,
  "tags": {
    "advertising": "poster_box",
    "bench": "yes",
    "bus": "yes",
    "covered": "no",
    "highway": "bus_stop",
    "name": "Nation Quai A",
    "passenger_information_display": "yes",
    "public_transport": "platform",
    "route_ref": "12-15-16",
    "shelter": "yes",
    "tactile_paving": "yes",
    "website": "https://www.agglobus.com/",
    "wheelchair": "limited",
    "wheelchair:description": "Trottoir réhaussé mais l'accès au bus nécessite de traverser un creux. Néanmoins, tous les bus (sauf cas très exceptionnels) sont équipés au centre d'une rampe électrique."
  }
},
{
  "type": "node",
  "id": 4330942364,
  "lat": 47.0847639,
  "lon": 2.3908956,
  "tags": {
    "advertising": "poster_box",
    "bench": "yes",
    "bus": "yes",
    "covered": "no",
    "highway": "bus_stop",
    "name": "Nation Quai B",
    "passenger_information_display": "yes",
    "public_transport": "platform",
    "route_ref": "6;8;13",
    "shelter": "yes",
    "tactile_paving": "no",
    "website": "https://www.agglobus.com/",
    "wheelchair": "limited",
    "wheelchair:description": "Trottoir réhaussé mais l'accès au bus nécessite de traverser un creux. Néanmoins, tous les bus (sauf cas très exceptionnels) sont équipés au centre d'une rampe électrique."
  }
},
{
  "type": "node",
  "id": 4330942365,
  "lat": 47.0847018,
  "lon": 2.3908963,
  "tags": {
    "advertising": "poster_box",
    "bench": "yes",
    "bus": "yes",
    "covered": "no",
    "highway": "bus_stop",
    "name": "Nation Quai C",
    "passenger_information_display": "yes",
    "public_transport": "platform",
    "route_ref": "A-B-C-3-4-10-d1-d2-d3-d4",
    "shelter": "yes",
    "tactile_paving": "yes",
    "website": "https://www.agglobus.com/",
    "wheelchair": "limited",
    "wheelchair:description": "Trottoir réhaussé mais l'accès au bus nécessite de traverser un creux. Néanmoins, tous les bus (sauf cas très exceptionnels) sont équipés au centre d'une rampe électrique."
  }
},
{
  "type": "node",
  "id": 4330942366,
  "lat": 47.0845397,
  "lon": 2.3910405,
  "tags": {
    "advertising": "poster_box",
    "bench": "yes",
    "bus": "yes",
    "covered": "no",
    "highway": "bus_stop",
    "name": "Nation Quai D",
    "passenger_information_display": "yes",
    "public_transport": "platform",
    "route_ref": "A-B-C-d1-d2-d4",
    "shelter": "yes",
    "tactile_paving": "yes",
    "website": "https://www.agglobus.com/",
    "wheelchair": "limited",
    "wheelchair:description": "Trottoir réhaussé mais l'accès au bus nécessite de traverser un creux. Néanmoins, tous les bus (sauf cas très exceptionnels) sont équipés au centre d'une rampe électrique."
  }
},
{
  "type": "node",
  "id": 4330942367,
  "lat": 47.0844913,
  "lon": 2.3910036,
  "tags": {
    "advertising": "poster_box",
    "bench": "yes",
    "bus": "yes",
    "covered": "no",
    "highway": "bus_stop",
    "name": "Nation Quai E",
    "passenger_information_display": "yes",
    "public_transport": "platform",
    "route_ref": "3-4-10",
    "shelter": "yes",
    "tactile_paving": "yes",
    "website": "https://www.agglobus.com/",
    "wheelchair": "limited",
    "wheelchair:description": "Trottoir réhaussé mais l'accès au bus nécessite de traverser un creux. Néanmoins, tous les bus (sauf cas très exceptionnels) sont équipés au centre d'une rampe électrique."
  }
},
{
  "type": "node",
  "id": 4330942368,
  "lat": 47.0842626,
  "lon": 2.3911591,
  "tags": {
    "advertising": "poster_box",
    "bench": "yes",
    "bus": "yes",
    "covered": "no",
    "highway": "bus_stop",
    "name": "Nation Quai F",
    "passenger_information_display": "yes",
    "public_transport": "platform",
    "route_ref": "2-9-d3",
    "shelter": "yes",
    "tactile_paving": "no",
    "website": "https://www.agglobus.com/",
    "wheelchair": "limited",
    "wheelchair:description": "Trottoir réhaussé mais l'accès au bus nécessite de traverser un creux. Néanmoins, tous les bus (sauf cas très exceptionnels) sont équipés au centre d'une rampe électrique."
  }
},
{
  "type": "node",
  "id": 4330942373,
  "lat": 47.0815686,
  "lon": 2.3727082,
  "tags": {
    "advertising": "no",
    "bench": "no",
    "bus": "yes",
    "covered": "no",
    "highway": "bus_stop",
    "name": "Pascault",
    "public_transport": "platform",
    "route_ref": "9",
    "shelter": "no",
    "tactile_paving": "no",
    "website": "https://www.agglobus.com/",
    "wheelchair": "limited",
    "wheelchair:description": "Trottoir bas (voire inexistant), mais tous les bus (sauf cas très exceptionnels) sont équipés au centre d'une rampe électrique."
  }
},
{
  "type": "node",
  "id": 4330942374,
  "lat": 47.0813330,
  "lon": 2.3722617,
  "tags": {
    "advertising": "no",
    "bench": "yes",
    "bus": "yes",
    "covered": "no",
    "highway": "bus_stop",
    "name": "Pascault",
    "public_transport": "platform",
    "route_ref": "9",
    "shelter": "no",
    "tactile_paving": "yes",
    "website": "https://www.agglobus.com/",
    "wheelchair": "yes"
  }
},
{
  "type": "node",
  "id": 4330942377,
  "lat": 47.0813394,
  "lon": 2.3471642,
  "tags": {
    "advertising": "no",
    "bench": "no",
    "bus": "yes",
    "covered": "no",
    "highway": "bus_stop",
    "name": "Pierrelay",
    "public_transport": "platform",
    "route_ref": "9",
    "shelter": "no",
    "tactile_paving": "no",
    "website": "https://www.agglobus.com/",
    "wheelchair": "limited",
    "wheelchair:description": "Trottoir bas (voire inexistant), mais tous les bus (sauf cas très exceptionnels) sont équipés au centre d'une rampe électrique."
  }
},
{
  "type": "node",
  "id": 4330942378,
  "lat": 47.0814344,
  "lon": 2.3471079,
  "tags": {
    "advertising": "no",
    "bench": "no",
    "bus": "yes",
    "covered": "no",
    "highway": "bus_stop",
    "name": "Pierrelay",
    "public_transport": "platform",
    "route_ref": "9",
    "shelter": "no",
    "tactile_paving": "no",
    "website": "https://www.agglobus.com/",
    "wheelchair": "limited",
    "wheelchair:description": "Trottoir bas (voire inexistant), mais tous les bus (sauf cas très exceptionnels) sont équipés au centre d'une rampe électrique."
  }
},
{
  "type": "node",
  "id": 4330942379,
  "lat": 47.0836037,
  "lon": 2.4184831,
  "tags": {
    "advertising": "no",
    "bench": "yes",
    "bus": "yes",
    "covered": "no",
    "highway": "bus_stop",
    "name": "Pignoux",
    "public_transport": "platform",
    "route_ref": "C-2-d3",
    "shelter": "yes",
    "tactile_paving": "no",
    "website": "https://www.agglobus.com/",
    "wheelchair": "yes"
  }
},
{
  "type": "node",
  "id": 4330942380,
  "lat": 47.0841443,
  "lon": 2.4199435,
  "tags": {
    "advertising": "poster_box",
    "bench": "yes",
    "bus": "yes",
    "covered": "no",
    "highway": "bus_stop",
    "name": "Pignoux",
    "public_transport": "platform",
    "route_ref": "2-7-d3",
    "shelter": "yes",
    "tactile_paving": "no",
    "website": "https://www.agglobus.com/",
    "wheelchair": "yes"
  }
},
{
  "type": "node",
  "id": 4330942385,
  "lat": 47.0935037,
  "lon": 2.4224970,
  "tags": {
    "advertising": "poster_box",
    "bench": "yes",
    "bus": "yes",
    "covered": "no",
    "highway": "bus_stop",
    "name": "Port Sec",
    "public_transport": "platform",
    "route_ref": "2-7-d3",
    "shelter": "yes",
    "tactile_paving": "no",
    "website": "https://www.agglobus.com/",
    "wheelchair": "limited",
    "wheelchair:description": "Trottoir bas (voire inexistant), mais tous les bus (sauf cas très exceptionnels) sont équipés au centre d'une rampe électrique."
  }
},
{
  "type": "node",
  "id": 4330942388,
  "lat": 47.0829823,
  "lon": 2.3871358,
  "tags": {
    "advertising": "poster_box",
    "bench": "yes",
    "bus": "yes",
    "covered": "no",
    "highway": "bus_stop",
    "name": "Prado",
    "public_transport": "platform",
    "route_ref": "B;6;8;9;10;13;16;Navette Prado;d4",
    "shelter": "yes",
    "tactile_paving": "no",
    "website": "https://www.agglobus.com/",
    "wheelchair": "limited",
    "wheelchair:description": "Trottoir bas (voire inexistant), mais tous les bus (sauf cas très exceptionnels) sont équipés au centre d'une rampe électrique."
  }
},
{
  "type": "node",
  "id": 4330943289,
  "lat": 47.0831229,
  "lon": 2.3875529,
  "tags": {
    "advertising": "no",
    "bench": "no",
    "bus": "yes",
    "covered": "no",
    "highway": "bus_stop",
    "name": "Prado",
    "public_transport": "platform",
    "route_ref": "B-Navette Prado-d4",
    "shelter": "no",
    "tactile_paving": "no",
    "website": "https://www.agglobus.com/",
    "wheelchair": "limited",
    "wheelchair:description": "Trottoir bas (voire inexistant), mais tous les bus (sauf cas très exceptionnels) sont équipés au centre d'une rampe électrique."
  }
},
{
  "type": "node",
  "id": 4330943290,
  "lat": 47.0820134,
  "lon": 2.3851510,
  "tags": {
    "advertising": "no",
    "bench": "no",
    "bus": "yes",
    "covered": "no",
    "highway": "bus_stop",
    "name": "Pré-Doulet",
    "public_transport": "platform",
    "route_ref": "6-8-9-10-13-16-Navette Prado-d4",
    "shelter": "no",
    "tactile_paving": "no",
    "website": "https://www.agglobus.com/",
    "wheelchair": "yes"
  }
},
{
  "type": "node",
  "id": 4330943291,
  "lat": 47.0820207,
  "lon": 2.3839507,
  "tags": {
    "advertising": "no",
    "bench": "no",
    "bus": "yes",
    "covered": "no",
    "highway": "bus_stop",
    "name": "Pré-Doulet",
    "public_transport": "platform",
    "shelter": "no",
    "tactile_paving": "yes",
    "website": "https://www.agglobus.com/",
    "wheelchair": "yes"
  }
},
{
  "type": "node",
  "id": 4330943292,
  "lat": 47.0817133,
  "lon": 2.4090108,
  "tags": {
    "advertising": "no",
    "bench": "no",
    "bus": "yes",
    "covered": "no",
    "highway": "bus_stop",
    "name": "Robespierre",
    "public_transport": "platform",
    "route_ref": "2-4-d3",
    "shelter": "no",
    "tactile_paving": "yes",
    "website": "https://www.agglobus.com/",
    "wheelchair": "yes"
  }
},
{
  "type": "node",
  "id": 4330943293,
  "lat": 47.0818010,
  "lon": 2.4097109,
  "tags": {
    "advertising": "poster_box",
    "bench": "yes",
    "bus": "yes",
    "covered": "no",
    "highway": "bus_stop",
    "name": "Robespierre",
    "public_transport": "platform",
    "route_ref": "2-4-d3",
    "shelter": "yes",
    "tactile_paving": "yes",
    "website": "https://www.agglobus.com/",
    "wheelchair": "yes"
  }
},
{
  "type": "node",
  "id": 4330943294,
  "lat": 47.0780114,
  "lon": 2.3793024,
  "tags": {
    "advertising": "no",
    "bench": "no",
    "bus": "yes",
    "covered": "no",
    "highway": "bus_stop",
    "name": "Saint-Exupéry",
    "public_transport": "platform",
    "route_ref": "6",
    "shelter": "no",
    "tactile_paving": "yes",
    "website": "https://www.agglobus.com/",
    "wheelchair": "yes"
  }
},
{
  "type": "node",
  "id": 4330943295,
  "lat": 47.0782402,
  "lon": 2.3800387,
  "tags": {
    "advertising": "no",
    "bench": "no",
    "bus": "yes",
    "covered": "no",
    "highway": "bus_stop",
    "name": "Saint-Exupéry",
    "public_transport": "platform",
    "route_ref": "6",
    "shelter": "no",
    "tactile_paving": "yes",
    "website": "https://www.agglobus.com/",
    "wheelchair": "yes"
  }
},
{
  "type": "node",
  "id": 4330943297,
  "lat": 47.0818398,
  "lon": 2.3559444,
  "tags": {
    "advertising": "no",
    "bench": "yes",
    "bus": "yes",
    "covered": "no",
    "highway": "bus_stop",
    "name": "Moulin Bâtard",
    "public_transport": "platform",
    "route_ref": "9",
    "shelter": "no",
    "tactile_paving": "yes",
    "website": "https://www.agglobus.com/",
    "wheelchair": "yes"
  }
},
{
  "type": "node",
  "id": 4330943298,
  "lat": 47.0820106,
  "lon": 2.3580231,
  "tags": {
    "advertising": "no",
    "bench": "yes",
    "bus": "yes",
    "covered": "no",
    "highway": "bus_stop",
    "name": "Moulin Bâtard",
    "public_transport": "platform",
    "route_ref": "9",
    "shelter": "no",
    "tactile_paving": "yes",
    "website": "https://www.agglobus.com/",
    "wheelchair": "yes"
  }
},
{
  "type": "node",
  "id": 4330943299,
  "lat": 47.0815704,
  "lon": 2.3685508,
  "tags": {
    "advertising": "no",
    "bench": "no",
    "bus": "yes",
    "covered": "no",
    "highway": "bus_stop",
    "name": "Tortu",
    "public_transport": "platform",
    "route_ref": "9",
    "shelter": "no",
    "tactile_paving": "no",
    "website": "https://www.agglobus.com/",
    "wheelchair": "yes"
  }
},
{
  "type": "node",
  "id": 4330943300,
  "lat": 47.0816599,
  "lon": 2.3693246,
  "tags": {
    "advertising": "no",
    "bench": "no",
    "bus": "yes",
    "covered": "no",
    "highway": "bus_stop",
    "name": "Tortu",
    "public_transport": "platform",
    "route_ref": "9",
    "shelter": "no",
    "tactile_paving": "no",
    "website": "https://www.agglobus.com/",
    "wheelchair": "yes"
  }
},
{
  "type": "node",
  "id": 4330943301,
  "lat": 47.0838479,
  "lon": 2.3757485,
  "tags": {
    "advertising": "no",
    "bench": "yes",
    "bus": "yes",
    "covered": "no",
    "highway": "bus_stop",
    "name": "Vauvert",
    "public_transport": "platform",
    "route_ref": "9",
    "shelter": "yes",
    "tactile_paving": "yes",
    "website": "https://www.agglobus.com/",
    "wheelchair": "yes"
  }
},
{
  "type": "node",
  "id": 4330943302,
  "lat": 47.0837028,
  "lon": 2.3767959,
  "tags": {
    "advertising": "no",
    "bench": "no",
    "bus": "yes",
    "covered": "no",
    "highway": "bus_stop",
    "name": "Vauvert",
    "public_transport": "platform",
    "route_ref": "9",
    "shelter": "no",
    "tactile_paving": "no",
    "website": "https://www.agglobus.com/",
    "wheelchair": "no",
    "wheelchair:description": "Trottoir bas (voire inexistant), mais tous les bus (sauf cas très exceptionnels) sont équipés au centre d'une rampe électrique."
  }
},
{
  "type": "node",
  "id": 4330943303,
  "lat": 47.0819393,
  "lon": 2.3606705,
  "tags": {
    "advertising": "no",
    "bench": "yes",
    "bus": "yes",
    "covered": "no",
    "highway": "bus_stop",
    "name": "Danjons",
    "public_transport": "platform",
    "route_ref": "9-VitaBus Soir",
    "shelter": "yes",
    "tactile_paving": "yes",
    "website": "https://www.agglobus.com/",
    "wheelchair": "yes"
  }
},
{
  "type": "node",
  "id": 4330943304,
  "lat": 47.0821211,
  "lon": 2.3618828,
  "tags": {
    "advertising": "no",
    "bench": "yes",
    "bus": "yes",
    "covered": "no",
    "highway": "bus_stop",
    "name": "Danjons",
    "public_transport": "platform",
    "route_ref": "9-VitaBus Soir",
    "shelter": "no",
    "tactile_paving": "yes",
    "website": "https://www.agglobus.com/",
    "wheelchair": "yes"
  }
},
{
  "type": "node",
  "id": 4330943306,
  "lat": 47.0810764,
  "lon": 2.3433421,
  "tags": {
    "advertising": "no",
    "bench": "yes",
    "bus": "yes",
    "covered": "no",
    "highway": "bus_stop",
    "name": "Écluse",
    "public_transport": "platform",
    "route_ref": "9",
    "shelter": "yes",
    "tactile_paving": "no",
    "website": "https://www.agglobus.com/",
    "wheelchair": "limited",
    "wheelchair:description": "Trottoir bas (voire inexistant), mais tous les bus (sauf cas très exceptionnels) sont équipés au centre d'une rampe électrique."
  }
},
{
  "type": "node",
  "id": 4330943307,
  "lat": 47.0811686,
  "lon": 2.3432240,
  "tags": {
    "advertising": "no",
    "bench": "no",
    "bus": "yes",
    "covered": "no",
    "highway": "bus_stop",
    "name": "Écluse",
    "public_transport": "platform",
    "route_ref": "9",
    "shelter": "no",
    "tactile_paving": "no",
    "website": "https://www.agglobus.com/",
    "wheelchair": "limited",
    "wheelchair:description": "Trottoir bas (voire inexistant), mais tous les bus (sauf cas très exceptionnels) sont équipés au centre d'une rampe électrique."
  }
},
{
  "type": "node",
  "id": 4331494129,
  "lat": 47.0935753,
  "lon": 2.3937025,
  "tags": {
    "advertising": "poster_box",
    "bench": "yes",
    "bus": "yes",
    "covered": "no",
    "highway": "bus_stop",
    "name": "Gare SNCF quai A",
    "public_transport": "platform",
    "route_ref": "A-B-C-d1-d2",
    "shelter": "yes",
    "tactile_paving": "yes",
    "website": "https://www.agglobus.com/",
    "wheelchair": "yes"
  }
},
{
  "type": "node",
  "id": 4331494130,
  "lat": 47.0937798,
  "lon": 2.3936851,
  "tags": {
    "advertising": "poster_box",
    "bench": "yes",
    "bus": "yes",
    "covered": "no",
    "highway": "bus_stop",
    "name": "Gare SNCF quai B",
    "public_transport": "platform",
    "route_ref": "A-B-C1-C2-d1-d2",
    "shelter": "yes",
    "tactile_paving": "yes",
    "website": "https://www.agglobus.com/",
    "wheelchair": "yes"
  }
},
{
  "type": "node",
  "id": 4331494140,
  "lat": 47.0854158,
  "lon": 2.3928710,
  "tags": {
    "advertising": "no",
    "bench": "yes",
    "bus": "yes",
    "covered": "no",
    "highway": "bus_stop",
    "name": "Planchat",
    "passenger_information_display": "yes",
    "public_transport": "platform",
    "route_ref": "A-B-C-3-4-10-12-15-d1-d2-d4",
    "shelter": "no",
    "tactile_paving": "no",
    "website": "https://www.agglobus.com/",
    "wheelchair": "limited",
    "wheelchair:description": "Trottoir bas (voire inexistant), mais tous les bus (sauf cas très exceptionnels) sont équipés au centre d'une rampe électrique."
  }
},
{
  "type": "node",
  "id": 4331494141,
  "lat": 47.0855200,
  "lon": 2.3930803,
  "tags": {
    "advertising": "no",
    "bench": "yes",
    "bus": "yes",
    "covered": "no",
    "highway": "bus_stop",
    "name": "Planchat",
    "passenger_information_display": "yes",
    "public_transport": "platform",
    "route_ref": "A-B-C-3-4-10-12-15-Navette Auron-Navette Prado-d1-d2-d4",
    "shelter": "yes",
    "tactile_paving": "no",
    "website": "https://www.agglobus.com/",
    "wheelchair": "limited",
    "wheelchair:description": "Trottoir bas (voire inexistant), mais tous les bus (sauf cas très exceptionnels) sont équipés au centre d'une rampe électrique."
  }
},
{
  "type": "node",
  "id": 4331494142,
  "lat": 47.0878859,
  "lon": 2.3928778,
  "tags": {
    "advertising": "no",
    "bench": "no",
    "bus": "yes",
    "covered": "no",
    "highway": "bus_stop",
    "name": "Poulies",
    "public_transport": "platform",
    "route_ref": "A-B-C-d1-d2-d4",
    "shelter": "no",
    "tactile_paving": "no",
    "website": "https://www.agglobus.com/",
    "wheelchair": "limited",
    "wheelchair:description": "Trottoir bas (voire inexistant), mais tous les bus (sauf cas très exceptionnels) sont équipés au centre d'une rampe électrique."
  }
},
{
  "type": "node",
  "id": 4331494143,
  "lat": 47.0879261,
  "lon": 2.3930206,
  "tags": {
    "advertising": "no",
    "bench": "yes",
    "bus": "yes",
    "covered": "no",
    "highway": "bus_stop",
    "name": "Poulies",
    "public_transport": "platform",
    "route_ref": "A-B-C-d1-d2-d4",
    "shelter": "no",
    "tactile_paving": "no",
    "website": "https://www.agglobus.com/",
    "wheelchair": "limited",
    "wheelchair:description": "Trottoir bas (voire inexistant), mais tous les bus (sauf cas très exceptionnels) sont équipés au centre d'une rampe électrique."
  }
},
{
  "type": "node",
  "id": 4331494146,
  "lat": 47.0913036,
  "lon": 2.3935456,
  "tags": {
    "advertising": "poster_box",
    "bench": "yes",
    "bus": "yes",
    "covered": "no",
    "highway": "bus_stop",
    "name": "Prés Fichaux",
    "public_transport": "platform",
    "route_ref": "A-B-C-3-4-d1-d2-d4",
    "shelter": "yes",
    "tactile_paving": "no",
    "website": "https://www.agglobus.com/",
    "wheelchair": "yes"
  }
},
{
  "type": "node",
  "id": 4331494147,
  "lat": 47.0913767,
  "lon": 2.3937676,
  "tags": {
    "advertising": "poster_box",
    "bench": "yes",
    "bus": "yes",
    "covered": "no",
    "highway": "bus_stop",
    "name": "Prés Fichaux",
    "public_transport": "platform",
    "route_ref": "A-B-C-3-4-d1-d2-d4",
    "shelter": "yes",
    "tactile_paving": "no",
    "website": "https://www.agglobus.com/",
    "wheelchair": "yes"
  }
},
{
  "type": "node",
  "id": 4332678365,
  "lat": 47.0744619,
  "lon": 2.3894594,
  "tags": {
    "advertising": "poster_box",
    "bench": "yes",
    "bus": "yes",
    "covered": "no",
    "highway": "bus_stop",
    "name": "Barbès",
    "public_transport": "platform",
    "route_ref": "3-d3",
    "shelter": "yes",
    "tactile_paving": "no",
    "website": "https://www.agglobus.com/",
    "wheelchair": "yes"
  }
},
{
  "type": "node",
  "id": 4332678366,
  "lat": 47.0791345,
  "lon": 2.3897089,
  "tags": {
    "advertising": "no",
    "bench": "no",
    "bus": "yes",
    "covered": "no",
    "highway": "bus_stop",
    "name": "Bardoux",
    "public_transport": "platform",
    "route_ref": "3-4-Navette Auron-d3",
    "shelter": "no",
    "tactile_paving": "yes",
    "website": "https://www.agglobus.com/",
    "wheelchair": "yes"
  }
},
{
  "type": "node",
  "id": 4332678367,
  "lat": 47.0793139,
  "lon": 2.3893771,
  "tags": {
    "advertising": "poster_box",
    "bench": "yes",
    "bus": "yes",
    "covered": "no",
    "highway": "bus_stop",
    "name": "Bardoux",
    "public_transport": "platform",
    "route_ref": "3-4-d3",
    "shelter": "yes",
    "tactile_paving": "yes",
    "website": "https://www.agglobus.com/",
    "wheelchair": "yes"
  }
},
{
  "type": "node",
  "id": 4332678369,
  "lat": 47.0723082,
  "lon": 2.3888814,
  "tags": {
    "advertising": "poster_box",
    "bench": "yes",
    "bus": "yes",
    "covered": "no",
    "highway": "bus_stop",
    "name": "Beugnon",
    "public_transport": "platform",
    "route_ref": "3-d3",
    "shelter": "yes",
    "tactile_paving": "no",
    "website": "https://www.agglobus.com/",
    "wheelchair": "limited",
    "wheelchair:description": "Trottoir bas (voire inexistant), mais tous les bus (sauf cas très exceptionnels) sont équipés au centre d'une rampe électrique."
  }
},
{
  "type": "node",
  "id": 4332678378,
  "lat": 47.0652951,
  "lon": 2.3867981,
  "tags": {
    "advertising": "no",
    "bench": "no",
    "bus": "yes",
    "covered": "no",
    "highway": "bus_stop",
    "name": "Jean Brivot",
    "public_transport": "platform",
    "route_ref": "3-13-d3",
    "shelter": "no",
    "tactile_paving": "yes",
    "website": "https://www.agglobus.com/",
    "wheelchair": "yes"
  }
},
{
  "type": "node",
  "id": 4332678379,
  "lat": 47.0653605,
  "lon": 2.3869435,
  "tags": {
    "advertising": "no",
    "bench": "yes",
    "bus": "yes",
    "covered": "no",
    "highway": "bus_stop",
    "name": "Jean Brivot",
    "public_transport": "platform",
    "route_ref": "3-13-d3",
    "shelter": "yes",
    "tactile_paving": "yes",
    "website": "https://www.agglobus.com/",
    "wheelchair": "yes"
  }
},
{
  "type": "node",
  "id": 4332678381,
  "lat": 47.0686993,
  "lon": 2.3878876,
  "tags": {
    "advertising": "poster_box",
    "bench": "yes",
    "bus": "yes",
    "covered": "no",
    "highway": "bus_stop",
    "name": "Jules Guesde",
    "public_transport": "platform",
    "route_ref": "3-13-d3",
    "shelter": "yes",
    "tactile_paving": "yes",
    "website": "https://www.agglobus.com/",
    "wheelchair": "yes"
  }
},
{
  "type": "node",
  "id": 4332678385,
  "lat": 47.0778778,
  "lon": 2.3899744,
  "tags": {
    "advertising": "no",
    "bench": "no",
    "bus": "yes",
    "covered": "no",
    "highway": "bus_stop",
    "name": "Théophile Lamy",
    "public_transport": "platform",
    "route_ref": "3-Navette Auron-d3",
    "shelter": "no",
    "tactile_paving": "yes",
    "website": "https://www.agglobus.com/",
    "wheelchair": "yes"
  }
},
{
  "type": "node",
  "id": 4332679296,
  "lat": 47.0633215,
  "lon": 2.3863990,
  "tags": {
    "advertising": "poster_box",
    "bench": "yes",
    "bus": "yes",
    "covered": "no",
    "highway": "bus_stop",
    "name": "Rolland Garros",
    "public_transport": "platform",
    "route_ref": "3-13-d3-VitaBus Soir",
    "shelter": "yes",
    "tactile_paving": "no",
    "website": "https://www.agglobus.com/",
    "wheelchair": "yes"
  }
},
{
  "type": "node",
  "id": 4332679297,
  "lat": 47.0633891,
  "lon": 2.3862698,
  "tags": {
    "advertising": "no",
    "bench": "no",
    "bus": "yes",
    "covered": "no",
    "highway": "bus_stop",
    "name": "Rolland Garros",
    "public_transport": "platform",
    "route_ref": "3-13-d3-VitaBus Soir",
    "shelter": "no",
    "tactile_paving": "no",
    "website": "https://www.agglobus.com/",
    "wheelchair": "yes"
  }
},
{
  "type": "node",
  "id": 4334752686,
  "lat": 47.0643190,
  "lon": 2.4026852,
  "tags": {
    "advertising": "no",
    "bench": "yes",
    "bus": "yes",
    "covered": "no",
    "highway": "bus_stop",
    "name": "Allende",
    "public_transport": "platform",
    "route_ref": "A-d2",
    "shelter": "yes",
    "tactile_paving": "no",
    "website": "https://www.agglobus.com/",
    "wheelchair": "yes"
  }
},
{
  "type": "node",
  "id": 4334752687,
  "lat": 47.0644158,
  "lon": 2.4026115,
  "tags": {
    "advertising": "no",
    "bench": "no",
    "bus": "yes",
    "covered": "no",
    "highway": "bus_stop",
    "name": "Allende",
    "public_transport": "platform",
    "route_ref": "A-d2",
    "shelter": "no",
    "tactile_paving": "no",
    "website": "https://www.agglobus.com/",
    "wheelchair": "yes"
  }
},
{
  "type": "node",
  "id": 4334752688,
  "lat": 47.0615235,
  "lon": 2.4084909,
  "tags": {
    "advertising": "poster_box",
    "bench": "yes",
    "bus": "yes",
    "covered": "no",
    "highway": "bus_stop",
    "name": "Bourdelle",
    "public_transport": "platform",
    "route_ref": "A-d2",
    "shelter": "yes",
    "tactile_paving": "yes",
    "website": "https://www.agglobus.com/",
    "wheelchair": "yes"
  }
},
{
  "type": "node",
  "id": 4334755689,
  "lat": 47.0616706,
  "lon": 2.4083434,
  "tags": {
    "advertising": "no",
    "bench": "no",
    "bus": "yes",
    "covered": "no",
    "highway": "bus_stop",
    "name": "Bourdelle",
    "public_transport": "platform",
    "route_ref": "A-d2",
    "shelter": "no",
    "tactile_paving": "yes",
    "website": "https://www.agglobus.com/",
    "wheelchair": "yes"
  }
},
{
  "type": "node",
  "id": 4334755690,
  "lat": 47.0770389,
  "lon": 2.4035814,
  "tags": {
    "advertising": "no",
    "bench": "no",
    "bus": "yes",
    "covered": "no",
    "highway": "bus_stop",
    "name": "Jean Baffier",
    "public_transport": "platform",
    "route_ref": "Navette Auron",
    "shelter": "no",
    "tactile_paving": "no",
    "website": "https://www.agglobus.com/",
    "wheelchair": "yes"
  }
},
{
  "type": "node",
  "id": 4334755691,
  "lat": 47.1065348,
  "lon": 2.4117665,
  "tags": {
    "advertising": "no",
    "bench": "yes",
    "bus": "yes",
    "covered": "no",
    "highway": "bus_stop",
    "name": "Corneille",
    "public_transport": "platform",
    "route_ref": "A-10-d1",
    "shelter": "no",
    "tactile_paving": "yes",
    "website": "https://www.agglobus.com/",
    "wheelchair": "yes"
  }
},
{
  "type": "node",
  "id": 4334755692,
  "lat": 47.1060427,
  "lon": 2.4112207,
  "tags": {
    "advertising": "poster_box",
    "bench": "yes",
    "bus": "yes",
    "covered": "no",
    "highway": "bus_stop",
    "name": "Corneille",
    "public_transport": "platform",
    "route_ref": "A-10-d1",
    "shelter": "yes",
    "tactile_paving": "yes",
    "website": "https://www.agglobus.com/",
    "wheelchair": "yes"
  }
},
{
  "type": "node",
  "id": 4334755693,
  "lat": 47.1045604,
  "lon": 2.4053654,
  "tags": {
    "advertising": "poster_box",
    "bench": "yes",
    "bus": "yes",
    "covered": "no",
    "highway": "bus_stop",
    "name": "Cothenet",
    "public_transport": "platform",
    "route_ref": "A-3-7-d1",
    "shelter": "yes",
    "tactile_paving": "yes",
    "website": "https://www.agglobus.com/",
    "wheelchair": "yes"
  }
},
{
  "type": "node",
  "id": 4334755694,
  "lat": 47.1045849,
  "lon": 2.4050758,
  "tags": {
    "advertising": "poster_box",
    "bench": "yes",
    "bus": "yes",
    "covered": "no",
    "highway": "bus_stop",
    "name": "Cothenet",
    "public_transport": "platform",
    "route_ref": "A-3-7-d1",
    "shelter": "yes",
    "tactile_paving": "yes",
    "website": "https://www.agglobus.com/",
    "wheelchair": "yes"
  }
},
{
  "type": "node",
  "id": 4334755695,
  "lat": 47.1091800,
  "lon": 2.4133732,
  "tags": {
    "bus": "yes",
    "highway": "bus_stop",
    "name": "Eschbach",
    "public_transport": "platform",
    "route_ref": "A-10-d1"
  }
},
{
  "type": "node",
  "id": 4334755696,
  "lat": 47.1090605,
  "lon": 2.4134858,
  "tags": {
    "bus": "yes",
    "highway": "bus_stop",
    "name": "Eschbach",
    "public_transport": "platform",
    "route_ref": "A-10-d1"
  }
},
{
  "type": "node",
  "id": 4334755697,
  "lat": 47.0786860,
  "lon": 2.3988986,
  "tags": {
    "advertising": "poster_box",
    "bench": "yes",
    "bus": "yes",
    "covered": "no",
    "highway": "bus_stop",
    "name": "Europe - André Malraux",
    "public_transport": "platform",
    "route_ref": "A-B-C-12-15-Navette Avaricum-d1-d2-VitaBus Soir",
    "shelter": "yes",
    "tactile_paving": "no",
    "website": "https://www.agglobus.com/",
    "wheelchair": "limited"
  }
},
{
  "type": "node",
  "id": 4334755698,
  "lat": 47.0761995,
  "lon": 2.4052310,
  "tags": {
    "advertising": "no",
    "bench": "no",
    "bus": "yes",
    "covered": "no",
    "highway": "bus_stop",
    "name": "Foch",
    "public_transport": "platform",
    "route_ref": "<vide>",
    "shelter": "no",
    "tactile_paving": "no",
    "website": "https://www.agglobus.com/",
    "wheelchair": "yes"
  }
},
{
  "type": "node",
  "id": 4334755699,
  "lat": 47.1121620,
  "lon": 2.4174961,
  "tags": {
    "advertising": "no",
    "bench": "yes",
    "bus": "yes",
    "covered": "no",
    "highway": "bus_stop",
    "name": "Foulonne",
    "public_transport": "platform",
    "route_ref": "A-B-7-d1-d4-d5",
    "shelter": "yes",
    "tactile_paving": "no",
    "website": "https://www.agglobus.com/",
    "wheelchair": "limited",
    "wheelchair:description": "Trottoir bas (voire inexistant), mais tous les bus (sauf cas très exceptionnels) sont équipés au centre d'une rampe électrique."
  }
},
{
  "type": "node",
  "id": 4334755700,
  "lat": 47.0581085,
  "lon": 2.4064859,
  "tags": {
    "advertising": "no",
    "bench": "no",
    "bus": "yes",
    "covered": "no",
    "highway": "bus_stop",
    "name": "Hippolyte Boyer",
    "public_transport": "platform",
    "route_ref": "A-d2",
    "shelter": "no",
    "tactile_paving": "no",
    "website": "https://www.agglobus.com/",
    "wheelchair": "yes"
  }
},
{
  "type": "node",
  "id": 4334755701,
  "lat": 47.0581733,
  "lon": 2.4065999,
  "tags": {
    "advertising": "no",
    "bench": "yes",
    "bus": "yes",
    "covered": "no",
    "highway": "bus_stop",
    "name": "Hippolyte Boyer",
    "public_transport": "platform",
    "route_ref": "A-d2",
    "shelter": "yes",
    "tactile_paving": "no",
    "website": "https://www.agglobus.com/",
    "wheelchair": "yes"
  }
},
{
  "type": "node",
  "id": 4334755702,
  "lat": 47.1026050,
  "lon": 2.4083052,
  "tags": {
    "advertising": "no",
    "bench": "no",
    "bus": "yes",
    "covered": "no",
    "highway": "bus_stop",
    "name": "Jean Moulin",
    "public_transport": "platform",
    "route_ref": "A-7-d1-d5",
    "shelter": "no",
    "tactile_paving": "yes",
    "website": "https://www.agglobus.com/",
    "wheelchair": "yes"
  }
},
{
  "type": "node",
  "id": 4334755703,
  "lat": 47.1027885,
  "lon": 2.4081657,
  "tags": {
    "advertising": "no",
    "bench": "yes",
    "bus": "yes",
    "covered": "no",
    "highway": "bus_stop",
    "name": "Jean Moulin",
    "public_transport": "platform",
    "route_ref": "A-7-d1-d5",
    "shelter": "yes",
    "tactile_paving": "yes",
    "website": "https://www.agglobus.com/",
    "wheelchair": "yes"
  }
},
{
  "type": "node",
  "id": 4334755704,
  "lat": 47.0779915,
  "lon": 2.4020942,
  "tags": {
    "advertising": "poster_box",
    "bench": "yes",
    "bus": "yes",
    "covered": "no",
    "highway": "bus_stop",
    "name": "Jeanne d'Arc",
    "public_transport": "platform",
    "route_ref": "Navette Auron",
    "shelter": "yes",
    "tactile_paving": "no",
    "website": "https://www.agglobus.com/",
    "wheelchair": "limited",
    "wheelchair:description": "Trottoir bas (voire inexistant), mais tous les bus (sauf cas très exceptionnels) sont équipés au centre d'une rampe électrique."
  }
},
{
  "type": "node",
  "id": 4334755705,
  "lat": 47.0745660,
  "lon": 2.4040840,
  "tags": {
    "advertising": "no",
    "bench": "no",
    "bus": "yes",
    "covered": "no",
    "highway": "bus_stop",
    "name": "Joffre",
    "public_transport": "platform",
    "route_ref": "A-B-C-12-15-d1-d2",
    "shelter": "no",
    "tactile_paving": "no",
    "website": "https://www.agglobus.com/",
    "wheelchair": "limited",
    "wheelchair:description": "Trottoir bas (voire inexistant), mais tous les bus (sauf cas très exceptionnels) sont équipés au centre d'une rampe électrique."
  }
},
{
  "type": "node",
  "id": 4334755707,
  "lat": 47.0564904,
  "lon": 2.4072759,
  "tags": {
    "advertising": "no",
    "bench": "no",
    "bus": "yes",
    "covered": "no",
    "highway": "bus_stop",
    "name": "La Rottée",
    "public_transport": "platform",
    "route_ref": "A-d2",
    "shelter": "no",
    "tactile_paving": "yes",
    "website": "https://www.agglobus.com/",
    "wheelchair": "yes"
  }
},
{
  "type": "node",
  "id": 4334755708,
  "lat": 47.0637708,
  "lon": 2.4042570,
  "tags": {
    "advertising": "no",
    "bench": "yes",
    "bus": "yes",
    "covered": "no",
    "highway": "bus_stop",
    "name": "Labonne",
    "public_transport": "platform",
    "route_ref": "A-d2",
    "shelter": "yes",
    "tactile_paving": "yes",
    "website": "https://www.agglobus.com/",
    "wheelchair": "yes"
  }
},
{
  "type": "node",
  "id": 4334755709,
  "lat": 47.0639033,
  "lon": 2.4042906,
  "tags": {
    "advertising": "no",
    "bench": "no",
    "bus": "yes",
    "covered": "no",
    "highway": "bus_stop",
    "name": "Labonne",
    "public_transport": "platform",
    "route_ref": "A-d2",
    "shelter": "no",
    "tactile_paving": "yes",
    "website": "https://www.agglobus.com/",
    "wheelchair": "yes"
  }
},
{
  "type": "node",
  "id": 4334755710,
  "lat": 47.0672303,
  "lon": 2.4133926,
  "tags": {
    "advertising": "no",
    "bench": "yes",
    "bus": "yes",
    "covered": "no",
    "highway": "bus_stop",
    "name": "Léo Lagrange",
    "public_transport": "platform",
    "route_ref": "A-12-15-d2",
    "shelter": "no",
    "tactile_paving": "no",
    "website": "https://www.agglobus.com/",
    "wheelchair": "limited",
    "wheelchair:description": "Trottoir bas (voire inexistant), mais tous les bus (sauf cas très exceptionnels) sont équipés au centre d'une rampe électrique."
  }
},
{
  "type": "node",
  "id": 4334755711,
  "lat": 47.0672669,
  "lon": 2.4135200,
  "tags": {
    "advertising": "no",
    "bench": "no",
    "bus": "yes",
    "covered": "no",
    "highway": "bus_stop",
    "name": "Léo Lagrange",
    "public_transport": "platform",
    "route_ref": "A-12-15-d2",
    "shelter": "no",
    "tactile_paving": "no",
    "website": "https://www.agglobus.com/",
    "wheelchair": "limited",
    "wheelchair:description": "Trottoir bas (voire inexistant), mais tous les bus (sauf cas très exceptionnels) sont équipés au centre d'une rampe électrique."
  }
},
{
  "type": "node",
  "id": 4334755712,
  "lat": 47.1102589,
  "lon": 2.4157080,
  "tags": {
    "bus": "yes",
    "highway": "bus_stop",
    "name": "Maréchal Juin",
    "public_transport": "platform",
    "route_ref": "A-3-d1-d5"
  }
},
{
  "type": "node",
  "id": 4334755714,
  "lat": 47.1105099,
  "lon": 2.4165664,
  "tags": {
    "advertising": "no",
    "bench": "yes",
    "bus": "yes",
    "covered": "no",
    "highway": "bus_stop",
    "name": "Maréchal Juin",
    "public_transport": "platform",
    "route_ref": "3-7-d1",
    "shelter": "no",
    "tactile_paving": "yes",
    "website": "https://www.agglobus.com/",
    "wheelchair": "yes"
  }
},
{
  "type": "node",
  "id": 4334755715,
  "lat": 47.0689906,
  "lon": 2.4148504,
  "tags": {
    "advertising": "no",
    "bench": "yes",
    "bus": "yes",
    "covered": "no",
    "highway": "bus_stop",
    "name": "Point Zéro",
    "public_transport": "platform",
    "route_ref": "A-7-d2",
    "shelter": "yes",
    "tactile_paving": "yes",
    "website": "https://www.agglobus.com/",
    "wheelchair": "yes"
  }
},
{
  "type": "node",
  "id": 4334755717,
  "lat": 47.0696053,
  "lon": 2.4143032,
  "tags": {
    "advertising": "poster_box",
    "bench": "yes",
    "bus": "yes",
    "covered": "no",
    "highway": "bus_stop",
    "name": "Point Zéro",
    "public_transport": "platform",
    "route_ref": "A-7-d2",
    "shelter": "yes",
    "tactile_paving": "yes",
    "website": "https://www.agglobus.com/",
    "wheelchair": "yes"
  }
},
{
  "type": "node",
  "id": 4334755718,
  "lat": 47.0645355,
  "lon": 2.4135951,
  "tags": {
    "advertising": "no",
    "bench": "yes",
    "bus": "yes",
    "covered": "no",
    "highway": "bus_stop",
    "name": "Renoir",
    "public_transport": "platform",
    "route_ref": "A-12-15-d2",
    "shelter": "yes",
    "tactile_paving": "no",
    "website": "https://www.agglobus.com/",
    "wheelchair": "yes"
  }
},
{
  "type": "node",
  "id": 4334755719,
  "lat": 47.0646095,
  "lon": 2.4134624,
  "tags": {
    "advertising": "no",
    "bench": "no",
    "bus": "yes",
    "covered": "no",
    "highway": "bus_stop",
    "name": "Renoir",
    "public_transport": "platform",
    "route_ref": "A-12-15-d2",
    "shelter": "no",
    "tactile_paving": "yes",
    "website": "https://www.agglobus.com/",
    "wheelchair": "yes"
  }
},
{
  "type": "node",
  "id": 4334755720,
  "lat": 47.1046506,
  "lon": 2.4102631,
  "tags": {
    "advertising": "no",
    "bench": "yes",
    "bus": "yes",
    "covered": "no",
    "highway": "bus_stop",
    "name": "Romain Rolland",
    "public_transport": "platform",
    "route_ref": "A-10-d1",
    "shelter": "yes",
    "tactile_paving": "yes",
    "website": "https://www.agglobus.com/",
    "wheelchair": "yes"
  }
},
{
  "type": "node",
  "id": 4334755721,
  "lat": 47.1043732,
  "lon": 2.4102444,
  "tags": {
    "advertising": "poster_box",
    "bench": "yes",
    "bus": "yes",
    "covered": "no",
    "highway": "bus_stop",
    "name": "Romain Rolland",
    "public_transport": "platform",
    "route_ref": "A-10-d1",
    "shelter": "yes",
    "tactile_paving": "yes",
    "website": "https://www.agglobus.com/",
    "wheelchair": "yes"
  }
},
{
  "type": "node",
  "id": 4334755722,
  "lat": 47.1019788,
  "lon": 2.4006179,
  "tags": {
    "advertising": "no",
    "bench": "yes",
    "bus": "yes",
    "covered": "no",
    "highway": "bus_stop",
    "name": "Sente aux Loups",
    "public_transport": "platform",
    "route_ref": "A-7",
    "shelter": "yes",
    "tactile_paving": "no",
    "website": "https://www.agglobus.com/",
    "wheelchair": "yes"
  }
},
{
  "type": "node",
  "id": 4334755724,
  "lat": 47.1021355,
  "lon": 2.4007300,
  "tags": {
    "advertising": "no",
    "bench": "yes",
    "bus": "yes",
    "covered": "no",
    "highway": "bus_stop",
    "name": "Sente aux Loups",
    "public_transport": "platform",
    "route_ref": "A-7",
    "shelter": "yes",
    "tactile_paving": "yes",
    "website": "https://www.agglobus.com/",
    "wheelchair": "yes"
  }
},
{
  "type": "node",
  "id": 4334755725,
  "lat": 47.0767256,
  "lon": 2.4004811,
  "tags": {
    "advertising": "poster_box",
    "bench": "yes",
    "bus": "yes",
    "covered": "no",
    "highway": "bus_stop",
    "name": "Séraucourt",
    "public_transport": "platform",
    "route_ref": "A-B-C-12-15-d1-d2",
    "shelter": "yes",
    "tactile_paving": "no",
    "website": "https://www.agglobus.com/",
    "wheelchair": "limited",
    "wheelchair:description": "Trottoir bas (voire inexistant), mais tous les bus (sauf cas très exceptionnels) sont équipés au centre d'une rampe électrique."
  }
},
{
  "type": "node",
  "id": 4334755726,
  "lat": 47.0626609,
  "lon": 2.3992426,
  "tags": {
    "advertising": "poster_box",
    "bench": "yes",
    "bus": "yes",
    "covered": "no",
    "highway": "bus_stop",
    "name": "Val d'Auron",
    "public_transport": "platform",
    "route_ref": "A-d2-VitaBus Soir",
    "shelter": "yes",
    "tactile_paving": "yes",
    "website": "https://www.agglobus.com/",
    "wheelchair": "yes"
  }
},
{
  "type": "node",
  "id": 4334755727,
  "lat": 47.0627468,
  "lon": 2.3994049,
  "tags": {
    "advertising": "poster_box",
    "bench": "yes",
    "bus": "yes",
    "covered": "no",
    "highway": "bus_stop",
    "name": "Val d'Auron",
    "public_transport": "platform",
    "route_ref": "A-d2-VitaBus Soir",
    "shelter": "yes",
    "tactile_paving": "yes",
    "website": "https://www.agglobus.com/",
    "wheelchair": "yes"
  }
},
{
  "type": "node",
  "id": 4335688330,
  "lat": 47.0588609,
  "lon": 2.3907438,
  "tags": {
    "advertising": "no",
    "bench": "yes",
    "bus": "yes",
    "covered": "no",
    "highway": "bus_stop",
    "name": "Archives",
    "public_transport": "platform",
    "route_ref": "3-d3",
    "shelter": "yes",
    "tactile_paving": "no",
    "website": "https://www.agglobus.com/",
    "wheelchair": "limited",
    "wheelchair:description": "Trottoir bas (voire inexistant), mais tous les bus (sauf cas très exceptionnels) sont équipés au centre d'une rampe électrique."
  }
},