{
  "version": 0.6,
  "generator": "Overpass API 0.7.57.1 74a55df1",
  "osm3s": {
    "timestamp_osm_base": "2022-02-13T13:28:39Z",
    "timestamp_areas_base": "2022-02-13T06:29:09Z",
    "copyright": "The data included in this document is from www.openstreetmap.org. The data is made available under ODbL."
  },
  "elements": [

{
  "type": "node",
  "id": 22594988,
  "lat": 43.7199464,
  "lon": 7.1863621,
  "tags": {
    "bus": "yes",
    "highway": "bus_stop",
    "name": "Lingostière / Gare CP",
    "public_transport": "stop_position"
  }
},
{
  "type": "node",
  "id": 24340774,
  "lat": 43.6993707,
  "lon": 7.2642157,
  "tags": {
    "bus": "yes",
    "highway": "bus_stop",
    "name": "Alphonse Karr",
    "public_transport": "stop_position"
  }
},
{
  "type": "node",
  "id": 25343546,
  "lat": 43.6981839,
  "lon": 7.2878613,
  "tags": {
    "bench": "no",
    "bus": "yes",
    "covered": "no",
    "highway": "bus_stop",
    "name": "Carnot",
    "network": "Lignes d'Azur",
    "public_transport": "stop_position",
    "shelter": "no"
  }
},
{
  "type": "node",
  "id": 25345712,
  "lat": 43.6987400,
  "lon": 7.2938339,
  "tags": {
    "bus": "yes",
    "highway": "bus_stop",
    "name": "Urbain Bosio",
    "public_transport": "stop_position"
  }
},
{
  "type": "node",
  "id": 247921509,
  "lat": 43.7082104,
  "lon": 7.2133080,
  "tags": {
    "bus": "yes",
    "highway": "bus_stop",
    "name": "Lenval Pouponnière",
    "public_transport": "stop_position"
  }
},
{
  "type": "node",
  "id": 247921511,
  "lat": 43.7083472,
  "lon": 7.2145605,
  "tags": {
    "bus": "yes",
    "highway": "bus_stop",
    "name": "Ginestière",
    "network": "Lignes d'Azur",
    "public_transport": "stop_position"
  }
},
{
  "type": "node",
  "id": 247921675,
  "lat": 43.7117097,
  "lon": 7.2163331,
  "tags": {
    "bus": "yes",
    "highway": "bus_stop",
    "name": "La Tourelle",
    "public_transport": "stop_position"
  }
},
{
  "type": "node",
  "id": 251777417,
  "lat": 43.6956616,
  "lon": 7.2354449,
  "tags": {
    "bus": "yes",
    "highway": "bus_stop",
    "name": "Boulangerie",
    "public_transport": "stop_position"
  }
},
{
  "type": "node",
  "id": 257157786,
  "lat": 43.6988913,
  "lon": 7.2277317,
  "tags": {
    "bus": "yes",
    "highway": "bus_stop",
    "name": "Uletta",
    "public_transport": "stop_position"
  }
},
{
  "type": "node",
  "id": 257157791,
  "lat": 43.7003924,
  "lon": 7.2249372,
  "tags": {
    "bus": "yes",
    "highway": "bus_stop",
    "name": "Le Foyer",
    "public_transport": "stop_position"
  }
},
{
  "type": "node",
  "id": 257157797,
  "lat": 43.7032211,
  "lon": 7.2215434,
  "tags": {
    "bus": "yes",
    "highway": "bus_stop",
    "name": "Usine Canta Galet",
    "public_transport": "stop_position"
  }
},
{
  "type": "node",
  "id": 257157807,
  "lat": 43.7092087,
  "lon": 7.2192770,
  "tags": {
    "bus": "yes",
    "highway": "bus_stop",
    "name": "Fougères",
    "public_transport": "stop_position"
  }
},
{
  "type": "node",
  "id": 259806106,
  "lat": 43.6923770,
  "lon": 7.2106884,
  "tags": {
    "bus": "yes",
    "highway": "bus_stop",
    "name": "Azura Park",
    "public_transport": "stop_position"
  }
},
{
  "type": "node",
  "id": 259806116,
  "lat": 43.6906117,
  "lon": 7.2138641,
  "tags": {
    "bus": "yes",
    "highway": "bus_stop",
    "name": "Pignata",
    "public_transport": "stop_position"
  }
},
{
  "type": "node",
  "id": 259806128,
  "lat": 43.6874850,
  "lon": 7.2122890,
  "tags": {
    "bus": "yes",
    "highway": "bus_stop",
    "name": "Ècole Fabron",
    "public_transport": "stop_position"
  }
},
{
  "type": "node",
  "id": 259806135,
  "lat": 43.6858961,
  "lon": 7.2145267,
  "tags": {
    "bus": "yes",
    "highway": "bus_stop",
    "name": "Belle Terres",
    "public_transport": "stop_position"
  }
},
{
  "type": "node",
  "id": 259806149,
  "lat": 43.6846337,
  "lon": 7.2152757,
  "tags": {
    "bus": "yes",
    "highway": "bus_stop",
    "name": "Dufy",
    "public_transport": "stop_position"
  }
},
{
  "type": "node",
  "id": 259806158,
  "lat": 43.6831971,
  "lon": 7.2179398,
  "tags": {
    "bus": "yes",
    "highway": "bus_stop",
    "name": "Place de la Lanterne",
    "public_transport": "stop_position"
  }
},
{
  "type": "node",
  "id": 259806195,
  "lat": 43.6815801,
  "lon": 7.2145821,
  "tags": {
    "bus": "yes",
    "highway": "bus_stop",
    "name": "Primavera",
    "public_transport": "stop_position"
  }
},
{
  "type": "node",
  "id": 259806206,
  "lat": 43.6803412,
  "lon": 7.2155190,
  "tags": {
    "bus": "yes",
    "highway": "bus_stop",
    "name": "Raoul Dufy",
    "public_transport": "stop_position"
  }
},
{
  "type": "node",
  "id": 259806211,
  "lat": 43.6790328,
  "lon": 7.2178231,
  "tags": {
    "bus": "yes",
    "highway": "bus_stop",
    "name": "Provinces",
    "public_transport": "stop_position"
  }
},
{
  "type": "node",
  "id": 259980988,
  "lat": 43.7147249,
  "lon": 7.2176293,
  "tags": {
    "bus": "yes",
    "highway": "bus_stop",
    "name": "Durandy",
    "public_transport": "stop_position"
  }
},
{
  "type": "node",
  "id": 259980994,
  "lat": 43.7170631,
  "lon": 7.2186228,
  "tags": {
    "bus": "yes",
    "highway": "bus_stop",
    "local_ref": "Ligne 60",
    "name": "La Marbrerie",
    "public_transport": "stop_position"
  }
},
{
  "type": "node",
  "id": 275661812,
  "lat": 43.6811245,
  "lon": 7.2248078,
  "tags": {
    "bus": "yes",
    "highway": "bus_stop",
    "name": "Somora",
    "public_transport": "stop_position"
  }
},
{
  "type": "node",
  "id": 275662013,
  "lat": 43.7005201,
  "lon": 7.2677592,
  "tags": {
    "bus": "yes",
    "highway": "bus_stop",
    "name": "Jean Médecin",
    "public_transport": "stop_position"
  }
},
{
  "type": "node",
  "id": 276007240,
  "lat": 43.7171093,
  "lon": 7.2722023,
  "tags": {
    "bus": "yes",
    "highway": "bus_stop",
    "name": "Prince de Galles",
    "public_transport": "stop_position"
  }
},
{
  "type": "node",
  "id": 276013627,
  "lat": 43.7046003,
  "lon": 7.2629083,
  "tags": {
    "bench": "yes",
    "bus": "yes",
    "description": "Arrêts 12 99 vers l'est",
    "highway": "bus_stop",
    "name": "Gare SNCF",
    "passenger_information_display": "yes",
    "public_transport": "platform",
    "shelter": "yes",
    "tactile_paving": "yes"
  }
},
{
  "type": "node",
  "id": 276636349,
  "lat": 43.7173453,
  "lon": 7.2723401,
  "tags": {
    "bench": "yes",
    "bus": "yes",
    "highway": "bus_stop",
    "name": "Prince de Galles",
    "public_transport": "platform",
    "shelter": "yes"
  }
},
{
  "type": "node",
  "id": 276636376,
  "lat": 43.7168666,
  "lon": 7.2720701,
  "tags": {
    "bench": "yes",
    "bus": "yes",
    "highway": "bus_stop",
    "name": "Prince de Galles",
    "public_transport": "platform",
    "shelter": "yes"
  }
},
{
  "type": "node",
  "id": 276637990,
  "lat": 43.7201477,
  "lon": 7.2744938,
  "tags": {
    "bench": "yes",
    "bus": "yes",
    "highway": "bus_stop",
    "name": "Arènes / Musée Matisse",
    "network": "Lignes d'Azur",
    "network:wikidata": "Q3240177",
    "network:wikipedia": "fr:Lignes d'Azur",
    "public_transport": "platform",
    "shelter": "yes"
  }
},
{
  "type": "node",
  "id": 276638716,
  "lat": 43.7180903,
  "lon": 7.2749062,
  "tags": {
    "bus": "yes",
    "highway": "bus_stop",
    "name": "Édouard VII",
    "network": "Lignes d'Azur",
    "public_transport": "platform"
  }
},
{
  "type": "node",
  "id": 276689400,
  "lat": 43.7066537,
  "lon": 7.2770749,
  "tags": {
    "bus": "yes",
    "description": "Bus 37 direction Résidence Universitaire Montebello",
    "highway": "bus_stop",
    "name": "Mendiguren",
    "public_transport": "platform"
  }
},
{
  "type": "node",
  "id": 276878650,
  "lat": 43.7042259,
  "lon": 7.2561980,
  "tags": {
    "bench": "yes",
    "bus": "yes",
    "highway": "bus_stop",
    "lit": "yes",
    "name": "Parc Impérial / Gambetta",
    "network": "Lignes d'Azur",
    "public_transport": "platform",
    "shelter": "yes",
    "tactile_paving": "yes",
    "wheelchair": "yes"
  }
},
{
  "type": "node",
  "id": 276881860,
  "lat": 43.7155538,
  "lon": 7.2625940,
  "tags": {
    "bus": "yes",
    "highway": "bus_stop",
    "name": "Vallot",
    "network": "Lignes d'Azur",
    "network:wikidata": "Q3240177",
    "network:wikipedia": "fr:Lignes d'Azur",
    "public_transport": "platform",
    "tactile_paving": "yes"
  }
},
{
  "type": "node",
  "id": 276948911,
  "lat": 43.7144990,
  "lon": 7.2767509,
  "tags": {
    "bench": "no",
    "bin": "no",
    "bus": "yes",
    "highway": "bus_stop",
    "name": "Les Tennis",
    "network": "Lignes d'Azur",
    "public_transport": "platform",
    "shelter": "no",
    "tactile_paving": "no"
  }
},
{
  "type": "node",
  "id": 276948938,
  "lat": 43.7146654,
  "lon": 7.2768459,
  "tags": {
    "bench": "no",
    "bin": "no",
    "bus": "yes",
    "highway": "bus_stop",
    "name": "Les Tennis",
    "network": "Lignes d'Azur",
    "public_transport": "platform",
    "shelter": "no",
    "tactile_paving": "no"
  }
},
{
  "type": "node",
  "id": 276949209,
  "lat": 43.7156272,
  "lon": 7.2779599,
  "tags": {
    "bus": "yes",
    "highway": "bus_stop",
    "name": "Bleuets",
    "network": "Lignes d'Azur",
    "public_transport": "platform"
  }
},
{
  "type": "node",
  "id": 276949210,
  "lat": 43.7154158,
  "lon": 7.2784607,
  "tags": {
    "bus": "yes",
    "highway": "bus_stop",
    "name": "Bleuets",
    "network": "Lignes d'Azur",
    "public_transport": "platform"
  }
},
{
  "type": "node",
  "id": 276949219,
  "lat": 43.7148372,
  "lon": 7.2801808,
  "tags": {
    "bench": "yes",
    "bin": "yes",
    "bus": "yes",
    "highway": "bus_stop",
    "name": "Flores",
    "network": "Lignes d'Azur",
    "public_transport": "platform",
    "shelter": "yes",
    "tactile_paving": "no"
  }
},
{
  "type": "node",
  "id": 276949299,
  "lat": 43.7149045,
  "lon": 7.2803929,
  "tags": {
    "bench": "yes",
    "bin": "yes",
    "bus": "yes",
    "highway": "bus_stop",
    "name": "Flores",
    "network": "Lignes d'Azur",
    "public_transport": "platform",
    "shelter": "yes",
    "tactile_paving": "no"
  }
},
{
  "type": "node",
  "id": 277027999,
  "lat": 43.7055043,
  "lon": 7.2839852,
  "tags": {
    "created_by": "Potlatch 0.9c",
    "highway": "bus_stop",
    "name": "République / Delfino"
  }
},
{
  "type": "node",
  "id": 277030109,
  "lat": 43.7051721,
  "lon": 7.2902838,
  "tags": {
    "bench": "yes",
    "bus": "yes",
    "highway": "bus_stop",
    "name": "Riquier",
    "network": "Lignes d'Azur",
    "network:wikidata": "Q3240177",
    "network:wikipedia": "fr:Lignes d'Azur",
    "operator": "Lignes d'Azur",
    "public_transport": "stop_position",
    "shelter": "yes"
  }
},
{
  "type": "node",
  "id": 277054139,
  "lat": 43.6952532,
  "lon": 7.2429543,
  "tags": {
    "bench": "yes",
    "bus": "yes",
    "highway": "bus_stop",
    "name": "Ansaldi",
    "network": "Lignes d'Azur",
    "public_transport": "platform",
    "shelter": "yes"
  }
},
{
  "type": "node",
  "id": 277113226,
  "lat": 43.7088129,
  "lon": 7.2707524,
  "tags": {
    "bench": "yes",
    "bus": "yes",
    "highway": "bus_stop",
    "name": "Musée Chagall",
    "network": "Lignes d'Azur",
    "public_transport": "platform",
    "route_ref": "5;15;C;F;N2",
    "shelter": "yes"
  }
},
{
  "type": "node",
  "id": 277115803,
  "lat": 43.7128607,
  "lon": 7.2552524,
  "tags": {
    "bench": "yes",
    "bin": "yes",
    "bus": "yes",
    "highway": "bus_stop",
    "lit": "yes",
    "name": "Maison de l'Environnement",
    "public_transport": "platform",
    "shelter": "yes",
    "tactile_paving": "no"
  }
},
{
  "type": "node",
  "id": 277115834,
  "lat": 43.7128932,
  "lon": 7.2550911,
  "tags": {
    "bench": "yes",
    "bin": "yes",
    "bus": "yes",
    "highway": "bus_stop",
    "lit": "yes",
    "name": "Maison de l'Environnement",
    "public_transport": "platform",
    "shelter": "yes",
    "tactile_paving": "no"
  }
},
{
  "type": "node",
  "id": 277298218,
  "lat": 43.7177422,
  "lon": 7.2658876,
  "tags": {
    "bench": "yes",
    "bin": "no",
    "highway": "bus_stop",
    "lit": "yes",
    "name": "Stade de Valrose",
    "shelter": "yes",
    "tactile_paving": "yes"
  }
},
{
  "type": "node",
  "id": 277300689,
  "lat": 43.7203568,
  "lon": 7.2630708,
  "tags": {
    "bus": "yes",
    "highway": "bus_stop",
    "name": "Saint-Maurice",
    "public_transport": "platform",
    "ref": "23"
  }
},
{
  "type": "node",
  "id": 277304187,
  "lat": 43.7190510,
  "lon": 7.2525469,
  "tags": {
    "bench": "yes",
    "bin": "yes",
    "created_by": "Potlatch 0.9c",
    "highway": "bus_stop",
    "lit": "yes",
    "name": "Deux Avenues",
    "shelter": "yes",
    "tactile_paving": "no"
  }
},
{
  "type": "node",
  "id": 277447121,
  "lat": 43.6941784,
  "lon": 7.2435708,
  "tags": {
    "bus": "yes",
    "highway": "bus_stop",
    "name": "Carlone / Madeleine",
    "network": "Lignes d'Azur",
    "public_transport": "platform",
    "shelter": "yes"
  }
},
{
  "type": "node",
  "id": 277447201,
  "lat": 43.6958680,
  "lon": 7.2424215,
  "tags": {
    "bus": "yes",
    "highway": "bus_stop",
    "name": "Ansaldi",
    "network": "Lignes d'Azur",
    "public_transport": "platform"
  }
},
{
  "type": "node",
  "id": 277496948,
  "lat": 43.6990615,
  "lon": 7.2393261,
  "tags": {
    "bus": "yes",
    "highway": "bus_stop",
    "name": "Mosca",
    "network": "Lignes d'Azur",
    "public_transport": "platform"
  }
},
{
  "type": "node",
  "id": 277496979,
  "lat": 43.6972056,
  "lon": 7.2408406,
  "tags": {
    "bus": "yes",
    "highway": "bus_stop",
    "name": "Chalet des Roses",
    "network": "Lignes d'Azur",
    "public_transport": "platform"
  }
},
{
  "type": "node",
  "id": 278480327,
  "lat": 43.7017992,
  "lon": 7.2072457,
  "tags": {
    "bus": "yes",
    "highway": "bus_stop",
    "name": "Terron",
    "public_transport": "stop_position"
  }
},
{
  "type": "node",
  "id": 278480331,
  "lat": 43.7038793,
  "lon": 7.2075308,
  "tags": {
    "bus": "yes",
    "highway": "bus_stop",
    "name": "Orangerie",
    "public_transport": "stop_position"
  }
},
{
  "type": "node",
  "id": 278480334,
  "lat": 43.7049413,
  "lon": 7.2078881,
  "tags": {
    "bus": "yes",
    "highway": "bus_stop",
    "name": "Groupe Scolaire / Moretti",
    "public_transport": "stop_position"
  }
},
{
  "type": "node",
  "id": 278480383,
  "lat": 43.7066640,
  "lon": 7.2093025,
  "tags": {
    "bus": "yes",
    "highway": "bus_stop",
    "name": "C.G.E.",
    "public_transport": "stop_position"
  }
},
{
  "type": "node",
  "id": 281255447,
  "lat": 43.7380013,
  "lon": 7.2595486,
  "tags": {
    "highway": "bus_stop",
    "name": "Cascade de Gairaut"
  }
},
{
  "type": "node",
  "id": 281256376,
  "lat": 43.7400887,
  "lon": 7.2774036,
  "tags": {
    "bus": "yes",
    "highway": "bus_stop",
    "name": "Les Roses/Rimiez",
    "public_transport": "stop_position"
  }
},
{
  "type": "node",
  "id": 281402265,
  "lat": 43.7039103,
  "lon": 7.2750448,
  "tags": {
    "bench": "yes",
    "bicycle_parking": "no",
    "bin": "no",
    "bus": "yes",
    "departures_board": "no",
    "free_newspapers_showcase": "no",
    "handrail": "no",
    "highway": "bus_stop",
    "lit": "yes",
    "name": "Carabacel",
    "passenger_information_display": "no",
    "public_transport": "platform",
    "seats": "4",
    "setback": "no",
    "shelter": "yes",
    "tactile_paving": "yes",
    "ticket_validator": "no",
    "tickets:public_transport": "no",
    "wheelchair": "no"
  }
},
{
  "type": "node",
  "id": 281456874,
  "lat": 43.7268188,
  "lon": 7.2579423,
  "tags": {
    "highway": "bus_stop",
    "name": "Paronamic"
  }
},
{
  "type": "node",
  "id": 281456885,
  "lat": 43.7272914,
  "lon": 7.2579492,
  "tags": {
    "highway": "bus_stop",
    "name": "Paronamic"
  }
},
{
  "type": "node",
  "id": 281457021,
  "lat": 43.7243092,
  "lon": 7.2587921,
  "tags": {
    "bench": "yes",
    "bus": "yes",
    "highway": "bus_stop",
    "name": "Gravier",
    "network": "Lignes d'Azur",
    "public_transport": "platform",
    "shelter": "yes",
    "tactile_paving": "no"
  }
},
{
  "type": "node",
  "id": 281457034,
  "lat": 43.7241976,
  "lon": 7.2587492,
  "tags": {
    "bench": "yes",
    "bus": "yes",
    "highway": "bus_stop",
    "name": "Gravier",
    "network": "Lignes d'Azur",
    "public_transport": "platform",
    "shelter": "yes",
    "tactile_paving": "no"
  }
},
{
  "type": "node",
  "id": 281457362,
  "lat": 43.7235439,
  "lon": 7.2610902,
  "tags": {
    "bus": "yes",
    "highway": "bus_stop",
    "name": "Chambrun",
    "network": "Lignes d'Azur",
    "public_transport": "platform"
  }
},
{
  "type": "node",
  "id": 281458570,
  "lat": 43.7252557,
  "lon": 7.2631415,
  "tags": {
    "bus": "yes",
    "highway": "bus_stop",
    "name": "Vismara",
    "network": "Lignes d'Azur",
    "public_transport": "platform"
  }
},
{
  "type": "node",
  "id": 281458629,
  "lat": 43.7254175,
  "lon": 7.2631869,
  "tags": {
    "bus": "yes",
    "highway": "bus_stop",
    "name": "Vismara",
    "network": "Lignes d'Azur",
    "public_transport": "platform"
  }
},
{
  "type": "node",
  "id": 281458669,
  "lat": 43.7257540,
  "lon": 7.2648309,
  "tags": {
    "bus": "yes",
    "highway": "bus_stop",
    "name": "Henry Dunant",
    "network": "Lignes d'Azur",
    "public_transport": "platform"
  }
},
{
  "type": "node",
  "id": 281458673,
  "lat": 43.7260149,
  "lon": 7.2649234,
  "tags": {
    "bus": "yes",
    "highway": "bus_stop",
    "name": "Les Noisetiers",
    "network": "Lignes d'Azur",
    "public_transport": "platform"
  }
},
{
  "type": "node",
  "id": 281458692,
  "lat": 43.7256490,
  "lon": 7.2654869,
  "tags": {
    "bus": "yes",
    "highway": "bus_stop",
    "name": "Les Noisetiers",
    "network": "Lignes d'Azur",
    "public_transport": "platform"
  }
},
{
  "type": "node",
  "id": 281459040,
  "lat": 43.7250659,
  "lon": 7.2669031,
  "tags": {
    "bench": "no",
    "bin": "no",
    "bus": "yes",
    "highway": "bus_stop",
    "name": "La Sablière",
    "network": "Lignes d'Azur",
    "public_transport": "platform",
    "shelter": "no",
    "tactile_paving": "no"
  }
},
{
  "type": "node",
  "id": 281459041,
  "lat": 43.7249853,
  "lon": 7.2668533,
  "tags": {
    "bench": "no",
    "bin": "no",
    "bus": "yes",
    "highway": "bus_stop",
    "name": "La Sablière",
    "network": "Lignes d'Azur",
    "public_transport": "platform",
    "shelter": "no",
    "tactile_paving": "no"
  }
},
{
  "type": "node",
  "id": 281459302,
  "lat": 43.7235735,
  "lon": 7.2715025,
  "tags": {
    "bench": "yes",
    "bin": "no",
    "bus": "yes",
    "highway": "bus_stop",
    "lit": "yes",
    "name": "Parc Orangini",
    "network": "Lignes d'Azur",
    "public_transport": "platform",
    "shelter": "yes",
    "tactile_paving": "yes"
  }
},
{
  "type": "node",
  "id": 281459303,
  "lat": 43.7234791,
  "lon": 7.2715493,
  "tags": {
    "bench": "yes",
    "bin": "no",
    "bus": "yes",
    "highway": "bus_stop",
    "lit": "yes",
    "name": "Parc Orangini",
    "network": "Lignes d'Azur",
    "public_transport": "platform",
    "shelter": "no",
    "tactile_paving": "yes"
  }
},
{
  "type": "node",
  "id": 281460577,
  "lat": 43.7223489,
  "lon": 7.2755523,
  "tags": {
    "bench": "yes",
    "bus": "yes",
    "highway": "bus_stop",
    "name": "Avenue Thérèse",
    "network": "Lignes d'Azur",
    "network:wikidata": "Q3240177",
    "network:wikipedia": "fr:Lignes d'Azur",
    "public_transport": "platform",
    "shelter": "yes"
  }
},
{
  "type": "node",
  "id": 281461172,
  "lat": 43.7211899,
  "lon": 7.2752359,
  "tags": {
    "bench": "yes",
    "bus": "yes",
    "highway": "bus_stop",
    "name": "Pré Catelan",
    "network": "Lignes d'Azur",
    "public_transport": "platform",
    "shelter": "yes"
  }
},
{
  "type": "node",
  "id": 281461202,
  "lat": 43.7210104,
  "lon": 7.2754250,
  "tags": {
    "bench": "no",
    "bus": "yes",
    "highway": "bus_stop",
    "name": "Pré Catelan",
    "network": "Lignes d'Azur",
    "public_transport": "platform",
    "shelter": "no"
  }
},
{
  "type": "node",
  "id": 281464348,
  "lat": 43.7233625,
  "lon": 7.2851307,
  "tags": {
    "bus": "yes",
    "highway": "bus_stop",
    "name": "Colonel Gassin",
    "network": "Lignes d'Azur",
    "network:wikidata": "Q3240177",
    "network:wikipedia": "fr:Lignes d'Azur",
    "public_transport": "platform",
    "shelter": "yes"
  }
},
{
  "type": "node",
  "id": 281944447,
  "lat": 43.7277523,
  "lon": 7.2519835,
  "tags": {
    "created_by": "Potlatch 0.10",
    "highway": "bus_stop",
    "name": "Cernuschi"
  }
},
{
  "type": "node",
  "id": 281958333,
  "lat": 43.7234667,
  "lon": 7.2502254,
  "tags": {
    "bench": "yes",
    "bin": "yes",
    "bus": "yes",
    "highway": "bus_stop",
    "lit": "yes",
    "name": "Jean Bares",
    "public_transport": "platform",
    "shelter": "yes",
    "tactile_paving": "no"
  }
},
{
  "type": "node",
  "id": 281959043,
  "lat": 43.7191504,
  "lon": 7.2654521,
  "tags": {
    "bus": "yes",
    "highway": "bus_stop",
    "name": "Les Lilas",
    "network": "Lignes d'Azur",
    "public_transport": "platform",
    "shelter": "yes"
  }
},
{
  "type": "node",
  "id": 281961262,
  "lat": 43.7272349,
  "lon": 7.2757080,
  "tags": {
    "bench": "yes",
    "bus": "yes",
    "highway": "bus_stop",
    "name": "Avenue Elisabeth",
    "network": "Lignes d'Azur",
    "network:wikidata": "Q3240177",
    "network:wikipedia": "fr:Lignes d'Azur",
    "public_transport": "platform",
    "shelter": "yes"
  }
},
{
  "type": "node",
  "id": 281961301,
  "lat": 43.7271256,
  "lon": 7.2758620,
  "tags": {
    "bench": "yes",
    "bus": "yes",
    "highway": "bus_stop",
    "name": "Avenue Elisabeth",
    "network": "Lignes d'Azur",
    "network:wikidata": "Q3240177",
    "network:wikipedia": "fr:Lignes d'Azur",
    "public_transport": "platform",
    "shelter": "no"
  }
},
{
  "type": "node",
  "id": 281962135,
  "lat": 43.7287867,
  "lon": 7.2765970,
  "tags": {
    "bench": "yes",
    "bus": "yes",
    "highway": "bus_stop",
    "name": "Scudéri",
    "network": "Lignes d'Azur",
    "network:wikidata": "Q3240177",
    "network:wikipedia": "fr:Lignes d'Azur",
    "public_transport": "platform",
    "shelter": "yes"
  }
},
{
  "type": "node",
  "id": 281962715,
  "lat": 43.7314002,
  "lon": 7.2757963,
  "tags": {
    "bench": "no",
    "bus": "yes",
    "highway": "bus_stop",
    "name": "Courbet",
    "network": "Lignes d'Azur",
    "public_transport": "platform",
    "shelter": "no"
  }
},
{
  "type": "node",
  "id": 281963020,
  "lat": 43.7330086,
  "lon": 7.2768036,
  "tags": {
    "bench": "yes",
    "bus": "yes",
    "highway": "bus_stop",
    "name": "Rimiez Saint-George",
    "public_transport": "platform"
  }
},
{
  "type": "node",
  "id": 281963660,
  "lat": 43.7332884,
  "lon": 7.2767316,
  "tags": {
    "bench": "yes",
    "bus": "yes",
    "highway": "bus_stop",
    "name": "Rimiez Saint-George",
    "public_transport": "platform",
    "shelter": "yes"
  }
},
{
  "type": "node",
  "id": 282710064,
  "lat": 43.7367069,
  "lon": 7.2791134,
  "tags": {
    "bench": "no",
    "bus": "yes",
    "highway": "bus_stop",
    "name": "Les Bassins",
    "public_transport": "platform",
    "shelter": "no"
  }
},
{
  "type": "node",
  "id": 282710080,
  "lat": 43.7363793,
  "lon": 7.2795136,
  "tags": {
    "bus": "yes",
    "highway": "bus_stop",
    "name": "Les Bassins",
    "public_transport": "platform"
  }
},
{
  "type": "node",
  "id": 298097676,
  "lat": 43.7089194,
  "lon": 7.2477295,
  "tags": {
    "bus": "yes",
    "highway": "bus_stop",
    "name": "Le Piol / Saint-Pierre",
    "public_transport": "platform"
  }
},
{
  "type": "node",
  "id": 298097699,
  "lat": 43.7060014,
  "lon": 7.2471666,
  "tags": {
    "bus": "yes",
    "highway": "bus_stop",
    "name": "Lou Castel",
    "public_transport": "platform"
  }
},
{
  "type": "node",
  "id": 298097717,
  "lat": 43.7058657,
  "lon": 7.2459316,
  "tags": {
    "highway": "bus_stop",
    "name": "Paradies"
  }
},
{
  "type": "node",
  "id": 302722044,
  "lat": 43.6629819,
  "lon": 7.2029993,
  "tags": {
    "bus": "yes",
    "highway": "bus_stop",
    "name": "Frêt",
    "public_transport": "stop_position"
  }
},
{
  "type": "node",
  "id": 368239570,
  "lat": 43.6844492,
  "lon": 7.2196041,
  "tags": {
    "bus": "yes",
    "highway": "bus_stop",
    "name": "Florval",
    "public_transport": "stop_position"
  }
},
{
  "type": "node",
  "id": 368239881,
  "lat": 43.6846454,
  "lon": 7.2167901,
  "tags": {
    "bus": "yes",
    "highway": "bus_stop",
    "name": "Azurelle",
    "public_transport": "stop_position"
  }
},
{
  "type": "node",
  "id": 434469967,
  "lat": 43.7085667,
  "lon": 7.2955239,
  "tags": {
    "bus": "yes",
    "highway": "bus_stop",
    "name": "Castel",
    "public_transport": "stop_position",
    "shelter": "no"
  }
},
{
  "type": "node",
  "id": 434470019,
  "lat": 43.7068756,
  "lon": 7.2976505,
  "tags": {
    "bus": "yes",
    "highway": "bus_stop",
    "name": "Avenue du Mont Alban",
    "public_transport": "stop_position",
    "shelter": "no"
  }
},
{
  "type": "node",
  "id": 459667701,
  "lat": 43.7050638,
  "lon": 7.2478682,
  "tags": {
    "bus": "yes",
    "highway": "bus_stop",
    "name": "Escalier",
    "public_transport": "platform"
  }
},
{
  "type": "node",
  "id": 459667702,
  "lat": 43.7048580,
  "lon": 7.2482634,
  "tags": {
    "bus": "yes",
    "highway": "bus_stop",
    "name": "Escalier",
    "public_transport": "platform"
  }
},
{
  "type": "node",
  "id": 459667703,
  "lat": 43.7042971,
  "lon": 7.2491948,
  "tags": {
    "bus": "yes",
    "highway": "bus_stop",
    "name": "Marjolaine",
    "network": "Lignes d'Azur",
    "network:wikidata": "Q3240177",
    "network:wikipedia": "fr:Lignes d'Azur",
    "public_transport": "platform"
  }
},
{
  "type": "node",
  "id": 460482814,
  "lat": 43.7004064,
  "lon": 7.2735164,
  "tags": {
    "bench": "yes",
    "bus": "yes",
    "departures_board": "no",
    "handrail": "yes",
    "highway": "bus_stop",
    "lit": "yes",
    "map": "yes",
    "name": "Wilson",
    "public_transport": "platform",
    "seats": "8",
    "shelter": "yes",
    "tactile_paving": "yes",
    "ticket_validator": "no",
    "wheelchair": "no"
  }
},
{
  "type": "node",
  "id": 563937460,
  "lat": 43.6996227,
  "lon": 7.2514589,
  "tags": {
    "bus": "yes",
    "highway": "bus_stop",
    "name": "Les Potiers",
    "public_transport": "platform",
    "shelter": "yes",
    "source": "cadastre-dgi-fr source : Direction Générale des Impôts - Cadastre. Mise à jour : 2009"
  }
},
{
  "type": "node",
  "id": 639604574,
  "lat": 43.6944373,
  "lon": 7.2523202,
  "tags": {
    "bench": "yes",
    "bicycle_parking": "no",
    "bin": "yes",
    "bus": "yes",
    "free_newspapers_showcase": "no",
    "handrail": "no",
    "highway": "bus_stop",
    "lit": "no",
    "map": "0",
    "name": "Grosso CUM",
    "network": "Lignes d'Azur",
    "network:wikidata": "Q3240177",
    "network:wikipedia": "fr:Lignes d'Azur",
    "passenger_information_display": "no",
    "public_transport": "platform",
    "seats": "3",
    "setback": "no",
    "shelter": "no",
    "tactile_paving": "no",
    "ticket_validator": "no",
    "tickets:public_transport": "no",
    "wheelchair": "no"
  }
},
{
  "type": "node",
  "id": 666991035,
  "lat": 43.7393560,
  "lon": 7.3060010,
  "tags": {
    "bus": "yes",
    "highway": "bus_stop",
    "name": "École Prévert",
    "public_transport": "platform"
  }
},
{
  "type": "node",
  "id": 928581205,
  "lat": 43.6959842,
  "lon": 7.2555088,
  "tags": {
    "bicycle_parking": "no",
    "bin": "no",
    "bus": "yes",
    "covered": "no",
    "departures_board": "no",
    "highway": "bus_stop",
    "lit": "no",
    "name": "Gambetta / Dante",
    "network": "Lignes d'Azur",
    "passenger_information_display": "no",
    "public_transport": "platform",
    "seats": "3",
    "tactile_paving": "yes",
    "ticket_validator": "no",
    "wheelchair": "no"
  }
},
{
  "type": "node",
  "id": 1015772239,
  "lat": 43.6694786,
  "lon": 7.2193128,
  "tags": {
    "bench": "yes",
    "bin": "no",
    "highway": "bus_stop",
    "name": "Arénas",
    "public_transport": "platform",
    "shelter": "yes"
  }
},
{
  "type": "node",
  "id": 1015772242,
  "lat": 43.6730699,
  "lon": 7.2254266,
  "tags": {
    "bench": "yes",
    "highway": "bus_stop",
    "name": "Léon Bertrand",
    "public_transport": "platform",
    "route_ref": "9;10;23",
    "shelter": "yes"
  }
},
{
  "type": "node",
  "id": 1015772261,
  "lat": 43.6695631,
  "lon": 7.2193254,
  "tags": {
    "bench": "yes",
    "bin": "no",
    "bus": "yes",
    "highway": "bus_stop",
    "name": "Arénas",
    "public_transport": "platform",
    "shelter": "yes"
  }
},
{
  "type": "node",
  "id": 1022155595,
  "lat": 43.6791955,
  "lon": 7.2257665,
  "tags": {
    "bus": "yes",
    "highway": "bus_stop",
    "name": "Mutuelle Agricole",
    "public_transport": "stop_position"
  }
},
{
  "type": "node",
  "id": 1091979177,
  "lat": 43.7260931,
  "lon": 7.2555895,
  "tags": {
    "bus": "yes",
    "highway": "bus_stop",
    "name": "Comte de Falicon",
    "public_transport": "stop_position"
  }
},
{
  "type": "node",
  "id": 1211061123,
  "lat": 43.7087877,
  "lon": 7.2709540,
  "tags": {
    "bus": "yes",
    "highway": "bus_stop",
    "name": "Musée Chagall",
    "network": "Lignes d'Azur",
    "public_transport": "stop_position"
  }
},
{
  "type": "node",
  "id": 1398409269,
  "lat": 43.6955759,
  "lon": 7.2988347,
  "tags": {
    "bench": "yes",
    "bus": "yes",
    "highway": "bus_stop",
    "name": "Chemin du Fort",
    "network": "Lignes d'Azur",
    "public_transport": "platform",
    "shelter": "no"
  }
},
{
  "type": "node",
  "id": 1398409270,
  "lat": 43.6956654,
  "lon": 7.2989206,
  "tags": {
    "bench": "yes",
    "bus": "yes",
    "highway": "bus_stop",
    "name": "Chemin du Fort",
    "network": "Lignes d'Azur",
    "public_transport": "platform",
    "shelter": "no"
  }
},
{
  "type": "node",
  "id": 1398409279,
  "lat": 43.6994166,
  "lon": 7.2874459,
  "tags": {
    "bus": "yes",
    "highway": "bus_stop",
    "name": "Max Barel",
    "public_transport": "platform"
  }
},
{
  "type": "node",
  "id": 1398409280,
  "lat": 43.6919063,
  "lon": 7.3004288,
  "tags": {
    "bench": "yes",
    "bus": "yes",
    "highway": "bus_stop",
    "name": "Mont Boron",
    "network": "Lignes d'Azur",
    "public_transport": "platform",
    "shelter": "yes"
  }
},
{
  "type": "node",
  "id": 1398409639,
  "lat": 43.6990641,
  "lon": 7.2839845,
  "tags": {
    "bus": "yes",
    "highway": "bus_stop",
    "name": "Le Port",
    "public_transport": "stop_position"
  }
},
{
  "type": "node",
  "id": 1398409642,
  "lat": 43.6999995,
  "lon": 7.2807734,
  "tags": {
    "bus": "yes",
    "highway": "bus_stop",
    "name": "Ségurane",
    "public_transport": "stop_position"
  }
},
{
  "type": "node",
  "id": 1398409700,
  "lat": 43.7052754,
  "lon": 7.3003999,
  "tags": {
    "bus": "yes",
    "highway": "bus_stop",
    "name": "Col de Villefranche",
    "public_transport": "stop_position"
  }
},
{
  "type": "node",
  "id": 1398409708,
  "lat": 43.7005927,
  "lon": 7.2812060,
  "tags": {
    "bench": "2",
    "bin": "yes",
    "bus": "yes",
    "departures_board": "timetable : https://www.lignesdazur.com/fr/horaires-a-larret/28/StopSchedules/garibaldi/96907/mont-boron-cimiez-hopital/1340/cimiez-hopital/2?PhysicalId=464",
    "handrail": "no",
    "highway": "bus_stop",
    "lit": "no",
    "map": "yes",
    "name": "Garibaldi",
    "network": "Lignes d'Azur",
    "public_transport": "platform",
    "shelter": "yes",
    "tactile_paving": "no",
    "wheelchair": "no"
  }
},
{
  "type": "node",
  "id": 1398629755,
  "lat": 43.7249024,
  "lon": 7.2729537,
  "tags": {
    "bench": "yes",
    "bin": "yes",
    "bus": "yes",
    "highway": "bus_stop",
    "lit": "yes",
    "name": "Conservatoire National de Région",
    "network": "Lignes d'Azur",
    "network:wikidata": "Q3240177",
    "network:wikipedia": "fr:Lignes d'Azur",
    "public_transport": "platform",
    "shelter": "yes",
    "tactile_paving": "yes"
  }
},
{
  "type": "node",
  "id": 1398629881,
  "lat": 43.7157181,
  "lon": 7.2618226,
  "tags": {
    "bus": "yes",
    "highway": "bus_stop",
    "name": "Doyen Lépine",
    "network": "Lignes d'Azur",
    "public_transport": "platform"
  }
},
{
  "type": "node",
  "id": 1446982134,
  "lat": 43.7159973,
  "lon": 7.2896973,
  "tags": {
    "bus": "yes",
    "highway": "bus_stop",
    "name": "Pierre Sémard",
    "network": "Lignes d'Azur",
    "public_transport": "platform",
    "wheelchair": "yes"
  }
},
{
  "type": "node",
  "id": 1446983578,
  "lat": 43.7160495,
  "lon": 7.2898759,
  "tags": {
    "bus": "yes",
    "highway": "bus_stop",
    "name": "Pierre Sémard",
    "network": "Lignes d'Azur",
    "public_transport": "platform",
    "wheelchair": "yes"
  }
},
{
  "type": "node",
  "id": 1486397326,
  "lat": 43.7013563,
  "lon": 7.2767626,
  "tags": {
    "highway": "bus_stop",
    "name": "Delille",
    "route_ref": "10"
  }
},
{
  "type": "node",
  "id": 1486397332,
  "lat": 43.6784267,
  "lon": 7.2292948,
  "tags": {
    "bench": "yes",
    "highway": "bus_stop",
    "name": "Carras",
    "public_transport": "platform",
    "shelter": "yes"
  }
},
{
  "type": "node",
  "id": 1486397333,
  "lat": 43.6966804,
  "lon": 7.2554602,
  "tags": {
    "bus": "yes",
    "highway": "bus_stop",
    "name": "Gambetta Bottero",
    "network": "Lignes d'Azur",
    "public_transport": "platform",
    "shelter": "yes"
  }
},
{
  "type": "node",
  "id": 1486397335,
  "lat": 43.7021477,
  "lon": 7.2734372,
  "tags": {
    "bench": "yes",
    "highway": "bus_stop",
    "name": "Hôpital Saint-Roch",
    "route_ref": "9;10;23",
    "shelter": "yes"
  }
},
{
  "type": "node",
  "id": 1486397337,
  "lat": 43.7000329,
  "lon": 7.2692311,
  "tags": {
    "bicycle_parking": "no",
    "bin": "yes",
    "departures_board": "no",
    "free_newspapers_showcase": "no",
    "handrail": "yes",
    "highway": "bus_stop",
    "lit": "yes",
    "map": "yes",
    "name": "Jean Médecin Pastorelli",
    "passenger_information_display": "no",
    "public_transport": "bus_stop",
    "route_ref": "10",
    "seats": "4",
    "setback": "no",
    "shelter": "yes",
    "tactile_paving": "yes",
    "ticket_validator": "no",
    "tickets:public_transport": "no",
    "wheelchair": "no"
  }
},
{
  "type": "node",
  "id": 1486397338,
  "lat": 43.6993262,
  "lon": 7.2671794,
  "tags": {
    "bicycle_parking": "no",
    "bin": "yes",
    "departures_board": "no",
    "free_newspapers_showcase": "no",
    "handrail": "yes",
    "highway": "bus_stop",
    "lit": "yes",
    "name": "Longchamp",
    "network": "Lignes d'Azur",
    "passenger_information_display": "no",
    "route_ref": "3;7;9/10;22;27;38;P;N4;N5",
    "seats": "4",
    "setback": "no",
    "shelter": "yes",
    "tactile_paving": "yes",
    "ticket_validator": "no",
    "tickets:public_transport": "no",
    "wheelchair": "no"
  }
},
{
  "type": "node",
  "id": 1486397341,
  "lat": 43.6975135,
  "lon": 7.2594853,
  "tags": {
    "bicycle_parking": "no",
    "bin": "yes",
    "departures_board": "no",
    "free_newspapers_showcase": "no",
    "handrail": "yes",
    "highway": "bus_stop",
    "lit": "yes",
    "name": "Rivoli Joffre",
    "passenger_information_display": "no",
    "public_transport": "platform",
    "route_ref": "10",
    "seats": "4",
    "setback": "no",
    "shelter": "yes",
    "tactile_paving": "yes",
    "ticket_validator": "no",
    "tickets:public_transport": "no",
    "wheelchair": "no"
  }
},
{
  "type": "node",
  "id": 1486397343,
  "lat": 43.6850670,
  "lon": 7.2348658,
  "tags": {
    "bench": "yes",
    "bus": "yes",
    "highway": "bus_stop",
    "name": "Sainte-Hélène",
    "public_transport": "platform",
    "route_ref": "9;10;23"
  }
},
{
  "type": "node",
  "id": 1486397348,
  "lat": 43.6855706,
  "lon": 7.2357472,
  "tags": {
    "bench": "yes",
    "highway": "bus_stop",
    "name": "Sainte-Hélène",
    "public_transport": "platform",
    "route_ref": "9;10;23",
    "shelter": "yes"
  }
},
{
  "type": "node",
  "id": 1532610259,
  "lat": 43.7084683,
  "lon": 7.2156342,
  "tags": {
    "bus": "yes",
    "highway": "bus_stop",
    "name": "Sainte-Antoine-Ginestière",
    "public_transport": "stop_position"
  }
},
{
  "type": "node",
  "id": 1599982314,
  "lat": 43.6753490,
  "lon": 7.2278847,
  "tags": {
    "bus": "yes",
    "highway": "bus_stop",
    "name": "Ferber / Promenade",
    "public_transport": "stop_position"
  }
},
{
  "type": "node",
  "id": 1599982319,
  "lat": 43.6795629,
  "lon": 7.2305497,
  "tags": {
    "bus": "yes",
    "highway": "bus_stop",
    "name": "Carras / Promenade",
    "public_transport": "stop_position"
  }
},
{
  "type": "node",
  "id": 1599982340,
  "lat": 43.6840286,
  "lon": 7.2350168,
  "tags": {
    "bus": "yes",
    "highway": "bus_stop",
    "name": "Sainte-Hélène / Promenade",
    "public_transport": "stop_position"
  }
},
{
  "type": "node",
  "id": 1599982343,
  "lat": 43.6867362,
  "lon": 7.2381922,
  "tags": {
    "bus": "yes",
    "highway": "bus_stop",
    "name": "Fabron / Promenade",
    "public_transport": "stop_position"
  }
},
{
  "type": "node",
  "id": 1599982375,
  "lat": 43.6958987,
  "lon": 7.2691655,
  "tags": {
    "bus": "yes",
    "highway": "bus_stop",
    "name": "Albert 1er",
    "public_transport": "stop_position"
  }
},
{
  "type": "node",
  "id": 1599982382,
  "lat": 43.6984019,
  "lon": 7.2762639,
  "tags": {
    "bus": "yes",
    "highway": "bus_stop",
    "name": "Cathédrale - Vieille Ville",
    "public_transport": "stop_position"
  }
},
{
  "type": "node",
  "id": 1599982739,
  "lat": 43.6987079,
  "lon": 7.2843744,
  "tags": {
    "bus": "yes",
    "highway": "bus_stop",
    "name": "Port Lympia",
    "public_transport": "stop_position"
  }
},
{
  "type": "node",
  "id": 1599982760,
  "lat": 43.6983341,
  "lon": 7.2737253,
  "tags": {
    "bench": "yes",
    "bin": "yes",
    "bus": "yes",
    "highway": "bus_stop",
    "lit": "yes",
    "name": "Station J.C. Bermond",
    "public_transport": "platform",
    "shelter": "yes",
    "tactile_paving": "no"
  }
},
{
  "type": "node",
  "id": 1599982834,
  "lat": 43.6681060,
  "lon": 7.2197912,
  "tags": {
    "bus": "yes",
    "highway": "bus_stop",
    "name": "Arénas",
    "public_transport": "stop_position"
  }
},
{
  "type": "node",
  "id": 1599982863,
  "lat": 43.6665245,
  "lon": 7.2082247,
  "tags": {
    "bus": "yes",
    "highway": "bus_stop",
    "name": "Les Sagnes",
    "public_transport": "stop_position"
  }
},
{
  "type": "node",
  "id": 1600219126,
  "lat": 43.6735913,
  "lon": 7.2265138,
  "tags": {
    "bus": "yes",
    "highway": "bus_stop",
    "name": "Californie / Promenade",
    "public_transport": "platform"
  }
},
{
  "type": "node",
  "id": 1600219141,
  "lat": 43.7091687,
  "lon": 7.2560214,
  "tags": {
    "bus": "yes",
    "highway": "bus_stop",
    "name": "Gutenberg",
    "network": "Lignes d'Azur",
    "public_transport": "stop_position"
  }
},
{
  "type": "node",
  "id": 1600275307,
  "lat": 43.7014117,
  "lon": 7.2561352,
  "tags": {
    "bus": "yes",
    "highway": "bus_stop",
    "name": "Thiers / Gambetta",
    "network": "Lignes d'Azur",
    "public_transport": "stop_position"
  }
},
{
  "type": "node",
  "id": 1600275383,
  "lat": 43.6674921,
  "lon": 7.2047797,
  "tags": {
    "bus": "yes",
    "highway": "bus_stop",
    "name": "Marché Gare",
    "public_transport": "stop_position"
  }
},
{
  "type": "node",
  "id": 1600275390,
  "lat": 43.6730328,
  "lon": 7.2020661,
  "tags": {
    "bus": "yes",
    "highway": "bus_stop",
    "name": "Bois de Boulogne",
    "public_transport": "stop_position"
  }
},
{
  "type": "node",
  "id": 1600275398,
  "lat": 43.6756166,
  "lon": 7.2016018,
  "tags": {
    "bus": "yes",
    "highway": "bus_stop",
    "name": "Santoline",
    "public_transport": "stop_position"
  }
},
{
  "type": "node",
  "id": 1600787921,
  "lat": 43.7061690,
  "lon": 7.2811924,
  "tags": {
    "bus": "yes",
    "highway": "bus_stop",
    "name": "XVe Corps",
    "public_transport": "stop_position"
  }
},
{
  "type": "node",
  "id": 1600787944,
  "lat": 43.7015453,
  "lon": 7.2559499,
  "tags": {
    "bus": "yes",
    "highway": "bus_stop",
    "name": "Thiers / Gambetta",
    "public_transport": "stop_position"
  }
},
{
  "type": "node",
  "id": 1600853847,
  "lat": 43.7081812,
  "lon": 7.2127613,
  "tags": {
    "bus": "yes",
    "highway": "bus_stop",
    "name": "Lenval Pouponnière",
    "public_transport": "stop_position"
  }
},
{
  "type": "node",
  "id": 1600853849,
  "lat": 43.7062874,
  "lon": 7.2171904,
  "tags": {
    "bus": "yes",
    "highway": "bus_stop",
    "name": "Barilli",
    "network": "Lignes d'Azur",
    "public_transport": "stop_position"
  }
},
{
  "type": "node",
  "id": 1600853850,
  "lat": 43.7048072,
  "lon": 7.2170378,
  "tags": {
    "bus": "yes",
    "highway": "bus_stop",
    "name": "La Croix",
    "public_transport": "stop_position",
    "source": "Bing"
  }
},
{
  "type": "node",
  "id": 1600853851,
  "lat": 43.7027947,
  "lon": 7.2195404,
  "tags": {
    "bus": "yes",
    "highway": "bus_stop",
    "name": "Raccourci",
    "public_transport": "stop_position"
  }
},
{
  "type": "node",
  "id": 1600853852,
  "lat": 43.7008948,
  "lon": 7.2214574,
  "tags": {
    "bus": "yes",
    "highway": "bus_stop",
    "name": "La Massabella",
    "public_transport": "stop_position"
  }
},
{
  "type": "node",
  "id": 1600853853,
  "lat": 43.6994486,
  "lon": 7.2233693,
  "tags": {
    "bus": "yes",
    "highway": "bus_stop",
    "name": "Belle Niçoise",
    "public_transport": "stop_position"
  }
},
{
  "type": "node",
  "id": 1600853854,
  "lat": 43.6983805,
  "lon": 7.2248336,
  "tags": {
    "bus": "yes",
    "highway": "bus_stop",
    "name": "La Colline",
    "public_transport": "stop_position"
  }
},
{
  "type": "node",
  "id": 1600853856,
  "lat": 43.6967765,
  "lon": 7.2281407,
  "tags": {
    "bus": "yes",
    "highway": "bus_stop",
    "name": "Hôpital Archet 1",
    "network": "Lignes d'Azur",
    "public_transport": "stop_position"
  }
},
{
  "type": "node",
  "id": 1600853857,
  "lat": 43.6947260,
  "lon": 7.2286346,
  "tags": {
    "bus": "yes",
    "highway": "bus_stop",
    "name": "Chemin de l'Archet",
    "public_transport": "stop_position"
  }
},
{
  "type": "node",
  "id": 1600853858,
  "lat": 43.6930982,
  "lon": 7.2283875,
  "tags": {
    "bus": "yes",
    "highway": "bus_stop",
    "name": "Abbaye de Roseland",
    "network": "Lignes d'Azur",
    "public_transport": "stop_position"
  }
},
{
  "type": "node",
  "id": 1600853859,
  "lat": 43.6925523,
  "lon": 7.2291634,
  "tags": {
    "bus": "yes",
    "highway": "bus_stop",
    "name": "Collège de l'Archet",
    "network": "Lignes d'Azur",
    "public_transport": "stop_position"
  }
},
{
  "type": "node",
  "id": 1600853861,
  "lat": 43.6939080,
  "lon": 7.2306260,
  "tags": {
    "bus": "yes",
    "highway": "bus_stop",
    "name": "Parc des Miniatures",
    "public_transport": "stop_position"
  }
},
{
  "type": "node",
  "id": 1600853862,
  "lat": 43.6925035,
  "lon": 7.2330321,
  "tags": {
    "bus": "yes",
    "highway": "bus_stop",
    "name": "Résidence Universitaire",
    "network": "Lignes d'Azur",
    "public_transport": "stop_position"
  }
},
{
  "type": "node",
  "id": 1600853863,
  "lat": 43.6919480,
  "lon": 7.2337514,
  "tags": {
    "bus": "yes",
    "highway": "bus_stop",
    "name": "Impératrice Eugénie",
    "network": "Lignes d'Azur",
    "public_transport": "stop_position"
  }
},
{
  "type": "node",
  "id": 1600853864,
  "lat": 43.6921138,
  "lon": 7.2372891,
  "tags": {
    "bus": "yes",
    "highway": "bus_stop",
    "name": "Faculté de Lettres",
    "public_transport": "stop_position"
  }
},
{
  "type": "node",
  "id": 1600853867,
  "lat": 43.6925729,
  "lon": 7.2388357,
  "tags": {
    "bench": "yes",
    "bin": "no",
    "bus": "yes",
    "departures_board": "timetable",
    "highway": "bus_stop",
    "map": "yes",
    "name": "Saint-Honoré",
    "network": "Lignes d'Azur",
    "network:wikidata": "Q3240177",
    "network:wikipedia": "fr:Lignes d'Azur",
    "public_transport": "stop_position",
    "shelter": "yes",
    "tactile_paving": "no",
    "tickets:public_transport": "no",
    "wheelchair": "yes"
  }
},
{
  "type": "node",
  "id": 1600853869,
  "lat": 43.6938497,
  "lon": 7.2389493,
  "tags": {
    "bus": "yes",
    "highway": "bus_stop",
    "name": "La Bornala",
    "public_transport": "stop_position"
  }
},
{
  "type": "node",
  "id": 1600853870,
  "lat": 43.6936924,
  "lon": 7.2412947,
  "tags": {
    "bus": "yes",
    "highway": "bus_stop",
    "name": "Carlone",
    "network": "Lignes d'Azur",
    "public_transport": "stop_position"
  }
},
{
  "type": "node",
  "id": 1600853877,
  "lat": 43.7074129,
  "lon": 7.2701562,
  "tags": {
    "bus": "yes",
    "highway": "bus_stop",
    "name": "Roland Garros",
    "public_transport": "stop_position"
  }
},
{
  "type": "node",
  "id": 1600853890,
  "lat": 43.7343980,
  "lon": 7.2783219,
  "tags": {
    "bus": "yes",
    "highway": "bus_stop",
    "name": "La Séréna",
    "public_transport": "stop_position"
  }
},
{
  "type": "node",
  "id": 1600916922,
  "lat": 43.6968503,
  "lon": 7.2281339,
  "tags": {
    "bus": "yes",
    "highway": "bus_stop",
    "name": "Hôpital Archet 1",
    "network": "Lignes d'Azur",
    "public_transport": "stop_position"
  }
},
{
  "type": "node",
  "id": 1601192654,
  "lat": 43.7274302,
  "lon": 7.2554451,
  "tags": {
    "bus": "yes",
    "highway": "bus_stop",
    "name": "Comte de Falicon",
    "public_transport": "stop_position"
  }
},
{
  "type": "node",
  "id": 1601192655,
  "lat": 43.7259664,
  "lon": 7.2556045,
  "tags": {
    "bus": "yes",
    "highway": "bus_stop",
    "name": "Place Fontaine du Temple",
    "public_transport": "stop_position"
  }
},
{
  "type": "node",
  "id": 1601192662,
  "lat": 43.7219360,
  "lon": 7.2508773,
  "tags": {
    "bus": "yes",
    "highway": "bus_stop",
    "name": "Fanny",
    "public_transport": "stop_position"
  }
},
{
  "type": "node",
  "id": 1601192665,
  "lat": 43.7174051,
  "lon": 7.2529431,
  "tags": {
    "bus": "yes",
    "highway": "bus_stop",
    "name": "Cagnoli",
    "public_transport": "stop_position"
  }
},
{
  "type": "node",
  "id": 1601192670,
  "lat": 43.7157511,
  "lon": 7.2536729,
  "tags": {
    "bus": "yes",
    "highway": "bus_stop",
    "name": "Cyrnos",
    "public_transport": "stop_position"
  }
},
{
  "type": "node",
  "id": 1601192671,
  "lat": 43.7103286,
  "lon": 7.2559787,
  "tags": {
    "bus": "yes",
    "highway": "bus_stop",
    "name": "PN Gambetta",
    "public_transport": "stop_position"
  }
},
{
  "type": "node",
  "id": 1601192676,
  "lat": 43.7075026,
  "lon": 7.2832291,
  "tags": {
    "bus": "yes",
    "highway": "bus_stop",
    "name": "Palais des Expositions",
    "old_name": "Risso / Palais",
    "public_transport": "stop_position"
  }
},
{
  "type": "node",
  "id": 1601192686,
  "lat": 43.7151214,
  "lon": 7.2827762,
  "tags": {
    "bus": "yes",
    "highway": "bus_stop",
    "name": "Pont Vincent Auriol",
    "public_transport": "stop_position"
  }
},
{
  "type": "node",
  "id": 1601264596,
  "lat": 43.7258156,
  "lon": 7.2558640,
  "tags": {
    "bus": "yes",
    "highway": "bus_stop",
    "name": "Place Fontaine du Temple",
    "public_transport": "stop_position"
  }
},
{
  "type": "node",
  "id": 1601264601,
  "lat": 43.7274200,
  "lon": 7.2556528,
  "tags": {
    "bus": "yes",
    "highway": "bus_stop",
    "name": "Comte de Falicon",
    "public_transport": "stop_position"
  }
},
{
  "type": "node",
  "id": 1606578015,
  "lat": 43.7325066,
  "lon": 7.2714164,
  "tags": {
    "bench": "yes",
    "bin": "yes",
    "bus": "yes",
    "check_date:shelter": "2021-11-20",
    "highway": "bus_stop",
    "name": "Vallon des Fleurs",
    "network": "Lignes d'Azur",
    "public_transport": "platform",
    "shelter": "yes",
    "tactile_paving": "no"
  }
},
{
  "type": "node",
  "id": 1642762217,
  "lat": 43.7223118,
  "lon": 7.2638892,
  "tags": {
    "bus": "yes",
    "highway": "bus_stop",
    "name": "Parc Chambrun",
    "network": "Lignes d'Azur",
    "public_transport": "platform"
  }
},
{
  "type": "node",
  "id": 1646597472,
  "lat": 43.7241912,
  "lon": 7.2660041,
  "tags": {
    "bus": "yes",
    "highway": "bus_stop",
    "name": "Avenue des Poilus",
    "network": "Lignes d'Azur",
    "public_transport": "platform"
  }
},
{
  "type": "node",
  "id": 1646598082,
  "lat": 43.7197489,
  "lon": 7.2626163,
  "tags": {
    "bus": "yes",
    "highway": "bus_stop",
    "name": "Saint-Maurice",
    "network": "Lignes d'Azur",
    "public_transport": "platform"
  }
},
{
  "type": "node",
  "id": 1646598088,
  "lat": 43.7217683,
  "lon": 7.2611198,
  "tags": {
    "bus": "yes",
    "highway": "bus_stop",
    "name": "Stade du Ray / Musset",
    "network": "Lignes d'Azur",
    "public_transport": "platform",
    "ref": "23"
  }
},
{
  "type": "node",
  "id": 1733144714,
  "lat": 43.7034116,
  "lon": 7.2966382,
  "tags": {
    "highway": "bus_stop",
    "name": "Arrêt Les Palmiers",
    "network": "30"
  }
},
{
  "type": "node",
  "id": 1740302561,
  "lat": 43.7032816,
  "lon": 7.2965069,
  "tags": {
    "highway": "bus_stop",
    "name": "Arrêt Les Palmiers",
    "network": "30"
  }
},
{
  "type": "node",
  "id": 1751120354,
  "lat": 43.7001976,
  "lon": 7.2495010,
  "tags": {
    "bench": "no",
    "bus": "yes",
    "highway": "bus_stop",
    "name": "Clair de Lune",
    "public_transport": "platform",
    "shelter": "no"
  }
},
{
  "type": "node",
  "id": 1776849871,
  "lat": 43.6660258,
  "lon": 7.2148003,
  "tags": {
    "bus": "yes",
    "highway": "bus_stop",
    "public_transport": "platform"
  }
},
{
  "type": "node",
  "id": 1878323326,
  "lat": 43.6957628,
  "lon": 7.2666888,
  "tags": {
    "bus": "yes",
    "highway": "bus_stop",
    "name": "Albert 1er / Verdun",
    "public_transport": "stop_position"
  }
},
{
  "type": "node",
  "id": 1950618078,
  "lat": 43.7003894,
  "lon": 7.2621077,
  "tags": {
    "highway": "bus_stop",
    "name": "Mozart",
    "shelter": "yes"
  }
},
{
  "type": "node",
  "id": 2044108383,
  "lat": 43.7018674,
  "lon": 7.2763148,
  "tags": {
    "bus": "yes",
    "highway": "bus_stop",
    "name": "Défly",
    "public_transport": "stop_position"
  }
},
{
  "type": "node",
  "id": 2049720582,
  "lat": 43.6785471,
  "lon": 7.2286794,
  "tags": {
    "highway": "bus_stop",
    "name": "Carras/Frémont"
  }
},
{
  "type": "node",
  "id": 2049735146,
  "lat": 43.6967814,
  "lon": 7.2327431,
  "tags": {
    "highway": "bus_stop",
    "name": "Rond Point"
  }
},
{
  "type": "node",
  "id": 2049735148,
  "lat": 43.6962886,
  "lon": 7.2337836,
  "tags": {
    "highway": "bus_stop",
    "name": "Rond Point"
  }
},
{
  "type": "node",
  "id": 2049735149,
  "lat": 43.6974414,
  "lon": 7.2311508,
  "tags": {
    "bus": "yes",
    "highway": "bus_stop",
    "name": "Colette",
    "public_transport": "stop_position"
  }
},
{
  "type": "node",
  "id": 2049767000,
  "lat": 43.6934923,
  "lon": 7.2104579,
  "tags": {
    "bus": "yes",
    "highway": "bus_stop",
    "name": "Col de Spagnol",
    "public_transport": "stop_position"
  }
},
{
  "type": "node",
  "id": 2049767001,
  "lat": 43.6977003,
  "lon": 7.2093741,
  "tags": {
    "bus": "yes",
    "highway": "bus_stop",
    "name": "Chez Cane",
    "public_transport": "stop_position"
  }
},
{
  "type": "node",
  "id": 2049820383,
  "lat": 43.6901304,
  "lon": 7.2136246,
  "tags": {
    "bus": "yes",
    "highway": "bus_stop",
    "name": "Mont Fabron",
    "public_transport": "stop_position"
  }
},
{
  "type": "node",
  "id": 2049820386,
  "lat": 43.6826173,
  "lon": 7.2249050,
  "tags": {
    "bus": "yes",
    "highway": "bus_stop",
    "name": "L'Orée",
    "public_transport": "stop_position"
  }
},
{
  "type": "node",
  "id": 2049820396,
  "lat": 43.6780684,
  "lon": 7.2282288,
  "tags": {
    "bus": "yes",
    "highway": "bus_stop",
    "name": "La Madrague",
    "name:oc": "La Madraga",
    "public_transport": "stop_position",
    "source:name:oc": "ieo-bdtopoc"
  }
},
{
  "type": "node",
  "id": 2049820398,
  "lat": 43.6787644,
  "lon": 7.2240779,
  "tags": {
    "bus": "yes",
    "highway": "bus_stop",
    "name": "Costabella",
    "public_transport": "stop_position"
  }
},
{
  "type": "node",
  "id": 2051341454,
  "lat": 43.7078590,
  "lon": 7.2158508,
  "tags": {
    "bus": "yes",
    "highway": "bus_stop",
    "name": "Saint-Antoine-Ginestière",
    "public_transport": "stop_position"
  }
},
{
  "type": "node",
  "id": 2051419977,
  "lat": 43.6919245,
  "lon": 7.2447971,
  "tags": {
    "bus": "yes",
    "highway": "bus_stop",
    "name": "Magnan",
    "public_transport": "stop_position"
  }
},
{
  "type": "node",
  "id": 2096595878,
  "lat": 43.7434843,
  "lon": 7.2635480,
  "tags": {
    "bench": "yes",
    "highway": "bus_stop",
    "name": "Aire Saint-Michel",
    "network": "25",
    "operator": "Lignes d'Azur",
    "route_ref": "25;F",
    "shelter": "no"
  }
},
{
  "type": "node",
  "id": 2096595879,
  "lat": 43.7439716,
  "lon": 7.2661944,
  "tags": {
    "highway": "bus_stop",
    "name": "L'Ibac",
    "route_ref": "25;F",
    "shelter": "no"
  }
},
{
  "type": "node",
  "id": 2096595881,
  "lat": 43.7390089,
  "lon": 7.2745315,
  "tags": {
    "highway": "bus_stop",
    "name": "La Carita",
    "route_ref": "25;F",
    "shelter": "no"
  }
},
{
  "type": "node",
  "id": 2096595882,
  "lat": 43.7390848,
  "lon": 7.2744873,
  "tags": {
    "highway": "bus_stop",
    "name": "La Carita",
    "route_ref": "25;F",
    "shelter": "no"
  }
},
{
  "type": "node",
  "id": 2096595883,
  "lat": 43.7436095,
  "lon": 7.2717595,
  "tags": {
    "highway": "bus_stop",
    "name": "Lombardie",
    "public_transport": "platform",
    "route_ref": "25;F",
    "shelter": "no"
  }
},
{
  "type": "node",
  "id": 2096595884,
  "lat": 43.7437694,
  "lon": 7.2714921,
  "tags": {
    "highway": "bus_stop",
    "name": "Lombardie",
    "public_transport": "platform",
    "route_ref": "25;F",
    "shelter": "no"
  }
},
{
  "type": "node",
  "id": 2096595885,
  "lat": 43.7417078,
  "lon": 7.2743095,
  "tags": {
    "highway": "bus_stop",
    "name": "Plateau de Rimiez",
    "route_ref": "25;F",
    "shelter": "no"
  }
},
{
  "type": "node",
  "id": 2096595886,
  "lat": 43.7420189,
  "lon": 7.2740170,
  "tags": {
    "highway": "bus_stop",
    "name": "Plateau de Rimiez",
    "route_ref": "25;F",
    "shelter": "no"
  }
},
{
  "type": "node",
  "id": 2096595887,
  "lat": 43.7439497,
  "lon": 7.2701153,
  "tags": {
    "highway": "bus_stop",
    "name": "École de Rimiez",
    "route_ref": "25;F",
    "shelter": "no"
  }
},
{
  "type": "node",
  "id": 2096643518,
  "lat": 43.7387929,
  "lon": 7.2730839,
  "tags": {
    "highway": "bus_stop",
    "name": "Bello Sguardo",
    "route_ref": "25;F",
    "shelter": "no"
  }
},
{
  "type": "node",
  "id": 2096643524,
  "lat": 43.7389065,
  "lon": 7.2728889,
  "tags": {
    "highway": "bus_stop",
    "name": "Bello Sguardo",
    "route_ref": "25;F",
    "shelter": "no"
  }
},
{
  "type": "node",
  "id": 2096643533,
  "lat": 43.7385368,
  "lon": 7.2781485,
  "tags": {
    "bench": "no",
    "bus": "yes",
    "highway": "bus_stop",
    "name": "Pietruschi",
    "public_transport": "platform",
    "route_ref": "5;25;F",
    "shelter": "no"
  }
},
{
  "type": "node",
  "id": 2096643554,
  "lat": 43.7394033,
  "lon": 7.2769634,
  "tags": {
    "bench": "no",
    "bus": "yes",
    "highway": "bus_stop",
    "name": "Pietruschi",
    "public_transport": "platform",
    "shelter": "no"
  }
},
{
  "type": "node",
  "id": 2096643560,
  "lat": 43.7382488,
  "lon": 7.2745780,
  "tags": {
    "highway": "bus_stop",
    "name": "Super Rimiez",
    "route_ref": "25;F",
    "shelter": "no"
  }
},
{
  "type": "node",
  "id": 2096643564,
  "lat": 43.7383689,
  "lon": 7.2746127,
  "tags": {
    "highway": "bus_stop",
    "name": "Super Rimiez",
    "route_ref": "25;F",
    "shelter": "no"
  }
},
{
  "type": "node",
  "id": 2096643569,
  "lat": 43.7354939,
  "lon": 7.2790280,
  "tags": {
    "bus": "yes",
    "highway": "bus_stop",
    "name": "La Batterie",
    "public_transport": "stop_position"
  }
},
{
  "type": "node",
  "id": 2096697305,
  "lat": 43.7314004,
  "lon": 7.2755873,
  "tags": {
    "bench": "yes",
    "bus": "yes",
    "highway": "bus_stop",
    "name": "Courbet",
    "network": "Lignes d'Azur",
    "public_transport": "platform",
    "shelter": "yes"
  }
},
{
  "type": "node",
  "id": 2096728071,
  "lat": 43.7286626,
  "lon": 7.2766713,
  "tags": {
    "highway": "bus_stop",
    "name": "Scuderi"
  }
},
{
  "type": "node",
  "id": 2107715913,
  "lat": 43.6956153,
  "lon": 7.2574879,
  "tags": {
    "highway": "bus_stop",
    "name": "Cronstadt / France",
    "route_ref": "7"
  }
},
{
  "type": "node",
  "id": 2109746472,
  "lat": 43.6882191,
  "lon": 7.2945420,
  "tags": {
    "bench": "no",
    "bin": "no",
    "bus": "yes",
    "departures_board": "timetable",
    "highway": "bus_stop",
    "map": "no",
    "name": "Théodore de Banville / Lorrain",
    "network": "Ligne d'Azur",
    "public_transport": "platform",
    "shelter": "no"
  }
},
{
  "type": "node",
  "id": 2109746479,
  "lat": 43.6882178,
  "lon": 7.2944740,
  "tags": {
    "bench": "no",
    "bin": "yes",
    "bus": "yes",
    "departures_board": "timetable",
    "handrail": "no",
    "highway": "bus_stop",
    "lit": "no",
    "map": "no",
    "name": "Théodore de Banville / Lorrain",
    "network": "lignes d'azur",
    "public_transport": "platform",
    "shelter": "no",
    "wheelchair": "no"
  }
},
{
  "type": "node",
  "id": 2121269500,
  "lat": 43.7100630,
  "lon": 7.2611621,
  "tags": {
    "bench": "no",
    "bus": "yes",
    "highway": "bus_stop",
    "name": "Libération",
    "network": "Lignes d'Azur",
    "public_transport": "platform",
    "route_ref": "11;19;23",
    "shelter": "no"
  }
},
{
  "type": "node",
  "id": 2138735980,
  "lat": 43.6826428,
  "lon": 7.2226314,
  "tags": {
    "bus": "yes",
    "highway": "bus_stop",
    "name": "Arcadia / 60",
    "network": "Lignes d'Azur",
    "network:wikidata": "Q3240177",
    "network:wikipedia": "fr:Lignes d'Azur",
    "public_transport": "platform",
    "shelter": "yes"
  }
},
{
  "type": "node",
  "id": 2138743802,
  "lat": 43.6832053,
  "lon": 7.2231665,
  "tags": {
    "bus": "yes",
    "highway": "bus_stop",
    "name": "Arcadia",
    "network": "Lignes d'Azur",
    "network:wikidata": "Q3240177",
    "network:wikipedia": "fr:Lignes d'Azur",
    "public_transport": "platform",
    "shelter": "yes"
  }
},
{
  "type": "node",
  "id": 2138744367,
  "lat": 43.6828930,
  "lon": 7.2222505,
  "tags": {
    "bus": "yes",
    "highway": "bus_stop",
    "name": "Arcadia",
    "network": "Lignes d'Azur",
    "network:wikidata": "Q3240177",
    "network:wikipedia": "fr:Lignes d'Azur",
    "public_transport": "platform",
    "shelter": "yes"
  }
},
{
  "type": "node",
  "id": 2138971077,
  "lat": 43.6807829,
  "lon": 7.2207818,
  "tags": {
    "bus": "yes",
    "highway": "bus_stop",
    "name": "Magnolias",
    "public_transport": "platform",
    "shelter": "yes"
  }
},
{
  "type": "node",
  "id": 2138979594,
  "lat": 43.6786758,
  "lon": 7.2187580,
  "tags": {
    "bus": "yes",
    "highway": "bus_stop",
    "name": "Batterie",
    "public_transport": "platform",
    "shelter": "yes"
  }
},
{
  "type": "node",
  "id": 2138981511,
  "lat": 43.6777410,
  "lon": 7.2188632,
  "tags": {
    "bus": "yes",
    "highway": "bus_stop",
    "name": "Batterie",
    "network": "Lignes d'Azur",
    "network:wikidata": "Q3240177",
    "network:wikipedia": "fr:Lignes d'Azur",
    "public_transport": "platform",
    "shelter": "yes"
  }
},
{
  "type": "node",
  "id": 2139861206,
  "lat": 43.6873845,
  "lon": 7.2271346,
  "tags": {
    "bench": "yes",
    "bin": "yes",
    "bus": "yes",
    "highway": "bus_stop",
    "lit": "yes",
    "local_ref": "12",
    "name": "Constellations/IUT",
    "public_transport": "platform",
    "shelter": "yes",
    "tactile_paving": "yes"
  }
},
{
  "type": "node",
  "id": 2139867033,
  "lat": 43.7055339,
  "lon": 7.2704912,
  "tags": {
    "bus": "yes",
    "highway": "bus_stop",
    "name": "Désambrois",
    "public_transport": "platform"
  }
},
{
  "type": "node",
  "id": 2142941268,
  "lat": 43.6825983,
  "lon": 7.2201224,
  "tags": {
    "highway": "bus_stop",
    "name": "Corniche Fleurie"
  }
},
{
  "type": "node",
  "id": 2142942624,
  "lat": 43.6828282,
  "lon": 7.2203913,
  "tags": {
    "highway": "bus_stop",
    "name": "Corniche Fleurie"
  }
},
{
  "type": "node",
  "id": 2143321978,
  "lat": 43.7079389,
  "lon": 7.2817898,
  "tags": {
    "bus": "yes",
    "highway": "bus_stop",
    "name": "Jean Bouin",
    "public_transport": "stop_position"
  }
},
{
  "type": "node",
  "id": 2169042212,
  "lat": 43.6858374,
  "lon": 7.2255785,
  "tags": {
    "bench": "yes",
    "bin": "yes",
    "bus": "yes",
    "highway": "bus_stop",
    "name": "Clair Horizon",
    "public_transport": "platform",
    "shelter": "yes"
  }
},
{
  "type": "node",
  "id": 2178623687,
  "lat": 43.6807722,
  "lon": 7.2207065,
  "tags": {
    "bus": "yes",
    "highway": "bus_stop",
    "name": "Magnolias",
    "public_transport": "stop_position",
    "shelter": "yes"
  }
},
{
  "type": "node",
  "id": 2183626054,
  "lat": 43.7192808,
  "lon": 7.2654105,
  "tags": {
    "bus": "yes",
    "highway": "bus_stop",
    "name": "Les Lilas",
    "network": "Lignes d'Azur",
    "public_transport": "platform",
    "shelter": "no"
  }
},
{
  "type": "node",
  "id": 2183626062,
  "lat": 43.7206219,
  "lon": 7.2672675,
  "tags": {
    "bus": "yes",
    "highway": "bus_stop",
    "name": "Les Cèdres",
    "network": "Lignes d'Azur",
    "public_transport": "platform",
    "shelter": "no"
  }
},
{
  "type": "node",
  "id": 2183626069,
  "lat": 43.7221211,
  "lon": 7.2690693,
  "tags": {
    "bench": "yes",
    "bin": "yes",
    "bus": "yes",
    "highway": "bus_stop",
    "lit": "yes",
    "name": "Villa Laurenti",
    "network": "Lignes d'Azur",
    "public_transport": "platform",
    "shelter": "no",
    "tactile_paving": "no"
  }
},
{
  "type": "node",
  "id": 2192469481,
  "lat": 43.7112221,
  "lon": 7.2685438,
  "tags": {
    "highway": "bus_stop",
    "name": "Palais Prince Charles",
    "shelter": "no"
  }
},
{
  "type": "node",
  "id": 2192469482,
  "lat": 43.7112301,
  "lon": 7.2684359,
  "tags": {
    "highway": "bus_stop",
    "name": "Palais Prince Charles",
    "shelter": "no"
  }
},
{
  "type": "node",
  "id": 2192469483,
  "lat": 43.7097462,
  "lon": 7.2676012,
  "tags": {
    "highway": "bus_stop",
    "name": "Résidence Monticello",
    "shelter": "no"
  }
},
{
  "type": "node",
  "id": 2192469484,
  "lat": 43.7098248,
  "lon": 7.2676897,
  "tags": {
    "highway": "bus_stop",
    "name": "Résidence Monticello",
    "shelter": "no"
  }
},
{
  "type": "node",
  "id": 2194706081,
  "lat": 43.7125151,
  "lon": 7.2959179,
  "tags": {
    "bench": "no",
    "bin": "no",
    "highway": "bus_stop",
    "name": "Avenue Fracchia",
    "network": "Lignes d'Azur",
    "shelter": "no",
    "tactile_paving": "no"
  }
},
{
  "type": "node",
  "id": 2194706083,
  "lat": 43.7125760,
  "lon": 7.2958250,
  "tags": {
    "highway": "bus_stop",
    "name": "Avenue Fracchia",
    "network": "Lignes d'Azur",
    "shelter": "no"
  }
},
{
  "type": "node",
  "id": 2194706084,
  "lat": 43.7140954,
  "lon": 7.2965829,
  "tags": {
    "bench": "yes",
    "bin": "no",
    "highway": "bus_stop",
    "name": "Caroubier",
    "network": "Lignes d'Azur",
    "shelter": "no",
    "tactile_paving": "no"
  }
},
{
  "type": "node",
  "id": 2194706085,
  "lat": 43.7107516,
  "lon": 7.2951191,
  "tags": {
    "bench": "no",
    "bus": "yes",
    "highway": "bus_stop",
    "name": "Deux Corniches",
    "network": "Lignes d'Azur",
    "public_transport": "platform",
    "shelter": "no",
    "tactile_paving": "no"
  }
},
{
  "type": "node",
  "id": 2194706087,
  "lat": 43.7113537,
  "lon": 7.2954061,
  "tags": {
    "highway": "bus_stop",
    "name": "Deux Corniches",
    "network": "Lignes d'Azur",
    "shelter": "no"
  }
},
{
  "type": "node",
  "id": 2194706088,
  "lat": 43.7078919,
  "lon": 7.2928635,
  "tags": {
    "bench": "yes",
    "bin": "yes",
    "bus": "yes",
    "highway": "bus_stop",
    "lit": "yes",
    "name": "Grande Corniche",
    "network": "Lignes d'Azur",
    "public_transport": "platform",
    "shelter": "yes",
    "tactile_paving": "yes"
  }
},
{
  "type": "node",
  "id": 2194706089,
  "lat": 43.7199967,
  "lon": 7.2963055,
  "tags": {
    "highway": "bus_stop",
    "name": "La Chapelle",
    "network": "Lignes d'Azur",
    "shelter": "no"
  }
},
{
  "type": "node",
  "id": 2194706090,
  "lat": 43.7203527,
  "lon": 7.2967267,
  "tags": {
    "bench": "no",
    "covered": "no",
    "highway": "bus_stop",
    "name": "La Chapelle",
    "network": "Lignes d'Azur",
    "shelter": "no"
  }
},
{
  "type": "node",
  "id": 2194706091,
  "lat": 43.7163843,
  "lon": 7.2974417,
  "tags": {
    "bench": "no",
    "highway": "bus_stop",
    "name": "Les Teiras",
    "network": "Lignes d'Azur",
    "shelter": "no",
    "tactile_paving": "no"
  }
},
{
  "type": "node",
  "id": 2194706092,
  "lat": 43.7164146,
  "lon": 7.2973256,
  "tags": {
    "bench": "no",
    "bus": "yes",
    "highway": "bus_stop",
    "name": "Les Teiras",
    "network": "Lignes d'Azur",
    "public_transport": "platform",
    "shelter": "no",
    "tactile_paving": "no"
  }
},
{
  "type": "node",
  "id": 2194706093,
  "lat": 43.7148748,
  "lon": 7.2970290,
  "tags": {
    "bench": "no",
    "bin": "no",
    "highway": "bus_stop",
    "name": "Milon de Veraillon",
    "network": "Lignes d'Azur",
    "shelter": "no",
    "tactile_paving": "no"
  }
},
{
  "type": "node",
  "id": 2194706094,
  "lat": 43.7096467,
  "lon": 7.2943776,
  "tags": {
    "bus": "yes",
    "highway": "bus_stop",
    "name": "Parc Boron",
    "public_transport": "platform",
    "shelter": "no",
    "tactile_paving": "no"
  }
},
{
  "type": "node",
  "id": 2194706095,
  "lat": 43.7098065,
  "lon": 7.2945314,
  "tags": {
    "bus": "yes",
    "highway": "bus_stop",
    "name": "Parc Boron",
    "public_transport": "platform",
    "shelter": "no"
  }
},
{
  "type": "node",
  "id": 2194706096,
  "lat": 43.7227808,
  "lon": 7.2954678,
  "tags": {
    "highway": "bus_stop",
    "name": "Saint-Albert",
    "network": "Lignes d'Azur",
    "shelter": "no"
  }
},
{
  "type": "node",
  "id": 2194706097,
  "lat": 43.7233380,
  "lon": 7.2960663,
  "tags": {
    "highway": "bus_stop",
    "name": "Saint-Albert",
    "network": "Lignes d'Azur",
    "shelter": "no"
  }
},
{
  "type": "node",
  "id": 2194706098,
  "lat": 43.7172191,
  "lon": 7.2975570,
  "tags": {
    "bench": "no",
    "bin": "no",
    "bus": "yes",
    "departures_board": "timetable",
    "highway": "bus_stop",
    "lit": "no",
    "name": "Saint-Charles/Mont Gros",
    "network": "Lignes d'Azur",
    "public_transport": "platform",
    "shelter": "no",
    "wheelchair": "yes"
  }
},
{
  "type": "node",
  "id": 2194706099,
  "lat": 43.7174056,
  "lon": 7.2980181,
  "tags": {
    "bench": "no",
    "bin": "no",
    "bus": "yes",
    "highway": "bus_stop",
    "lit": "no",
    "name": "Saint-Charles/Mont Gros",
    "network": "Lignes d'Azur",
    "note": "Il y a deux arrets montants",
    "public_transport": "platform",
    "shelter": "no",
    "wheelchair": "yes"
  }
},
{
  "type": "node",
  "id": 2194706100,
  "lat": 43.7185856,
  "lon": 7.2977114,
  "tags": {
    "highway": "bus_stop",
    "name": "Saint-Charles/Mont Gros",
    "network": "Lignes d'Azur",
    "note": "Il y a deux arrets montants",
    "shelter": "yes"
  }
},
{
  "type": "node",
  "id": 2194706101,
  "lat": 43.7252032,
  "lon": 7.2955765,
  "tags": {
    "highway": "bus_stop",
    "name": "Sainte-Anne",
    "network": "Lignes d'Azur",
    "shelter": "no"
  }
},
{
  "type": "node",
  "id": 2194706102,
  "lat": 43.7252366,
  "lon": 7.2956440,
  "tags": {
    "highway": "bus_stop",
    "name": "Sainte-Anne",
    "network": "Lignes d'Azur",
    "shelter": "no"
  }
},
{
  "type": "node",
  "id": 2205078008,
  "lat": 43.6755870,
  "lon": 7.2206143,
  "tags": {
    "bus": "yes",
    "highway": "bus_stop",
    "name": "Les Eucalyptus",
    "network": "Lignes d'Azur",
    "public_transport": "platform"
  }
},
{
  "type": "node",
  "id": 2206387980,
  "lat": 43.6756356,
  "lon": 7.2207563,
  "tags": {
    "bus": "yes",
    "highway": "bus_stop",
    "name": "Les Eucalyptus",
    "network": "Lignes d'Azur",
    "public_transport": "platform"
  }
},
{
  "type": "node",
  "id": 2239749772,
  "lat": 43.7172471,
  "lon": 7.2509481,
  "tags": {
    "bench": "no",
    "bus": "yes",
    "highway": "bus_stop",
    "lit": "no",
    "name": "Bell'Azur",
    "public_transport": "platform",
    "shelter": "no",
    "tactile_paving": "no"
  }
},
{
  "type": "node",
  "id": 2239749787,
  "lat": 43.7165603,
  "lon": 7.2506907,
  "tags": {
    "bench": "no",
    "bin": "no",
    "bus": "yes",
    "highway": "bus_stop",
    "lit": "yes",
    "name": "Le Panorama",
    "public_transport": "platform",
    "shelter": "no",
    "tactile_paving": "no"
  }
},
{
  "type": "node",
  "id": 2239749817,
  "lat": 43.7163359,
  "lon": 7.2503973,
  "tags": {
    "bench": "no",
    "bin": "no",
    "bus": "yes",
    "highway": "bus_stop",
    "lit": "yes",
    "name": "Villa Cyrnos",
    "public_transport": "platform",
    "shelter": "no",
    "tactile_paving": "no"
  }
},
{
  "type": "node",
  "id": 2239749824,
  "lat": 43.7159050,
  "lon": 7.2502883,
  "tags": {
    "bench": "no",
    "bin": "no",
    "bus": "yes",
    "highway": "bus_stop",
    "lit": "yes",
    "name": "École du Righi",
    "public_transport": "platform",
    "shelter": "no",
    "tactile_paving": "no"
  }
},
{
  "type": "node",
  "id": 2268684086,
  "lat": 43.7085655,
  "lon": 7.2856997,
  "tags": {
    "bus": "yes",
    "highway": "bus_stop",
    "name": "Nice - Gare Routière Vauban",
    "network": "Lignes d'Azur",
    "public_transport": "stop_position"
  }
},
{
  "type": "node",
  "id": 2268684087,
  "lat": 43.7088440,
  "lon": 7.2860478,
  "tags": {
    "bus": "yes",
    "highway": "bus_stop",
    "name": "Nice - Gare Routière Vauban",
    "network": "Lignes d'Azur",
    "public_transport": "stop_position"
  }
},
{
  "type": "node",
  "id": 2279726713,
  "lat": 43.6823638,
  "lon": 7.2318280,
  "tags": {
    "bus": "yes",
    "highway": "bus_stop",
    "name": "Vallon Barla",
    "public_transport": "platform",
    "shelter": "no"
  }
},
{
  "type": "node",
  "id": 2279726732,
  "lat": 43.6825008,
  "lon": 7.2318761,
  "tags": {
    "bus": "yes",
    "highway": "bus_stop",
    "name": "Vallon Barla",
    "public_transport": "platform"
  }
},
{
  "type": "node",
  "id": 2279735584,
  "lat": 43.6840040,
  "lon": 7.2310848,
  "tags": {
    "bus": "yes",
    "highway": "bus_stop",
    "name": "Dauphiné",
    "public_transport": "platform",
    "shelter": "no"
  }
},
{
  "type": "node",
  "id": 2279735711,
  "lat": 43.6840486,
  "lon": 7.2311465,
  "tags": {
    "bus": "yes",
    "highway": "bus_stop",
    "name": "Dauphiné",
    "public_transport": "platform",
    "shelter": "no"
  }
},
{
  "type": "node",
  "id": 2279741747,
  "lat": 43.6872412,
  "lon": 7.2294165,
  "tags": {
    "bench": "yes",
    "bin": "no",
    "bus": "yes",
    "highway": "bus_stop",
    "lit": "yes",
    "name": "Val d'Azur",
    "public_transport": "platform",
    "shelter": "no",
    "tactile_paving": "no"
  }
},
{
  "type": "node",
  "id": 2279741748,
  "lat": 43.6871229,
  "lon": 7.2297539,
  "tags": {
    "bench": "yes",
    "bus": "yes",
    "highway": "bus_stop",
    "name": "Val d'Azur",
    "network": "Lignes d'Azur",
    "network:wikidata": "Q3240177",
    "network:wikipedia": "fr:Lignes d'Azur",
    "public_transport": "platform",
    "shelter": "no"
  }
},
{
  "type": "node",
  "id": 2279743381,
  "lat": 43.6883022,
  "lon": 7.2288559,
  "tags": {
    "bench": "no",
    "bus": "yes",
    "highway": "bus_stop",
    "name": "Vallon",
    "public_transport": "platform",
    "shelter": "no"
  }
},
{
  "type": "node",
  "id": 2279743623,
  "lat": 43.6884748,
  "lon": 7.2288613,
  "tags": {
    "bench": "no",
    "bin": "no",
    "bus": "yes",
    "highway": "bus_stop",
    "lit": "yes",
    "name": "Vallon",
    "public_transport": "platform",
    "shelter": "no",
    "tactile_paving": "no"
  }
},
{
  "type": "node",
  "id": 2281082834,
  "lat": 43.6855049,
  "lon": 7.2254960,
  "tags": {
    "bench": "yes",
    "bin": "yes",
    "bus": "yes",
    "highway": "bus_stop",
    "name": "Clair Horizon",
    "public_transport": "platform",
    "shelter": "no"
  }
},
{
  "type": "node",
  "id": 2287708399,
  "lat": 43.7020667,
  "lon": 7.2847948,
  "tags": {
    "highway": "bus_stop",
    "name": "Place Arson"
  }
},
{
  "type": "node",
  "id": 2287721456,
  "lat": 43.7045263,
  "lon": 7.2861707,
  "tags": {
    "highway": "bus_stop",
    "name": "Barberis"
  }
},
{
  "type": "node",
  "id": 2289464580,
  "lat": 43.6858625,
  "lon": 7.2302998,
  "tags": {
    "bus": "yes",
    "highway": "bus_stop",
    "name": "Deux Cyprès",
    "public_transport": "platform",
    "shelter": "no"
  }
},
{
  "type": "node",
  "id": 2289464582,
  "lat": 43.6859129,
  "lon": 7.2302166,
  "tags": {
    "bus": "yes",
    "highway": "bus_stop",
    "name": "Deux Cyprès",
    "public_transport": "platform",
    "shelter": "no"
  }
},
{
  "type": "node",
  "id": 2290787875,
  "lat": 43.6893065,
  "lon": 7.2282303,
  "tags": {
    "bench": "no",
    "bin": "no",
    "bus": "yes",
    "highway": "bus_stop",
    "lit": "yes",
    "name": "3 Vallées",
    "network": "Lignes d'Azur",
    "network:wikidata": "Q3240177",
    "network:wikipedia": "fr:Lignes d'Azur",
    "public_transport": "platform",
    "shelter": "yes",
    "tactile_paving": "no"
  }
},
{
  "type": "node",
  "id": 2290793391,
  "lat": 43.6898070,
  "lon": 7.2277359,
  "tags": {
    "bench": "yes",
    "bin": "yes",
    "bus": "yes",
    "highway": "bus_stop",
    "lit": "yes",
    "name": "Trois Vallées",
    "public_transport": "platform",
    "shelter": "no",
    "tactile_paving": "no"
  }
},
{
  "type": "node",
  "id": 2305334863,
  "lat": 43.6905419,
  "lon": 7.2236687,
  "tags": {
    "bus": "yes",
    "highway": "bus_stop",
    "name": "L'Usine /Terron",
    "network": "Lignes d'Azur",
    "network:wikidata": "Q3240177",
    "network:wikipedia": "fr:Lignes d'Azur",
    "public_transport": "platform"
  }
},
{
  "type": "node",
  "id": 2305334949,
  "lat": 43.6904682,
  "lon": 7.2236633,
  "tags": {
    "bus": "yes",
    "highway": "bus_stop",
    "name": "L'Usine / Terron",
    "network": "Lignes d'Azur",
    "network:wikidata": "Q3240177",
    "network:wikipedia": "fr:Lignes d'Azur",
    "public_transport": "platform"
  }
},
{
  "type": "node",
  "id": 2308626706,
  "lat": 43.6685855,
  "lon": 7.2042092,
  "tags": {
    "amenity": "marketplace",
    "highway": "bus_stop",
    "name": "Marché Gare",
    "network": "Lignes d'Azur"
  }
},
{
  "type": "node",
  "id": 2329647292,
  "lat": 43.6701119,
  "lon": 7.2150987,
  "tags": {
    "highway": "bus_stop",
    "name": "Gare Saint-Augustin",
    "public_transport": "platform"
  }
},
{
  "type": "node",
  "id": 2385087854,
  "lat": 43.6995538,
  "lon": 7.2580252,
  "tags": {
    "highway": "bus_stop",
    "name": "Guiglia"
  }
},
{
  "type": "node",
  "id": 2385091016,
  "lat": 43.6995948,
  "lon": 7.2619239,
  "tags": {
    "highway": "bus_stop",
    "name": "Verdi"
  }
},
{
  "type": "node",
  "id": 2385100737,
  "lat": 43.6995211,
  "lon": 7.2555121,
  "tags": {
    "highway": "bus_stop",
    "name": "Franklin",
    "shelter": "no",
    "wheelchair": "yes"
  }
},
{
  "type": "node",
  "id": 2385100738,
  "lat": 43.6995191,
  "lon": 7.2537660,
  "tags": {
    "highway": "bus_stop",
    "name": "Passy",
    "shelter": "yes",
    "wheelchair": "yes"
  }
},
{
  "type": "node",
  "id": 2392591317,
  "lat": 43.6941850,
  "lon": 7.2879350,
  "tags": {
    "bin": "yes",
    "highway": "bus_stop",
    "map": "yes",
    "name": "Bleu Rivage",
    "wheelchair": "yes"
  }
},
{
  "type": "node",
  "id": 2455197225,
  "lat": 43.6834280,
  "lon": 7.2224752,
  "tags": {
    "bus": "yes",
    "highway": "bus_stop",
    "name": "Arcadia / 60",
    "network": "Lignes d'Azur",
    "network:wikidata": "Q3240177",
    "network:wikipedia": "fr:Lignes d'Azur",
    "public_transport": "platform"
  }
},
{
  "type": "node",
  "id": 2532250208,
  "lat": 43.6779390,
  "lon": 7.2181764,
  "tags": {
    "highway": "bus_stop",
    "local_ref": "Batterie / 12"
  }
},
{
  "type": "node",
  "id": 2537062919,
  "lat": 43.7138688,
  "lon": 7.2505707,
  "tags": {
    "bench": "yes",
    "bin": "no",
    "bus": "yes",
    "highway": "bus_stop",
    "lit": "yes",
    "name": "Righi",
    "network": "Lignes d'Azur",
    "public_transport": "platform",
    "shelter": "yes",
    "tactile_paving": "no"
  }
},
{
  "type": "node",
  "id": 2550440950,
  "lat": 43.6909007,
  "lon": 7.2935086,
  "tags": {
    "bin": "yes",
    "bus": "yes",
    "departures_board": "timetable",
    "highway": "bus_stop",
    "name": "Villa La Côte",
    "network": "Lignes d'Azur",
    "public_transport": "platform",
    "shelter": "no"
  }
},
{
  "type": "node",
  "id": 2550440974,
  "lat": 43.6920625,
  "lon": 7.2909571,
  "tags": {
    "bin": "no",
    "bus": "yes",
    "departures_board": "timetable",
    "highway": "bus_stop",
    "name": "La Réserve",
    "network": "Lignes d'Azur",
    "public_transport": "platform",
    "route_ref": "38",
    "shelter": "no",
    "wheelchair": "yes"
  }
},
{
  "type": "node",
  "id": 2553153031,
  "lat": 43.7116014,
  "lon": 7.2502601,
  "tags": {
    "bus": "yes",
    "highway": "bus_stop",
    "name": "L'Ariette",
    "network": "Lignes d'Azur",
    "public_transport": "platform",
    "shelter": "no"
  }
},
{
  "type": "node",
  "id": 2553153032,
  "lat": 43.7126155,
  "lon": 7.2497629,
  "tags": {
    "bench": "yes",
    "bin": "yes",
    "bus": "yes",
    "highway": "bus_stop",
    "lit": "no",
    "name": "N.121",
    "network": "Lignes d'Azur",
    "public_transport": "platform",
    "shelter": "no",
    "tactile_paving": "no"
  }
},
{
  "type": "node",
  "id": 2553153033,
  "lat": 43.7122846,
  "lon": 7.2509710,
  "tags": {
    "bus": "yes",
    "highway": "bus_stop",
    "name": "L'Ensouleiadou",
    "network": "Lignes d'Azur",
    "public_transport": "platform",
    "shelter": "no"
  }
},
{
  "type": "node",
  "id": 2553153034,
  "lat": 43.7112688,
  "lon": 7.2508343,
  "tags": {
    "bench": "no",
    "bus": "yes",
    "highway": "bus_stop",
    "lit": "yes",
    "name": "Boulevard Mantega",
    "network": "Lignes d'Azur",
    "public_transport": "platform",
    "shelter": "no",
    "tactile_paving": "no"
  }
},
{
  "type": "node",
  "id": 2553153035,
  "lat": 43.7120092,
  "lon": 7.2519139,
  "tags": {
    "bus": "yes",
    "highway": "bus_stop",
    "name": "N.54",
    "network": "Lignes d'Azur",
    "public_transport": "platform",
    "shelter": "no",
    "tactile_paving": "no"
  }
},
{
  "type": "node",
  "id": 2553153036,
  "lat": 43.7105897,
  "lon": 7.2518097,
  "tags": {
    "bench": "no",
    "bus": "yes",
    "highway": "bus_stop",
    "lit": "yes",
    "name": "Mirasol",
    "network": "Lignes d'Azur",
    "public_transport": "platform",
    "shelter": "no",
    "tactile_paving": "no"
  }
},
{
  "type": "node",
  "id": 2553153037,
  "lat": 43.7109441,
  "lon": 7.2525605,
  "tags": {
    "bench": "yes",
    "bin": "no",
    "bus": "yes",
    "highway": "bus_stop",
    "lit": "yes",
    "name": "Le Florilège",
    "network": "Lignes d'Azur",
    "public_transport": "platform",
    "shelter": "no",
    "tactile_paving": "no"
  }
},
{
  "type": "node",
  "id": 2553153038,
  "lat": 43.7104522,
  "lon": 7.2535501,
  "tags": {
    "bench": "no",
    "bin": "no",
    "bus": "yes",
    "highway": "bus_stop",
    "lit": "yes",
    "name": "CP",
    "network": "Lignes d'Azur",
    "public_transport": "platform",
    "shelter": "no",
    "tactile_paving": "no"
  }
},
{
  "type": "node",
  "id": 2553153039,
  "lat": 43.7100953,
  "lon": 7.2555206,
  "tags": {
    "bus": "yes",
    "highway": "bus_stop",
    "name": "PN Gambetta",
    "network": "Lignes d'Azur",
    "network:wikidata": "Q3240177",
    "network:wikipedia": "fr:Lignes d'Azur",
    "public_transport": "platform",
    "shelter": "yes",
    "tactile_paving": "no"
  }
},
{
  "type": "node",
  "id": 2564561581,
  "lat": 43.6635903,
  "lon": 7.2010189,
  "tags": {
    "bus": "yes",
    "highway": "bus_stop",
    "name": "P9",
    "public_transport": "stop_position"
  }
},
{
  "type": "node",
  "id": 2564783167,
  "lat": 43.6609253,
  "lon": 7.2047679,
  "tags": {
    "bus": "yes",
    "highway": "bus_stop",
    "local_ref": "4",
    "name": "Aéroport Nice Côte d’Azur T2",
    "public_transport": "stop_position"
  }
},
{
  "type": "node",
  "id": 2673704708,
  "lat": 43.7363909,
  "lon": 7.2154601,
  "tags": {
    "bus": "yes",
    "highway": "bus_stop",
    "name": "Chemin de la Tour",
    "network": "Lignes d'Azur",
    "public_transport": "platform"
  }
},
{
  "type": "node",
  "id": 2674385577,
  "lat": 43.7512239,
  "lon": 7.2167186,
  "tags": {
    "bus": "yes",
    "highway": "bus_stop",
    "name": "Le Pilon",
    "network": "Lignes d'Azur",
    "public_transport": "platform"
  }
},
{
  "type": "node",
  "id": 2674385653,
  "lat": 43.7495337,
  "lon": 7.2163751,
  "tags": {
    "bus": "yes",
    "highway": "bus_stop",
    "name": "Chemin Saquier",
    "network": "Lignes d'Azur",
    "public_transport": "platform"
  }
},
{
  "type": "node",
  "id": 2675646445,
  "lat": 43.7403065,
  "lon": 7.2168320,
  "tags": {
    "bus": "yes",
    "highway": "bus_stop",
    "name": "Le Génie / Bellet",
    "network": "Lignes d'Azur",
    "public_transport": "platform"
  }
},
{
  "type": "node",
  "id": 2675648878,
  "lat": 43.7336370,
  "lon": 7.2173859,
  "tags": {
    "bus": "yes",
    "highway": "bus_stop",
    "name": "Bona",
    "network": "Lignes d'Azur",
    "public_transport": "platform"
  }
},
{
  "type": "node",
  "id": 2675651113,
  "lat": 43.7313602,
  "lon": 7.2173450,
  "tags": {
    "bus": "yes",
    "highway": "bus_stop",
    "name": "Toit Zezette",
    "network": "Lignes d'Azur",
    "public_transport": "platform"
  }
},
{
  "type": "node",
  "id": 2675651923,
  "lat": 43.7278945,
  "lon": 7.2175560,
  "tags": {
    "highway": "bus_stop",
    "local_ref": "Ligne 62",
    "name": "Le Gros Pin"
  }
},
{
  "type": "node",
  "id": 2675652963,
  "lat": 43.7249103,
  "lon": 7.2160596,
  "tags": {
    "highway": "bus_stop",
    "local_ref": "Ligne 62",
    "name": "Postz Essence"
  }
},
{
  "type": "node",
  "id": 2696699676,
  "lat": 43.7103590,
  "lon": 7.2954852,
  "tags": {
    "bus": "yes",
    "highway": "bus_stop",
    "name": "Les Rochers",
    "public_transport": "platform",
    "shelter": "no"
  }
},
{
  "type": "node",
  "id": 2696699677,
  "lat": 43.7104789,
  "lon": 7.2954310,
  "tags": {
    "bus": "yes",
    "highway": "bus_stop",
    "name": "Les Rochers",
    "public_transport": "platform",
    "shelter": "no"
  }
},
{
  "type": "node",
  "id": 2707494333,
  "lat": 43.7084753,
  "lon": 7.2954934,
  "tags": {
    "bus": "yes",
    "highway": "bus_stop",
    "name": "Castel",
    "public_transport": "platform",
    "shelter": "no"
  }
},
{
  "type": "node",
  "id": 2707494336,
  "lat": 43.7086810,
  "lon": 7.2955684,
  "tags": {
    "bus": "yes",
    "highway": "bus_stop",
    "name": "Castel",
    "public_transport": "platform",
    "shelter": "no"
  }
},
{
  "type": "node",
  "id": 2707494339,
  "lat": 43.7095409,
  "lon": 7.2969116,
  "tags": {
    "bus": "yes",
    "highway": "bus_stop",
    "name": "Dilliès",
    "public_transport": "platform",
    "shelter": "no"
  }
},
{
  "type": "node",
  "id": 2707494340,
  "lat": 43.7091742,
  "lon": 7.3045202,
  "tags": {
    "highway": "bus_stop",
    "name": "Horizon",
    "shelter": "no"
  }
},
{
  "type": "node",
  "id": 2707494341,
  "lat": 43.7092148,
  "lon": 7.3045945,
  "tags": {
    "highway": "bus_stop",
    "name": "Horizon",
    "shelter": "no"
  }
},
{
  "type": "node",
  "id": 2707494344,
  "lat": 43.7086770,
  "lon": 7.3037261,
  "tags": {
    "bus": "yes",
    "highway": "bus_stop",
    "name": "La Vigie",
    "public_transport": "platform",
    "shelter": "no"
  }
},
{
  "type": "node",
  "id": 2707494351,
  "lat": 43.7089815,
  "lon": 7.2978535,
  "tags": {
    "bus": "yes",
    "highway": "bus_stop",
    "name": "Villa Verte",
    "public_transport": "platform",
    "shelter": "no"
  }
},
{
  "type": "node",
  "id": 2712686406,
  "lat": 43.7021647,
  "lon": 7.2751007,
  "tags": {
    "bench": "yes",
    "bicycle_parking": "no",
    "bin": "yes",
    "bus": "yes",
    "departures_board": "yes",
    "highway": "bus_stop",
    "lit": "yes",
    "map": "yes",
    "name": "Hôpital Saint-Roch",
    "network": "Lignes d'Azur",
    "note": "Bus: 7, 4 , 9, 10, 15, 22, N2",
    "public_transport": "platform",
    "seats": "8",
    "shelter": "yes",
    "tactile_paving": "yes",
    "ticket_validator": "no",
    "wheelchair": "no"
  }
},
{
  "type": "node",
  "id": 2712692856,
  "lat": 43.7091709,
  "lon": 7.2559539,
  "tags": {
    "bench": "yes",
    "bus": "yes",
    "highway": "bus_stop",
    "lit": "yes",
    "name": "Gutenberg",
    "network": "Lignes d'Azur",
    "public_transport": "platform",
    "shelter": "yes",
    "tactile_paving": "no"
  }
},
{
  "type": "node",
  "id": 2779406410,
  "lat": 43.6999088,
  "lon": 7.2744790,
  "tags": {
    "bus": "yes",
    "highway": "bus_stop",
    "name": "Wilson",
    "operator": "Lignes d'Azur",
    "public_transport": "stop_position"
  }
},
{
  "type": "node",
  "id": 2807715758,
  "lat": 43.7087418,
  "lon": 7.2860184,
  "tags": {
    "bus": "yes",
    "description": "Mostly Flixbus",
    "highway": "bus_stop",
    "name": "Nice - Gare Routière Vauban",
    "network": "Lignes d'Azur",
    "public_transport": "stop_position",
    "route_ref": "30;492;494;768;798;N523;N758"
  }
},
{
  "type": "node",
  "id": 2807715759,
  "lat": 43.7086454,
  "lon": 7.2859727,
  "tags": {
    "bus": "yes",
    "highway": "bus_stop",
    "name": "Nice - Gare Routière Vauban",
    "network": "Lignes d'Azur",
    "public_transport": "stop_position"
  }
},
{
  "type": "node",
  "id": 2920631661,
  "lat": 43.7180612,
  "lon": 7.2644445,
  "tags": {
    "bus": "yes",
    "highway": "bus_stop",
    "name": "Val Fleuri",
    "network": "Lignes d'Azur",
    "public_transport": "platform"
  }
},
{
  "type": "node",
  "id": 2988456767,
  "lat": 43.7047501,
  "lon": 7.2632421,
  "tags": {
    "bus": "yes",
    "description": "Arrêts 64 71 75 T75 N3 N4 N5 vers l'est",
    "highway": "bus_stop",
    "name": "Gare SNCF",
    "public_transport": "platform",
    "shelter": "yes",
    "tactile_paving": "yes"
  }
},
{
  "type": "node",
  "id": 3038010637,
  "lat": 43.6815492,
  "lon": 7.1988590,
  "tags": {
    "bus": "yes",
    "highway": "bus_stop",
    "name": "Robini",
    "public_transport": "stop_position"
  }
},
{
  "type": "node",
  "id": 3266217768,
  "lat": 43.7165051,
  "lon": 7.2825950,
  "tags": {
    "bus": "yes",
    "highway": "bus_stop",
    "name": "Vincent Auriol Bis",
    "public_transport": "stop_position"
  }
},
{
  "type": "node",
  "id": 3266218185,
  "lat": 43.7290499,
  "lon": 7.2839761,
  "tags": {
    "bus": "yes",
    "highway": "bus_stop",
    "name": "Lavoir",
    "public_transport": "stop_position"
  }
},
{
  "type": "node",
  "id": 3334157210,
  "lat": 43.6960849,
  "lon": 7.2670106,
  "tags": {
    "bus": "yes",
    "highway": "bus_stop",
    "name": "Albert 1er / Verdun",
    "public_transport": "stop_position"
  }
},
{
  "type": "node",
  "id": 3418501103,
  "lat": 43.7205883,
  "lon": 7.3048268,
  "tags": {
    "bench": "no",
    "bus": "yes",
    "highway": "bus_stop",
    "name": "Observatoire",
    "public_transport": "platform",
    "shelter": "no"
  }
},
{
  "type": "node",
  "id": 3418501104,
  "lat": 43.7209783,
  "lon": 7.3043027,
  "tags": {
    "bench": "yes",
    "bus": "yes",
    "highway": "bus_stop",
    "name": "Observatoire",
    "public_transport": "platform",
    "shelter": "yes"
  }
},
{
  "type": "node",
  "id": 3620654314,
  "lat": 43.7096146,
  "lon": 7.2642041,
  "tags": {
    "highway": "bus_stop",
    "name": "Saint-Lambert",
    "shelter": "yes"
  }
},
{
  "type": "node",
  "id": 3667118249,
  "lat": 43.7018359,
  "lon": 7.2566830,
  "tags": {
    "bus": "yes",
    "highway": "bus_stop",
    "name": "Thiers - Gambetta",
    "public_transport": "stop_position"
  }
},
{
  "type": "node",
  "id": 3667436402,
  "lat": 43.7103758,
  "lon": 7.2878924,
  "tags": {
    "bus": "yes",
    "highway": "bus_stop",
    "name": "Vauban / Université",
    "public_transport": "stop_position"
  }
},
{
  "type": "node",
  "id": 3667697915,
  "lat": 43.6976042,
  "lon": 7.2650644,
  "tags": {
    "highway": "bus_stop",
    "name": "Grimaldi",
    "network": "Lignes d'Azur",
    "route_ref": "3;7;9/10;22;27;95;N3;N4;N5",
    "shelter": "yes"
  }
},
{
  "type": "node",
  "id": 3667700133,
  "lat": 43.6985941,
  "lon": 7.2952498,
  "tags": {
    "bus": "yes",
    "highway": "bus_stop",
    "note": "name=Boulevard du Mont Boron?",
    "public_transport": "stop_position"
  }
},
{
  "type": "node",
  "id": 3759247553,
  "lat": 43.6734897,
  "lon": 7.2083743,
  "tags": {
    "highway": "bus_stop",
    "name": "Normandie"
  }
},
{
  "type": "node",
  "id": 3759247554,
  "lat": 43.6719796,
  "lon": 7.2095293,
  "tags": {
    "highway": "bus_stop"
  }
},
{
  "type": "node",
  "id": 3759247682,
  "lat": 43.6761939,
  "lon": 7.1989839,
  "tags": {
    "bus": "yes",
    "highway": "bus_stop",
    "name": "Centre Administratif",
    "public_transport": "platform"
  }
},
{
  "type": "node",
  "id": 3759247683,
  "lat": 43.6758547,
  "lon": 7.1991761,
  "tags": {
    "bus": "yes",
    "highway": "bus_stop",
    "name": "Centre Administratif",
    "public_transport": "platform",
    "shelter": "yes"
  }
},
{
  "type": "node",
  "id": 3759250060,
  "lat": 43.6844355,
  "lon": 7.1983420,
  "tags": {
    "highway": "bus_stop",
    "name": "Lycée Thierry Maulnier",
    "shelter": "no"
  }
},
{
  "type": "node",
  "id": 3759250061,
  "lat": 43.6864145,
  "lon": 7.1988009,
  "tags": {
    "highway": "bus_stop",
    "name": "Pontrémoli",
    "shelter": "no"
  }
},
{
  "type": "node",
  "id": 3759250062,
  "lat": 43.6852193,
  "lon": 7.1985678,
  "tags": {
    "highway": "bus_stop",
    "name": "Pontrémoli",
    "shelter": "no"
  }
},
{
  "type": "node",
  "id": 3778828257,
  "lat": 43.6938713,
  "lon": 7.2892135,
  "tags": {
    "bench": "yes",
    "bin": "no",
    "bus": "yes",
    "highway": "bus_stop",
    "lit": "street_light",
    "local_ref": "Avenue d'Alicante",
    "map": "yes",
    "name": "Saint-Aignan / Pilatte",
    "network": "Ligne d'Azur",
    "public_transport": "stop_position",
    "shelter": "yes",
    "source": "survey",
    "wheelchair": "yes"
  }
},
{
  "type": "node",
  "id": 3787150628,
  "lat": 43.7011529,
  "lon": 7.2788378,
  "tags": {
    "bus": "yes",
    "highway": "bus_stop",
    "name": "Promenade des Arts",
    "public_transport": "stop_position"
  }
},
{
  "type": "node",
  "id": 3787309341,
  "lat": 43.7004914,
  "lon": 7.2783511,
  "tags": {
    "bus": "yes",
    "highway": "bus_stop",
    "name": "Promenade des Arts",
    "public_transport": "stop_position"
  }
},
{
  "type": "node",
  "id": 3962201359,
  "lat": 43.7293204,
  "lon": 7.2755675,
  "tags": {
    "bus": "yes",
    "highway": "bus_stop",
    "name": "Kennedy",
    "network": "Lignes d'Azur",
    "public_transport": "platform"
  }
},
{
  "type": "node",
  "id": 3962201360,
  "lat": 43.7293812,
  "lon": 7.2753953,
  "tags": {
    "bus": "yes",
    "highway": "bus_stop",
    "name": "Kennedy",
    "network": "Lignes d'Azur",
    "public_transport": "platform"
  }
},
{
  "type": "node",
  "id": 3962201361,
  "lat": 43.7282621,
  "lon": 7.2714926,
  "tags": {
    "bus": "yes",
    "highway": "bus_stop",
    "name": "La Madonette",
    "network": "Lignes d'Azur",
    "public_transport": "platform"
  }
},
{
  "type": "node",
  "id": 3962201362,
  "lat": 43.7283820,
  "lon": 7.2716472,
  "tags": {
    "bus": "yes",
    "highway": "bus_stop",
    "name": "La Madonette",
    "network": "Lignes d'Azur",
    "public_transport": "platform"
  }
},
{
  "type": "node",
  "id": 3962201363,
  "lat": 43.7275108,
  "lon": 7.2730201,
  "tags": {
    "bus": "yes",
    "highway": "bus_stop",
    "name": "Les Clos de Cimiez",
    "network": "Lignes d'Azur",
    "public_transport": "platform"
  }
},
{
  "type": "node",
  "id": 3962201364,
  "lat": 43.7276816,
  "lon": 7.2724418,
  "tags": {
    "bus": "yes",
    "highway": "bus_stop",
    "name": "Les Clos de Cimiez",
    "network": "Lignes d'Azur",
    "public_transport": "platform"
  }
},
{
  "type": "node",
  "id": 4006007008,
  "lat": 43.7126260,
  "lon": 7.2708767,
  "tags": {
    "highway": "bus_stop",
    "name": "Avenue Flora"
  }
},
{
  "type": "node",
  "id": 4006007037,
  "lat": 43.7135421,
  "lon": 7.2704755,
  "tags": {
    "highway": "bus_stop",
    "name": "George V"
  }
},
{
  "type": "node",
  "id": 4006042359,
  "lat": 43.7192336,
  "lon": 7.2732163,
  "tags": {
    "bench": "no",
    "bus": "yes",
    "highway": "bus_stop",
    "name": "Victoria",
    "network": "Lignes d'Azur",
    "public_transport": "platform",
    "shelter": "no"
  }
},
{
  "type": "node",
  "id": 4007403245,
  "lat": 43.7086496,
  "lon": 7.2318063,
  "tags": {
    "bench": "no",
    "bus": "75D",
    "covered": "no",
    "highway": "bus_stop",
    "name": "Gare de la Madeleine",
    "network": "Lignes d'Azur",
    "public_transport": "platform",
    "shelter": "no"
  }
},
{
  "type": "node",
  "id": 4042315636,
  "lat": 43.7207218,
  "lon": 7.2804078,
  "tags": {
    "description": "Bus 25",
    "highway": "bus_stop",
    "name": "Frère Marc"
  }
},
{
  "type": "node",
  "id": 4058107040,
  "lat": 43.7225697,
  "lon": 7.2794972,
  "tags": {
    "description": "Bus 25 direction Cernuschi",
    "highway": "bus_stop",
    "name": "Colombo"
  }
},
{
  "type": "node",
  "id": 4069714047,
  "lat": 43.7174903,
  "lon": 7.2627172,
  "tags": {
    "bus": "yes",
    "highway": "bus_stop",
    "name": "Puget",
    "network": "Lignes d'Azur",
    "public_transport": "platform"
  }
},
{
  "type": "node",
  "id": 4069784348,
  "lat": 43.7303214,
  "lon": 7.2699277,
  "tags": {
    "bus": "yes",
    "highway": "bus_stop",
    "name": "Les Chasseurs",
    "public_transport": "platform",
    "shelter": "no"
  }
},
{
  "type": "node",
  "id": 4069825688,
  "lat": 43.7191882,
  "lon": 7.2678192,
  "tags": {
    "highway": "bus_stop",
    "name": "Résidence Universitaire Montebello",
    "tactile_paving": "no"
  }
},
{
  "type": "node",
  "id": 4126904573,
  "lat": 43.7055483,
  "lon": 7.2775482,
  "tags": {
    "description": "Bus 37, direction Square Normandie Niemen",
    "highway": "bus_stop",
    "name": "Les Coccinelles"
  }
},
{
  "type": "node",
  "id": 4126904574,
  "lat": 43.7056085,
  "lon": 7.2776267,
  "tags": {
    "description": "Bus 37, direction Résidence universitaire Montebello",
    "highway": "bus_stop",
    "name": "Les Coccinelles"
  }
},
{
  "type": "node",
  "id": 4126904575,
  "lat": 43.7065268,
  "lon": 7.2760360,
  "tags": {
    "bus": "yes",
    "description": "Bus 37, direction Square Normandie Niemen",
    "highway": "bus_stop",
    "name": "Montée de Cimiez",
    "public_transport": "platform"
  }
},
{
  "type": "node",
  "id": 4126909090,
  "lat": 43.7082423,
  "lon": 7.2749324,
  "tags": {
    "description": "Bus 37, direction Résidence universitaire Montebello",
    "highway": "bus_stop",
    "name": "Picardie",
    "shelter": "no"
  }
},
{
  "type": "node",
  "id": 4200457234,
  "lat": 43.7119233,
  "lon": 7.2587845,
  "tags": {
    "bench": "yes",
    "bin": "yes",
    "bus": "yes",
    "highway": "bus_stop",
    "name": "Michel Ange / Auguste Raynaud",
    "network": "Lignes d'Azur",
    "network:wikidata": "Q3240177",
    "network:wikipedia": "fr:Lignes d'Azur",
    "public_transport": "platform",
    "shelter": "yes",
    "tactile_paving": "no"
  }
},
{
  "type": "node",
  "id": 4200517909,
  "lat": 43.7173066,
  "lon": 7.2529395,
  "tags": {
    "bench": "yes",
    "bin": "yes",
    "description": "Bus 4, 7, N3, S",
    "highway": "bus_stop",
    "lit": "yes",
    "name": "Cagnoli",
    "shelter": "yes",
    "tactile_paving": "yes"
  }
},
{
  "type": "node",
  "id": 4200517910,
  "lat": 43.7176554,
  "lon": 7.2528850,
  "tags": {
    "bench": "yes",
    "bin": "yes",
    "description": "Bus 4, 7, N3, S",
    "highway": "bus_stop",
    "lit": "yes",
    "name": "Cagnoli",
    "shelter": "yes",
    "tactile_paving": "no"
  }
},
{
  "type": "node",
  "id": 4208999100,
  "lat": 43.7335882,
  "lon": 7.2740524,
  "tags": {
    "description": "Bus T21",
    "highway": "bus_stop",
    "name": "Rue des Palmiers"
  }
},
{
  "type": "node",
  "id": 4208999101,
  "lat": 43.7343069,
  "lon": 7.2763450,
  "tags": {
    "description": "Bus T21",
    "highway": "bus_stop",
    "name": "Saint-Exupéry"
  }
},
{
  "type": "node",
  "id": 4208999102,
  "lat": 43.7344518,
  "lon": 7.2767065,
  "tags": {
    "description": "Bus T21",
    "highway": "bus_stop",
    "name": "Saint-Exupéry"
  }
},
{
  "type": "node",
  "id": 4208999103,
  "lat": 43.7327675,
  "lon": 7.2721603,
  "tags": {
    "highway": "bus_stop",
    "name": "Vallon des Fleurs"
  }
},
{
  "type": "node",
  "id": 4209067258,
  "lat": 43.7101314,
  "lon": 7.2585168,
  "tags": {
    "bench": "yes",
    "bin": "yes",
    "bus": "yes",
    "highway": "bus_stop",
    "name": "Joseph Garnier",
    "network": "Lignes d'Azur",
    "network:wikidata": "Q3240177",
    "network:wikipedia": "fr:Lignes d'Azur",
    "public_transport": "platform",
    "shelter": "yes",
    "tactile_paving": "yes"
  }
},
{
  "type": "node",
  "id": 4209124288,
  "lat": 43.7205792,
  "lon": 7.2618750,
  "tags": {
    "bus": "yes",
    "highway": "bus_stop",
    "name": "Saint-Maurice",
    "network": "Lignes d'Azur",
    "public_transport": "platform",
    "shelter": "yes",
    "tactile_paving": "no"
  }
},
{
  "type": "node",
  "id": 4315087390,
  "lat": 43.6982282,
  "lon": 7.2628913,
  "tags": {
    "bicycle_parking": "no",
    "bin": "yes",
    "departures_board": "no",
    "free_newspapers_showcase": "no",
    "handrail": "yes",
    "highway": "bus_stop",
    "lit": "yes",
    "map": "yes",
    "name": "Congrès/Joffre",
    "passenger_information_display": "no",
    "public_transport": "platform",
    "seats": "4",
    "setback": "no",
    "shelter": "yes",
    "tactile_paving": "yes",
    "ticket_validator": "no",
    "tickets:public_transport": "no",
    "wheelchair": "no"
  }
},
{
  "type": "node",
  "id": 4316939884,
  "lat": 43.6651393,
  "lon": 7.2056521,
  "tags": {
    "bus": "yes",
    "highway": "bus_stop",
    "name": "P4",
    "public_transport": "stop_position"
  }
},
{
  "type": "node",
  "id": 4666672593,
  "lat": 43.7110841,
  "lon": 7.2711806,
  "tags": {
    "bench": "yes",
    "bus": "yes",
    "highway": "bus_stop",
    "name": "Rond-Point/Cimiez",
    "name:oc": "Rotonda/Cimier",
    "public_transport": "platform",
    "shelter": "yes",
    "source:name:oc": "ieo-bdtopoc"
  }
},