{
  "version": 0.6,
  "generator": "Overpass API 0.7.57 93a4d346",
  "osm3s": {
    "timestamp_osm_base": "2022-02-13T13:29:38Z",
    "timestamp_areas_base": "2022-02-13T06:31:57Z",
    "copyright": "The data included in this document is from www.openstreetmap.org. The data is made available under ODbL."
  },
  "elements": [

{
  "type": "node",
  "id": 9903227,
  "lat": 48.6952515,
  "lon": 6.1393095,
  "tags": {
    "bus": "yes",
    "highway": "bus_stop",
    "name": "Gentilly",
    "public_transport": "stop_position"
  }
},
{
  "type": "node",
  "id": 10467154,
  "lat": 48.6928836,
  "lon": 6.1682625,
  "tags": {
    "bus": "yes",
    "highway": "bus_stop",
    "name": "Place Godefroy de Bouillon",
    "public_transport": "stop_position"
  }
},
{
  "type": "node",
  "id": 10468444,
  "lat": 48.7013947,
  "lon": 6.1642241,
  "tags": {
    "bus": "yes",
    "highway": "bus_stop",
    "name": "Alix Le Clerc",
    "public_transport": "stop_position",
    "source": "survey"
  }
},
{
  "type": "node",
  "id": 10531881,
  "lat": 48.6908396,
  "lon": 6.1745178,
  "tags": {
    "bus": "yes",
    "highway": "bus_stop",
    "name": "Tour Thiers Gare",
    "public_transport": "stop_position"
  }
},
{
  "type": "node",
  "id": 90661247,
  "lat": 48.6836410,
  "lon": 6.1836890,
  "tags": {
    "bus": "yes",
    "highway": "bus_stop",
    "name": "Varsovie",
    "public_transport": "stop_position"
  }
},
{
  "type": "node",
  "id": 90662767,
  "lat": 48.7023742,
  "lon": 6.1744372,
  "tags": {
    "bus": "yes",
    "highway": "bus_stop",
    "name": "Joli Coeur",
    "public_transport": "stop_position"
  }
},
{
  "type": "node",
  "id": 90663985,
  "lat": 48.7044670,
  "lon": 6.1755818,
  "tags": {
    "alt_name": "Virginie Mauvais",
    "bus": "yes",
    "highway": "bus_stop",
    "name": "Fontenoy",
    "public_transport": "stop_position"
  }
},
{
  "type": "node",
  "id": 137828605,
  "lat": 48.6823679,
  "lon": 6.1658469,
  "tags": {
    "bus": "yes",
    "highway": "bus_stop",
    "name": "Painlevé",
    "public_transport": "stop_position"
  }
},
{
  "type": "node",
  "id": 164256180,
  "lat": 48.6765288,
  "lon": 6.1912894,
  "tags": {
    "bus": "yes",
    "highway": "bus_stop",
    "name": "Cimetière du Sud",
    "public_transport": "stop_position"
  }
},
{
  "type": "node",
  "id": 166298376,
  "lat": 48.6981232,
  "lon": 6.1926225,
  "tags": {
    "bus": "yes",
    "highway": "bus_stop",
    "name": "Dieuze",
    "public_transport": "stop_position",
    "source": "survey"
  }
},
{
  "type": "node",
  "id": 240375812,
  "lat": 48.6965976,
  "lon": 6.1783371,
  "tags": {
    "bus": "yes",
    "highway": "bus_stop",
    "name": "Arsenal",
    "public_transport": "stop_position"
  }
},
{
  "type": "node",
  "id": 253154452,
  "lat": 48.6978276,
  "lon": 6.1768855,
  "tags": {
    "bus": "yes",
    "highway": "bus_stop",
    "name": "Haut Bourgeois",
    "public_transport": "stop_position"
  }
},
{
  "type": "node",
  "id": 253154455,
  "lat": 48.6982791,
  "lon": 6.1783265,
  "tags": {
    "bus": "yes",
    "highway": "bus_stop",
    "name": "Porte de la Craffe",
    "public_transport": "stop_position"
  }
},
{
  "type": "node",
  "id": 254343664,
  "lat": 48.6934348,
  "lon": 6.1525611,
  "tags": {
    "bus": "yes",
    "highway": "bus_stop",
    "name": "Français",
    "public_transport": "stop_position"
  }
},
{
  "type": "node",
  "id": 258741851,
  "lat": 48.6989229,
  "lon": 6.1792268,
  "tags": {
    "bus": "yes",
    "highway": "bus_stop",
    "name": "Braconnot",
    "public_transport": "stop_position"
  }
},
{
  "type": "node",
  "id": 471819996,
  "lat": 48.6898683,
  "lon": 6.1712878,
  "tags": {
    "bus": "yes",
    "highway": "bus_stop",
    "name": "Saint-Léon",
    "public_transport": "stop_position"
  }
},
{
  "type": "node",
  "id": 471820000,
  "lat": 48.6892648,
  "lon": 6.1692921,
  "tags": {
    "bus": "yes",
    "highway": "bus_stop",
    "name": "Poincaré",
    "public_transport": "stop_position"
  }
},
{
  "type": "node",
  "id": 489310801,
  "lat": 48.6862558,
  "lon": 6.1810048,
  "tags": {
    "bus": "yes",
    "highway": "bus_stop",
    "name": "Place des Justes",
    "public_transport": "stop_position"
  }
},
{
  "type": "node",
  "id": 490727318,
  "lat": 48.6769784,
  "lon": 6.1653960,
  "tags": {
    "bus": "yes",
    "highway": "bus_stop",
    "name": "Placieux",
    "public_transport": "stop_position",
    "source": "survey"
  }
},
{
  "type": "node",
  "id": 491248998,
  "lat": 48.6816694,
  "lon": 6.1621228,
  "tags": {
    "bus": "yes",
    "highway": "bus_stop",
    "name": "Charlemagne",
    "public_transport": "stop_position"
  }
},
{
  "type": "node",
  "id": 491249008,
  "lat": 48.6823243,
  "lon": 6.1663012,
  "tags": {
    "bus": "yes",
    "highway": "bus_stop",
    "name": "Painlevé",
    "public_transport": "stop_position"
  }
},
{
  "type": "node",
  "id": 526226537,
  "lat": 48.6859415,
  "lon": 6.1911788,
  "tags": {
    "bus": "yes",
    "highway": "bus_stop",
    "name": "Saint-Julien",
    "public_transport": "stop_position",
    "source": "survey"
  }
},
{
  "type": "node",
  "id": 535259138,
  "lat": 48.6795214,
  "lon": 6.1818359,
  "tags": {
    "bus": "yes",
    "highway": "bus_stop",
    "name": "Brice",
    "public_transport": "stop_position"
  }
},
{
  "type": "node",
  "id": 538860142,
  "lat": 48.6961828,
  "lon": 6.1728436,
  "tags": {
    "bus": "yes",
    "highway": "bus_stop",
    "name": "Manufacture",
    "public_transport": "stop_position"
  }
},
{
  "type": "node",
  "id": 554160558,
  "lat": 48.6788405,
  "lon": 6.1846890,
  "tags": {
    "bus": "yes",
    "highway": "bus_stop",
    "name": "Clinchant",
    "public_transport": "stop_position"
  }
},
{
  "type": "node",
  "id": 559175632,
  "lat": 48.6875617,
  "lon": 6.1662429,
  "tags": {
    "bus": "yes",
    "highway": "bus_stop",
    "name": "Préville",
    "public_transport": "stop_position"
  }
},
{
  "type": "node",
  "id": 575270485,
  "lat": 48.6791636,
  "lon": 6.1672669,
  "tags": {
    "bus": "yes",
    "highway": "bus_stop",
    "name": "Nancy Thermal",
    "public_transport": "stop_position"
  }
},
{
  "type": "node",
  "id": 575270486,
  "lat": 48.6796113,
  "lon": 6.1669303,
  "tags": {
    "bus": "yes",
    "highway": "bus_stop",
    "name": "Nancy Thermal",
    "public_transport": "stop_position"
  }
},
{
  "type": "node",
  "id": 575270488,
  "lat": 48.6754479,
  "lon": 6.1718623,
  "tags": {
    "bus": "yes",
    "highway": "bus_stop",
    "name": "Sivry",
    "public_transport": "stop_position"
  }
},
{
  "type": "node",
  "id": 575270492,
  "lat": 48.6776741,
  "lon": 6.1702290,
  "tags": {
    "bus": "yes",
    "highway": "bus_stop",
    "name": "Maréchal Juin",
    "public_transport": "stop_position"
  }
},
{
  "type": "node",
  "id": 600738008,
  "lat": 48.6728797,
  "lon": 6.1759395,
  "tags": {
    "bus": "yes",
    "highway": "bus_stop",
    "name": "Chevert",
    "public_transport": "stop_position"
  }
},
{
  "type": "node",
  "id": 609748913,
  "lat": 48.6735619,
  "lon": 6.1735785,
  "tags": {
    "bus": "yes",
    "highway": "bus_stop",
    "name": "Gébhart",
    "public_transport": "stop_position"
  }
},
{
  "type": "node",
  "id": 618849911,
  "lat": 48.6994953,
  "lon": 6.1656606,
  "tags": {
    "bus": "yes",
    "highway": "bus_stop",
    "name": "Place Aimé Morot",
    "public_transport": "stop_position",
    "source": "survey"
  }
},
{
  "type": "node",
  "id": 619399002,
  "lat": 48.7009716,
  "lon": 6.1720240,
  "tags": {
    "bus": "yes",
    "highway": "bus_stop",
    "name": "Saint-Fiacre",
    "public_transport": "stop_position",
    "source": "survey"
  }
},
{
  "type": "node",
  "id": 658410424,
  "lat": 48.6777140,
  "lon": 6.1862506,
  "tags": {
    "bus": "yes",
    "highway": "bus_stop",
    "name": "Crépin",
    "public_transport": "stop_position",
    "source": "survey"
  }
},
{
  "type": "node",
  "id": 660760153,
  "lat": 48.6854617,
  "lon": 6.1667346,
  "tags": {
    "bus": "yes",
    "highway": "bus_stop",
    "name": "Commanderie",
    "public_transport": "stop_position"
  }
},
{
  "type": "node",
  "id": 660881021,
  "lat": 48.6846664,
  "lon": 6.1680635,
  "tags": {
    "bus": "yes",
    "highway": "bus_stop",
    "name": "Kléber",
    "public_transport": "stop_position"
  }
},
{
  "type": "node",
  "id": 724227164,
  "lat": 48.6926366,
  "lon": 6.1901391,
  "tags": {
    "bus": "yes",
    "highway": "bus_stop",
    "name": "Division de Fer",
    "public_transport": "stop_position",
    "source": "survey"
  }
},
{
  "type": "node",
  "id": 1225760059,
  "lat": 48.6884602,
  "lon": 6.1918379,
  "tags": {
    "bus": "yes",
    "highway": "bus_stop",
    "name": "Jardiniers",
    "public_transport": "stop_position",
    "source": "survey"
  }
},
{
  "type": "node",
  "id": 1645293603,
  "lat": 48.7065652,
  "lon": 6.1770450,
  "tags": {
    "bus": "yes",
    "highway": "bus_stop",
    "name": "Vayringe",
    "public_transport": "stop_position"
  }
},
{
  "type": "node",
  "id": 1645293604,
  "lat": 48.7072467,
  "lon": 6.1776040,
  "tags": {
    "bus": "yes",
    "highway": "bus_stop",
    "name": "Vayringe",
    "public_transport": "stop_position"
  }
},
{
  "type": "node",
  "id": 1645296833,
  "lat": 48.7030690,
  "lon": 6.1752541,
  "tags": {
    "bus": "yes",
    "highway": "bus_stop",
    "name": "Pierson",
    "public_transport": "stop_position"
  }
},
{
  "type": "node",
  "id": 1645320238,
  "lat": 48.6986318,
  "lon": 6.1753546,
  "tags": {
    "bus": "yes",
    "highway": "bus_stop",
    "name": "Charles V",
    "public_transport": "stop_position",
    "source": "cadastre-dgi-fr source : Direction Générale des Impôts - Cadastre. Mise à jour : 2012"
  }
},
{
  "type": "node",
  "id": 1645320258,
  "lat": 48.7006097,
  "lon": 6.1764740,
  "tags": {
    "bus": "yes",
    "highway": "bus_stop",
    "name": "Simon",
    "public_transport": "stop_position",
    "source": "survey;GrandNancy Orthophotographie 2020"
  }
},
{
  "type": "node",
  "id": 1645409856,
  "lat": 48.6959660,
  "lon": 6.1763915,
  "tags": {
    "bus": "yes",
    "highway": "bus_stop",
    "name": "Haut Bourgeois",
    "public_transport": "stop_position",
    "source": "cadastre-dgi-fr source : Direction Générale des Impôts - Cadastre. Mise à jour : 2012"
  }
},
{
  "type": "node",
  "id": 1645409862,
  "lat": 48.6942809,
  "lon": 6.1775992,
  "tags": {
    "bus": "yes",
    "highway": "bus_stop",
    "name": "Place Carnot",
    "public_transport": "stop_position",
    "source": "cadastre-dgi-fr source : Direction Générale des Impôts - Cadastre. Mise à jour : 2012"
  }
},
{
  "type": "node",
  "id": 1645474608,
  "lat": 48.6935622,
  "lon": 6.1804078,
  "tags": {
    "bus": "yes",
    "highway": "bus_stop",
    "name": "Amerval",
    "public_transport": "stop_position"
  }
},
{
  "type": "node",
  "id": 1645474611,
  "lat": 48.6897029,
  "lon": 6.1832685,
  "tags": {
    "bus": "yes",
    "highway": "bus_stop",
    "name": "Place Charles III Point Central",
    "public_transport": "stop_position",
    "source": "cadastre-dgi-fr source : Direction Générale des Impôts - Cadastre. Mise à jour : 2012"
  }
},
{
  "type": "node",
  "id": 1645487678,
  "lat": 48.6844157,
  "lon": 6.1782785,
  "tags": {
    "bus": "yes",
    "highway": "bus_stop",
    "name": "Mulhouse",
    "public_transport": "stop_position"
  }
},
{
  "type": "node",
  "id": 1645514883,
  "lat": 48.6827698,
  "lon": 6.1691805,
  "tags": {
    "bus": "yes",
    "highway": "bus_stop",
    "name": "Dupont des Loges",
    "public_transport": "stop_position"
  }
},
{
  "type": "node",
  "id": 1645544451,
  "lat": 48.6727711,
  "lon": 6.1636464,
  "tags": {
    "bus": "yes",
    "highway": "bus_stop",
    "name": "Avenue de Brabois",
    "public_transport": "stop_position"
  }
},
{
  "type": "node",
  "id": 1645544452,
  "lat": 48.6728746,
  "lon": 6.1639249,
  "tags": {
    "bus": "yes",
    "highway": "bus_stop",
    "name": "Avenue de Brabois",
    "public_transport": "stop_position"
  }
},
{
  "type": "node",
  "id": 1650149819,
  "lat": 48.6871047,
  "lon": 6.1822616,
  "tags": {
    "bus": "yes",
    "highway": "bus_stop",
    "name": "Cyfflé",
    "public_transport": "stop_position"
  }
},
{
  "type": "node",
  "id": 1650263097,
  "lat": 48.6837515,
  "lon": 6.1697812,
  "tags": {
    "bus": "yes",
    "highway": "bus_stop",
    "name": "Kléber",
    "public_transport": "stop_position"
  }
},
{
  "type": "node",
  "id": 1650263104,
  "lat": 48.6850424,
  "lon": 6.1792817,
  "tags": {
    "bus": "yes",
    "highway": "bus_stop",
    "name": "Mulhouse",
    "public_transport": "stop_position"
  }
},
{
  "type": "node",
  "id": 1650287364,
  "lat": 48.6964445,
  "lon": 6.1744680,
  "tags": {
    "bus": "yes",
    "highway": "bus_stop",
    "name": "Baron Louis",
    "public_transport": "stop_position"
  }
},
{
  "type": "node",
  "id": 1650287377,
  "lat": 48.6928462,
  "lon": 6.1770294,
  "tags": {
    "bus": "yes",
    "highway": "bus_stop",
    "name": "Place Carnot",
    "public_transport": "stop_position"
  }
},
{
  "type": "node",
  "id": 1650293300,
  "lat": 48.7048466,
  "lon": 6.1742019,
  "tags": {
    "bus": "yes",
    "highway": "bus_stop",
    "name": "Dusaulx",
    "public_transport": "stop_position"
  }
},
{
  "type": "node",
  "id": 1650293304,
  "lat": 48.7058548,
  "lon": 6.1757828,
  "tags": {
    "bus": "yes",
    "highway": "bus_stop",
    "name": "MJC 3 Maisons",
    "old_name": "Malzéville Ecoles",
    "public_transport": "stop_position"
  }
},
{
  "type": "node",
  "id": 1675847704,
  "lat": 48.6907465,
  "lon": 6.1711910,
  "tags": {
    "bus": "yes",
    "highway": "bus_stop",
    "name": "Patton",
    "public_transport": "stop_position",
    "source": "survey"
  }
},
{
  "type": "node",
  "id": 1676686338,
  "lat": 48.6919002,
  "lon": 6.1683282,
  "tags": {
    "bus": "yes",
    "highway": "bus_stop",
    "name": "Place Godefroy de Bouillon",
    "public_transport": "stop_position"
  }
},
{
  "type": "node",
  "id": 1676686351,
  "lat": 48.7032069,
  "lon": 6.1551489,
  "tags": {
    "bus": "yes",
    "highway": "bus_stop",
    "name": "Tilleul Argenté",
    "public_transport": "stop_position"
  }
},
{
  "type": "node",
  "id": 1676686365,
  "lat": 48.6955912,
  "lon": 6.1674244,
  "tags": {
    "bus": "yes",
    "highway": "bus_stop",
    "name": "Campus Lettres",
    "public_transport": "stop_position"
  }
},
{
  "type": "node",
  "id": 1681252498,
  "lat": 48.7019543,
  "lon": 6.1508624,
  "tags": {
    "bus": "yes",
    "highway": "bus_stop",
    "name": "Cèdre Bleu",
    "public_transport": "stop_position"
  }
},
{
  "type": "node",
  "id": 1681252509,
  "lat": 48.7009578,
  "lon": 6.1472432,
  "tags": {
    "bus": "yes",
    "highway": "bus_stop",
    "name": "Les Ombelles",
    "public_transport": "stop_position"
  }
},
{
  "type": "node",
  "id": 1681252521,
  "lat": 48.6995696,
  "lon": 6.1384599,
  "tags": {
    "bus": "yes",
    "highway": "bus_stop",
    "name": "Palais des Sports Gentilly",
    "public_transport": "stop_position"
  }
},
{
  "type": "node",
  "id": 1681252523,
  "lat": 48.6998045,
  "lon": 6.1405571,
  "tags": {
    "bus": "yes",
    "highway": "bus_stop",
    "name": "Palais des Sports Gentilly",
    "public_transport": "stop_position"
  }
},
{
  "type": "node",
  "id": 1681252530,
  "lat": 48.7000735,
  "lon": 6.1433464,
  "tags": {
    "bus": "yes",
    "highway": "bus_stop",
    "name": "Cliniques",
    "public_transport": "stop_position"
  }
},
{
  "type": "node",
  "id": 1681252535,
  "lat": 48.7002306,
  "lon": 6.1440813,
  "tags": {
    "bus": "yes",
    "highway": "bus_stop",
    "name": "Cliniques",
    "public_transport": "stop_position"
  }
},
{
  "type": "node",
  "id": 1681366964,
  "lat": 48.6883778,
  "lon": 6.1703046,
  "tags": {
    "bus": "yes",
    "highway": "bus_stop",
    "name": "Donrémy",
    "public_transport": "stop_position"
  }
},
{
  "type": "node",
  "id": 1721571103,
  "lat": 48.6904733,
  "lon": 6.1557164,
  "tags": {
    "bus": "yes",
    "highway": "bus_stop",
    "name": "Chemin Blanc",
    "public_transport": "stop_position"
  }
},
{
  "type": "node",
  "id": 1721571107,
  "lat": 48.6917471,
  "lon": 6.1496442,
  "tags": {
    "bus": "yes",
    "highway": "bus_stop",
    "name": "La Côte",
    "public_transport": "stop_position"
  }
},
{
  "type": "node",
  "id": 1721571108,
  "lat": 48.6918594,
  "lon": 6.1490987,
  "tags": {
    "bus": "yes",
    "highway": "bus_stop",
    "name": "La Côte",
    "public_transport": "stop_position"
  }
},
{
  "type": "node",
  "id": 1721571111,
  "lat": 48.6880808,
  "lon": 6.1654159,
  "tags": {
    "bus": "yes",
    "highway": "bus_stop",
    "name": "Préville",
    "public_transport": "stop_position"
  }
},
{
  "type": "node",
  "id": 1721571112,
  "lat": 48.6884190,
  "lon": 6.1665063,
  "tags": {
    "bus": "yes",
    "highway": "bus_stop",
    "name": "Préville",
    "public_transport": "stop_position"
  }
},
{
  "type": "node",
  "id": 1721571113,
  "lat": 48.6932394,
  "lon": 6.1403026,
  "tags": {
    "bench": "yes",
    "bus": "yes",
    "highway": "bus_stop",
    "name": "Beauregard Sainte-Anne",
    "public_transport": "stop_position",
    "shelter": "yes",
    "wheelchair": "yes"
  }
},
{
  "type": "node",
  "id": 1721571114,
  "lat": 48.6932670,
  "lon": 6.1400392,
  "tags": {
    "bus": "yes",
    "highway": "bus_stop",
    "name": "Beauregard Sainte-Anne",
    "public_transport": "stop_position"
  }
},
{
  "type": "node",
  "id": 1721571115,
  "lat": 48.6895285,
  "lon": 6.1601400,
  "tags": {
    "bus": "yes",
    "highway": "bus_stop",
    "name": "Messier",
    "public_transport": "stop_position"
  }
},
{
  "type": "node",
  "id": 1721571116,
  "lat": 48.6896482,
  "lon": 6.1595782,
  "tags": {
    "bus": "yes",
    "highway": "bus_stop",
    "name": "Messier",
    "public_transport": "stop_position"
  }
},
{
  "type": "node",
  "id": 1721571117,
  "lat": 48.6925409,
  "lon": 6.1458997,
  "tags": {
    "bus": "yes",
    "highway": "bus_stop",
    "mapillary": "coky-oMITdkpjRdXI_Fovg",
    "name": "Viray",
    "public_transport": "stop_position",
    "ref:FR:STAN": "1286",
    "source": "Métropole du Grand Nancy - 06/2017",
    "survey:date": "2017-07-04",
    "wheelchair": "yes"
  }
},
{
  "type": "node",
  "id": 1721731725,
  "lat": 48.6792680,
  "lon": 6.1805700,
  "tags": {
    "bus": "yes",
    "highway": "bus_stop",
    "name": "Parc de Saurupt",
    "public_transport": "stop_position"
  }
},
{
  "type": "node",
  "id": 1721731755,
  "lat": 48.6812498,
  "lon": 6.1827779,
  "tags": {
    "bus": "yes",
    "highway": "bus_stop",
    "name": "Garenne",
    "public_transport": "stop_position"
  }
},
{
  "type": "node",
  "id": 1721731758,
  "lat": 48.6820464,
  "lon": 6.1836906,
  "tags": {
    "bus": "yes",
    "highway": "bus_stop",
    "name": "Garenne",
    "public_transport": "stop_position"
  }
},
{
  "type": "node",
  "id": 1721769056,
  "lat": 48.6763097,
  "lon": 6.1786938,
  "tags": {
    "bus": "yes",
    "highway": "bus_stop",
    "name": "Oudinot",
    "public_transport": "stop_position"
  }
},
{
  "type": "node",
  "id": 1721769059,
  "lat": 48.6744184,
  "lon": 6.1813457,
  "tags": {
    "bus": "yes",
    "highway": "bus_stop",
    "name": "Vaucouleurs",
    "public_transport": "stop_position"
  }
},
{
  "type": "node",
  "id": 1722624045,
  "lat": 48.6760798,
  "lon": 6.1817946,
  "tags": {
    "bus": "yes",
    "highway": "bus_stop",
    "name": "Oudinot",
    "public_transport": "stop_position"
  }
},
{
  "type": "node",
  "id": 1722624121,
  "lat": 48.6845233,
  "lon": 6.1865198,
  "tags": {
    "bus": "yes",
    "highway": "bus_stop",
    "name": "Pichon",
    "public_transport": "stop_position"
  }
},
{
  "type": "node",
  "id": 1722641000,
  "lat": 48.6921368,
  "lon": 6.1786850,
  "tags": {
    "bus": "yes",
    "highway": "bus_stop",
    "name": "Place Dombasle",
    "public_transport": "stop_position"
  }
},
{
  "type": "node",
  "id": 1722812381,
  "lat": 48.7029249,
  "lon": 6.1826529,
  "tags": {
    "bus": "yes",
    "highway": "bus_stop",
    "name": "Canal",
    "public_transport": "stop_position",
    "source": "survey"
  }
},
{
  "type": "node",
  "id": 1722812391,
  "lat": 48.7031580,
  "lon": 6.1821891,
  "tags": {
    "bus": "yes",
    "highway": "bus_stop",
    "name": "Canal",
    "public_transport": "stop_position",
    "source": "survey"
  }
},
{
  "type": "node",
  "id": 1730342942,
  "lat": 48.7012610,
  "lon": 6.1443653,
  "tags": {
    "bus": "yes",
    "highway": "bus_stop",
    "name": "Majorelle",
    "public_transport": "stop_position"
  }
},
{
  "type": "node",
  "id": 1730342943,
  "lat": 48.7015746,
  "lon": 6.1439865,
  "tags": {
    "bus": "yes",
    "highway": "bus_stop",
    "name": "Majorelle",
    "public_transport": "stop_position"
  }
},
{
  "type": "node",
  "id": 1732884978,
  "lat": 48.6957249,
  "lon": 6.1409045,
  "tags": {
    "bus": "yes",
    "highway": "bus_stop",
    "name": "Colline",
    "public_transport": "stop_position"
  }
},
{
  "type": "node",
  "id": 1732884983,
  "lat": 48.6961470,
  "lon": 6.1425772,
  "tags": {
    "bus": "yes",
    "highway": "bus_stop",
    "name": "Colline",
    "public_transport": "stop_position"
  }
},
{
  "type": "node",
  "id": 1732884984,
  "lat": 48.6912634,
  "lon": 6.1384752,
  "tags": {
    "bus": "yes",
    "highway": "bus_stop",
    "name": "Georges de la Tour",
    "public_transport": "stop_position"
  }
},
{
  "type": "node",
  "id": 1732905854,
  "lat": 48.6965128,
  "lon": 6.1462191,
  "tags": {
    "bus": "yes",
    "highway": "bus_stop",
    "name": "Buthégnémont",
    "public_transport": "stop_position"
  }
},
{
  "type": "node",
  "id": 1732954596,
  "lat": 48.6932204,
  "lon": 6.1654776,
  "tags": {
    "bus": "yes",
    "highway": "bus_stop",
    "name": "Cavallier",
    "public_transport": "stop_position"
  }
},
{
  "type": "node",
  "id": 1732954601,
  "lat": 48.6942363,
  "lon": 6.1651698,
  "tags": {
    "bus": "yes",
    "highway": "bus_stop",
    "name": "Cavallier",
    "public_transport": "stop_position"
  }
},
{
  "type": "node",
  "id": 1732954627,
  "lat": 48.6927161,
  "lon": 6.1665282,
  "tags": {
    "bus": "yes",
    "highway": "bus_stop",
    "name": "Place Godefroy de Bouillon",
    "public_transport": "stop_position"
  }
},
{
  "type": "node",
  "id": 1732954632,
  "lat": 48.6969300,
  "lon": 6.1591700,
  "tags": {
    "bus": "yes",
    "highway": "bus_stop",
    "name": "La Foucotte",
    "public_transport": "stop_position"
  }
},
{
  "type": "node",
  "id": 1732954634,
  "lat": 48.6973702,
  "lon": 6.1551099,
  "tags": {
    "bus": "yes",
    "highway": "bus_stop",
    "name": "Saint-Mansuy",
    "public_transport": "stop_position"
  }
},
{
  "type": "node",
  "id": 1732977279,
  "lat": 48.6930227,
  "lon": 6.1381813,
  "tags": {
    "bus": "yes",
    "highway": "bus_stop",
    "name": "Boufflers",
    "public_transport": "stop_position"
  }
},
{
  "type": "node",
  "id": 1753728815,
  "lat": 48.6761509,
  "lon": 6.1997979,
  "tags": {
    "bus": "yes",
    "highway": "bus_stop",
    "name": "Alsace Bonsecours",
    "public_transport": "stop_position"
  }
},
{
  "type": "node",
  "id": 1753743331,
  "lat": 48.6776534,
  "lon": 6.1987076,
  "tags": {
    "bus": "yes",
    "highway": "bus_stop",
    "name": "Achille Levy",
    "public_transport": "stop_position"
  }
},
{
  "type": "node",
  "id": 1753894246,
  "lat": 48.6820258,
  "lon": 6.1922371,
  "tags": {
    "bus": "yes",
    "highway": "bus_stop",
    "name": "Hôpital Central Maternité",
    "public_transport": "stop_position"
  }
},
{
  "type": "node",
  "id": 1753894314,
  "lat": 48.6822851,
  "lon": 6.1919728,
  "tags": {
    "bus": "yes",
    "highway": "bus_stop",
    "name": "Hôpital Central Maternité",
    "public_transport": "stop_position"
  }
},
{
  "type": "node",
  "id": 1760670929,
  "lat": 48.6847674,
  "lon": 6.1876583,
  "tags": {
    "bus": "yes",
    "highway": "bus_stop",
    "name": "Place des Vosges",
    "name:de": "Vogesenplatz",
    "name:fr": "Place des Vosges",
    "public_transport": "stop_position"
  }
},
{
  "type": "node",
  "id": 1811742010,
  "lat": 48.6895746,
  "lon": 6.2025046,
  "tags": {
    "bus": "yes",
    "highway": "bus_stop",
    "name": "Stade Matter",
    "public_transport": "stop_position"
  }
},
{
  "type": "node",
  "id": 1844248403,
  "lat": 48.6882078,
  "lon": 6.1997746,
  "tags": {
    "bus": "yes",
    "highway": "bus_stop",
    "name": "Esplanade",
    "public_transport": "stop_position"
  }
},
{
  "type": "node",
  "id": 1844312793,
  "lat": 48.6871119,
  "lon": 6.1954834,
  "tags": {
    "bus": "yes",
    "highway": "bus_stop",
    "name": "Loritz",
    "public_transport": "stop_position"
  }
},
{
  "type": "node",
  "id": 1943353148,
  "lat": 48.6939599,
  "lon": 6.1764959,
  "tags": {
    "bus": "yes",
    "highway": "bus_stop",
    "name": "Nancy Cours Léopold",
    "public_transport": "stop_position"
  }
},
{
  "type": "node",
  "id": 2000614079,
  "lat": 48.6948841,
  "lon": 6.1384821,
  "tags": {
    "bus": "yes",
    "highway": "bus_stop",
    "name": "Gentilly",
    "public_transport": "stop_position",
    "source": "survey"
  }
},
{
  "type": "node",
  "id": 2020455096,
  "lat": 48.6866576,
  "lon": 6.1607534,
  "tags": {
    "bus": "yes",
    "highway": "bus_stop",
    "name": "Gridel",
    "public_transport": "stop_position"
  }
},
{
  "type": "node",
  "id": 2020455102,
  "lat": 48.6853204,
  "lon": 6.1602855,
  "tags": {
    "bus": "yes",
    "highway": "bus_stop",
    "name": "Médreville",
    "public_transport": "stop_position"
  }
},
{
  "type": "node",
  "id": 2020455110,
  "lat": 48.6862552,
  "lon": 6.1628537,
  "tags": {
    "bus": "yes",
    "highway": "bus_stop",
    "name": "Sacré-Cœur",
    "public_transport": "stop_position"
  }
},
{
  "type": "node",
  "id": 2080524556,
  "lat": 48.6788410,
  "lon": 6.1887592,
  "tags": {
    "bus": "yes",
    "highway": "bus_stop",
    "name": "Villemin",
    "public_transport": "stop_position"
  }
},
{
  "type": "node",
  "id": 2091698377,
  "lat": 48.6931504,
  "lon": 6.1923296,
  "tags": {
    "bus": "yes",
    "highway": "bus_stop",
    "name": "21e R.A.",
    "public_transport": "stop_position"
  }
},
{
  "type": "node",
  "id": 2095353735,
  "lat": 48.6725235,
  "lon": 6.1721877,
  "tags": {
    "bus": "yes",
    "highway": "bus_stop",
    "name": "ARTEM",
    "public_transport": "stop_position"
  }
},
{
  "type": "node",
  "id": 2107522590,
  "lat": 48.6801329,
  "lon": 6.1846376,
  "tags": {
    "bus": "yes",
    "highway": "bus_stop",
    "name": "Clinchant",
    "public_transport": "stop_position"
  }
},
{
  "type": "node",
  "id": 2107522596,
  "lat": 48.6819687,
  "lon": 6.1854439,
  "tags": {
    "bus": "yes",
    "highway": "bus_stop",
    "name": "Quai de la Bataille",
    "public_transport": "stop_position"
  }
},
{
  "type": "node",
  "id": 2107522602,
  "lat": 48.6801891,
  "lon": 6.1878854,
  "tags": {
    "bus": "yes",
    "highway": "bus_stop",
    "name": "Villard",
    "public_transport": "stop_position"
  }
},
{
  "type": "node",
  "id": 2143321809,
  "lat": 48.6890799,
  "lon": 6.1822929,
  "tags": {
    "bus": "yes",
    "highway": "bus_stop",
    "name": "Place Charles III Point Central",
    "public_transport": "stop_position"
  }
},
{
  "type": "node",
  "id": 2143321812,
  "lat": 48.6908953,
  "lon": 6.1810009,
  "tags": {
    "bus": "yes",
    "highway": "bus_stop",
    "name": "Place Stanislas Dom Calmet",
    "public_transport": "stop_position"
  }
},
{
  "type": "node",
  "id": 2171047763,
  "lat": 48.6858752,
  "lon": 6.1968917,
  "tags": {
    "bus": "yes",
    "highway": "bus_stop",
    "name": "Loritz",
    "public_transport": "stop_position"
  }
},
{
  "type": "node",
  "id": 2171856278,
  "lat": 48.6967359,
  "lon": 6.1928362,
  "tags": {
    "bus": "yes",
    "highway": "bus_stop",
    "name": "Bazin",
    "public_transport": "stop_position"
  }
},
{
  "type": "node",
  "id": 2171856280,
  "lat": 48.6955323,
  "lon": 6.1936481,
  "tags": {
    "bus": "yes",
    "highway": "bus_stop",
    "name": "Saint-Georges",
    "public_transport": "stop_position"
  }
},
{
  "type": "node",
  "id": 2171856282,
  "lat": 48.6949572,
  "lon": 6.1899408,
  "tags": {
    "bus": "yes",
    "highway": "bus_stop",
    "name": "Sainte-Catherine",
    "public_transport": "stop_position",
    "source": "survey"
  }
},
{
  "type": "node",
  "id": 2193384113,
  "lat": 48.6865666,
  "lon": 6.1678729,
  "tags": {
    "bus": "yes",
    "highway": "bus_stop",
    "name": "Commanderie",
    "public_transport": "stop_position"
  }
},
{
  "type": "node",
  "id": 2193384115,
  "lat": 48.6883281,
  "lon": 6.1730352,
  "tags": {
    "bus": "yes",
    "highway": "bus_stop",
    "name": "Saint-Léon",
    "public_transport": "stop_position"
  }
},
{
  "type": "node",
  "id": 2204536441,
  "lat": 48.6885432,
  "lon": 6.1759774,
  "tags": {
    "bus": "yes",
    "highway": "bus_stop",
    "name": "Nancy Place République",
    "public_transport": "stop_position"
  }
},
{
  "type": "node",
  "id": 2204536442,
  "lat": 48.6886543,
  "lon": 6.1763206,
  "tags": {
    "bus": "yes",
    "highway": "bus_stop",
    "name": "Nancy Place République",
    "public_transport": "stop_position"
  }
},
{
  "type": "node",
  "id": 2206327812,
  "lat": 48.6883818,
  "lon": 6.1761783,
  "tags": {
    "bus": "yes",
    "highway": "bus_stop",
    "name": "Nancy Place République",
    "public_transport": "stop_position"
  }
},
{
  "type": "node",
  "id": 2206327813,
  "lat": 48.6884224,
  "lon": 6.1763009,
  "tags": {
    "bus": "yes",
    "highway": "bus_stop",
    "name": "Nancy Place République",
    "public_transport": "stop_position"
  }
},
{
  "type": "node",
  "id": 2206327814,
  "lat": 48.6884729,
  "lon": 6.1764536,
  "tags": {
    "bus": "yes",
    "highway": "bus_stop",
    "name": "Nancy Place République",
    "public_transport": "stop_position"
  }
},
{
  "type": "node",
  "id": 2206327816,
  "lat": 48.6887914,
  "lon": 6.1757990,
  "tags": {
    "bus": "yes",
    "highway": "bus_stop",
    "name": "Nancy Place République",
    "public_transport": "stop_position"
  }
},
{
  "type": "node",
  "id": 2206327817,
  "lat": 48.6888960,
  "lon": 6.1761372,
  "tags": {
    "bus": "yes",
    "highway": "bus_stop",
    "name": "Nancy Place République",
    "public_transport": "stop_position"
  }
},
{
  "type": "node",
  "id": 2440786189,
  "lat": 48.7031930,
  "lon": 6.1675134,
  "tags": {
    "bus": "yes",
    "highway": "bus_stop",
    "name": "Ligier - Richier",
    "public_transport": "stop_position"
  }
},
{
  "type": "node",
  "id": 2451305484,
  "lat": 48.6892513,
  "lon": 6.1758584,
  "tags": {
    "bus": "yes",
    "highway": "bus_stop",
    "name": "Nancy Gare",
    "public_transport": "stop_position"
  }
},
{
  "type": "node",
  "id": 2455792242,
  "lat": 48.6833150,
  "lon": 6.1727381,
  "tags": {
    "bus": "yes",
    "highway": "bus_stop",
    "name": "Jeanne d'Arc",
    "public_transport": "stop_position"
  }
},
{
  "type": "node",
  "id": 2457707632,
  "lat": 48.6956241,
  "lon": 6.1953968,
  "tags": {
    "bus": "yes",
    "highway": "bus_stop",
    "name": "Saint-Georges",
    "public_transport": "stop_position"
  }
},
{
  "type": "node",
  "id": 2459484105,
  "lat": 48.6820229,
  "lon": 6.1644963,
  "tags": {
    "bus": "yes",
    "highway": "bus_stop",
    "name": "Painlevé",
    "public_transport": "stop_position"
  }
},
{
  "type": "node",
  "id": 2460982676,
  "lat": 48.6861097,
  "lon": 6.1844972,
  "tags": {
    "bus": "yes",
    "highway": "bus_stop",
    "name": "Quartier Saint-Nicolas",
    "public_transport": "stop_position"
  }
},
{
  "type": "node",
  "id": 2460982677,
  "lat": 48.6876206,
  "lon": 6.1848184,
  "tags": {
    "bus": "yes",
    "highway": "bus_stop",
    "name": "Quartier Saint-Nicolas",
    "public_transport": "stop_position"
  }
},
{
  "type": "node",
  "id": 2463239841,
  "lat": 48.6881988,
  "lon": 6.1795301,
  "tags": {
    "bus": "yes",
    "highway": "bus_stop",
    "name": "Saint-Sébastien",
    "public_transport": "stop_position"
  }
},
{
  "type": "node",
  "id": 2463261721,
  "lat": 48.6903584,
  "lon": 6.1756633,
  "tags": {
    "bus": "yes",
    "highway": "bus_stop",
    "name": "Poirel",
    "public_transport": "stop_position"
  }
},
{
  "type": "node",
  "id": 2464112178,
  "lat": 48.7031614,
  "lon": 6.1704631,
  "tags": {
    "bus": "yes",
    "highway": "bus_stop",
    "name": "Carsat",
    "public_transport": "stop_position",
    "source": "survey"
  }
},
{
  "type": "node",
  "id": 2464112179,
  "lat": 48.7010922,
  "lon": 6.1719385,
  "tags": {
    "bus": "yes",
    "highway": "bus_stop",
    "name": "Saint-Fiacre",
    "public_transport": "stop_position",
    "source": "survey"
  }
},
{
  "type": "node",
  "id": 2464386209,
  "lat": 48.6919997,
  "lon": 6.1815458,
  "tags": {
    "bus": "yes",
    "highway": "bus_stop",
    "name": "Place Stanislas Dom Calmet",
    "public_transport": "stop_position"
  }
},
{
  "type": "node",
  "id": 2469170427,
  "lat": 48.6782780,
  "lon": 6.1979379,
  "tags": {
    "bench": "yes",
    "bus": "yes",
    "highway": "bus_stop",
    "name": "Achille Lévy",
    "public_transport": "stop_position"
  }
},
{
  "type": "node",
  "id": 2469170439,
  "lat": 48.6804463,
  "lon": 6.1947781,
  "tags": {
    "bus": "yes",
    "highway": "bus_stop",
    "name": "Vic",
    "public_transport": "stop_position"
  }
},
{
  "type": "node",
  "id": 2469170448,
  "lat": 48.6805738,
  "lon": 6.1947207,
  "tags": {
    "bus": "yes",
    "highway": "bus_stop",
    "name": "Vic",
    "public_transport": "stop_position"
  }
},
{
  "type": "node",
  "id": 2470472670,
  "lat": 48.6901791,
  "lon": 6.1999691,
  "tags": {
    "bus": "yes",
    "highway": "bus_stop",
    "name": "Rives de Meurthe",
    "public_transport": "stop_position"
  }
},
{
  "type": "node",
  "id": 2470472671,
  "lat": 48.6925312,
  "lon": 6.1970998,
  "tags": {
    "bus": "yes",
    "highway": "bus_stop",
    "name": "Cinéma",
    "public_transport": "stop_position"
  }
},
{
  "type": "node",
  "id": 2470472673,
  "lat": 48.6881829,
  "lon": 6.2000601,
  "tags": {
    "bus": "yes",
    "highway": "bus_stop",
    "name": "Esplanade",
    "public_transport": "stop_position"
  }
},
{
  "type": "node",
  "id": 2470583810,
  "lat": 48.6972305,
  "lon": 6.1927573,
  "tags": {
    "bus": "yes",
    "highway": "bus_stop",
    "name": "Bazin",
    "public_transport": "stop_position"
  }
},
{
  "type": "node",
  "id": 2470583811,
  "lat": 48.6974337,
  "lon": 6.1988790,
  "tags": {
    "bus": "yes",
    "highway": "bus_stop",
    "name": "Cristalleries",
    "public_transport": "stop_position"
  }
},
{
  "type": "node",
  "id": 2470583812,
  "lat": 48.6976162,
  "lon": 6.1967562,
  "tags": {
    "bus": "yes",
    "highway": "bus_stop",
    "name": "Cristalleries",
    "public_transport": "stop_position"
  }
},
{
  "type": "node",
  "id": 2472512580,
  "lat": 48.6874366,
  "lon": 6.2045361,
  "tags": {
    "bus": "yes",
    "highway": "bus_stop",
    "name": "Austrasie",
    "public_transport": "stop_position"
  }
},
{
  "type": "node",
  "id": 2472512584,
  "lat": 48.6896543,
  "lon": 6.2023244,
  "tags": {
    "bus": "yes",
    "highway": "bus_stop",
    "name": "Stade Matter",
    "public_transport": "stop_position"
  }
},
{
  "type": "node",
  "id": 2472512585,
  "lat": 48.6864743,
  "lon": 6.1998059,
  "tags": {
    "bus": "yes",
    "highway": "bus_stop",
    "name": "Victor",
    "public_transport": "stop_position"
  }
},
{
  "type": "node",
  "id": 2472512586,
  "lat": 48.6866600,
  "lon": 6.2007255,
  "tags": {
    "bus": "yes",
    "highway": "bus_stop",
    "name": "Victor",
    "public_transport": "stop_position"
  }
},
{
  "type": "node",
  "id": 2488849546,
  "lat": 48.6828403,
  "lon": 6.2030293,
  "tags": {
    "bus": "yes",
    "highway": "bus_stop",
    "name": "Krug",
    "public_transport": "stop_position"
  }
},
{
  "type": "node",
  "id": 2488849547,
  "lat": 48.6792323,
  "lon": 6.2048312,
  "tags": {
    "bus": "yes",
    "highway": "bus_stop",
    "name": "Marcel Brot",
    "public_transport": "stop_position"
  }
},
{
  "type": "node",
  "id": 2505301799,
  "lat": 48.7001962,
  "lon": 6.1842586,
  "tags": {
    "bus": "yes",
    "highway": "bus_stop",
    "name": "Parc de la Pépinière",
    "public_transport": "stop_position"
  }
},
{
  "type": "node",
  "id": 2525688697,
  "lat": 48.7023320,
  "lon": 6.1521565,
  "tags": {
    "bus": "yes",
    "highway": "bus_stop",
    "name": "Cèdre Bleu",
    "public_transport": "stop_position"
  }
},
{
  "type": "node",
  "id": 2525688700,
  "lat": 48.7035639,
  "lon": 6.1551670,
  "tags": {
    "bus": "yes",
    "highway": "bus_stop",
    "name": "Tilleul Argenté",
    "public_transport": "stop_position",
    "source": "survey"
  }
},
{
  "type": "node",
  "id": 2526286485,
  "lat": 48.7020056,
  "lon": 6.1639534,
  "tags": {
    "bus": "yes",
    "highway": "bus_stop",
    "name": "Alix Le Clerc",
    "public_transport": "stop_position",
    "source": "survey"
  }
},
{
  "type": "node",
  "id": 2526286486,
  "lat": 48.7036503,
  "lon": 6.1632841,
  "tags": {
    "bus": "yes",
    "highway": "bus_stop",
    "name": "Jean Lamour",
    "public_transport": "stop_position",
    "source": "survey"
  }
},
{
  "type": "node",
  "id": 2526286487,
  "lat": 48.7050082,
  "lon": 6.1627150,
  "tags": {
    "bus": "yes",
    "highway": "bus_stop",
    "name": "Jean Lamour",
    "public_transport": "stop_position",
    "source": "survey"
  }
},
{
  "type": "node",
  "id": 2526286489,
  "lat": 48.6993043,
  "lon": 6.1657784,
  "tags": {
    "bus": "yes",
    "highway": "bus_stop",
    "name": "Place Aimé Morot",
    "public_transport": "stop_position",
    "source": "survey"
  }
},
{
  "type": "node",
  "id": 2528196053,
  "lat": 48.6903962,
  "lon": 6.1560759,
  "tags": {
    "bus": "yes",
    "highway": "bus_stop",
    "name": "Chemin Blanc",
    "public_transport": "stop_position"
  }
},
{
  "type": "node",
  "id": 2528196054,
  "lat": 48.6888422,
  "lon": 6.1633703,
  "tags": {
    "bus": "yes",
    "highway": "bus_stop",
    "name": "Santifontaine",
    "public_transport": "stop_position",
    "source": "survey"
  }
},
{
  "type": "node",
  "id": 2528196055,
  "lat": 48.6890081,
  "lon": 6.1625870,
  "tags": {
    "bus": "yes",
    "highway": "bus_stop",
    "name": "Santifontaine",
    "public_transport": "stop_position",
    "source": "survey"
  }
},
{
  "type": "node",
  "id": 2528196056,
  "lat": 48.6925223,
  "lon": 6.1459843,
  "tags": {
    "bus": "yes",
    "highway": "bus_stop",
    "mapillary": "X9Vc-sCcO-nkEZ-H_5T2tg",
    "name": "Viray",
    "public_transport": "stop_position",
    "ref:FR:STAN": "286",
    "source": "Métropole du Grand Nancy - 06/2017",
    "survey:date": "2017-07-04",
    "wheelchair": "yes"
  }
},
{
  "type": "node",
  "id": 2541919715,
  "lat": 48.6963921,
  "lon": 6.1431170,
  "tags": {
    "bus": "yes",
    "highway": "bus_stop",
    "name": "Colline",
    "public_transport": "stop_position"
  }
},
{
  "type": "node",
  "id": 2542012033,
  "lat": 48.6913729,
  "lon": 6.1384556,
  "tags": {
    "bus": "yes",
    "highway": "bus_stop",
    "name": "Georges de la Tour",
    "public_transport": "stop_position"
  }
},
{
  "type": "node",
  "id": 2544124666,
  "lat": 48.7054815,
  "lon": 6.1517846,
  "tags": {
    "bus": "yes",
    "highway": "bus_stop",
    "name": "Centre Pénitentiaire",
    "public_transport": "stop_position",
    "source": "survey"
  }
},
{
  "type": "node",
  "id": 2544124667,
  "lat": 48.7058121,
  "lon": 6.1529102,
  "tags": {
    "bus": "yes",
    "highway": "bus_stop",
    "name": "Centre Pénitentiaire",
    "public_transport": "stop_position",
    "source": "survey"
  }
},
{
  "type": "node",
  "id": 2544124668,
  "lat": 48.7055391,
  "lon": 6.1559712,
  "tags": {
    "bus": "yes",
    "highway": "bus_stop",
    "name": "Les Aulnes",
    "public_transport": "stop_position",
    "source": "survey"
  }
},
{
  "type": "node",
  "id": 2544124669,
  "lat": 48.7057174,
  "lon": 6.1557433,
  "tags": {
    "bus": "yes",
    "highway": "bus_stop",
    "name": "Les Aulnes",
    "public_transport": "stop_position",
    "source": "survey"
  }
},
{
  "type": "node",
  "id": 2544124670,
  "lat": 48.7062009,
  "lon": 6.1489612,
  "tags": {
    "bus": "yes",
    "highway": "bus_stop",
    "name": "Stade Darnys",
    "public_transport": "stop_position",
    "source": "survey"
  }
},
{
  "type": "node",
  "id": 2568833853,
  "lat": 48.7020980,
  "lon": 6.1798080,
  "tags": {
    "bus": "yes",
    "highway": "bus_stop",
    "name": "Charles de Foucauld",
    "public_transport": "stop_position",
    "source": "survey"
  }
},
{
  "type": "node",
  "id": 2568833854,
  "lat": 48.7024749,
  "lon": 6.1816243,
  "tags": {
    "bus": "yes",
    "highway": "bus_stop",
    "name": "Charles de Foucauld",
    "public_transport": "stop_position",
    "source": "survey"
  }
},
{
  "type": "node",
  "id": 2568833858,
  "lat": 48.7041257,
  "lon": 6.1828119,
  "tags": {
    "bus": "yes",
    "highway": "bus_stop",
    "name": "Mac Mahon",
    "public_transport": "stop_position",
    "source": "survey"
  }
},
{
  "type": "node",
  "id": 2568833859,
  "lat": 48.7043291,
  "lon": 6.1830106,
  "tags": {
    "bus": "yes",
    "highway": "bus_stop",
    "name": "Mac Mahon",
    "public_transport": "stop_position",
    "source": "survey"
  }
},
{
  "type": "node",
  "id": 2615646281,
  "lat": 48.6801994,
  "lon": 6.1626712,
  "tags": {
    "bus": "yes",
    "highway": "bus_stop",
    "name": "Bertin",
    "public_transport": "stop_position",
    "source": "survey"
  }
},
{
  "type": "node",
  "id": 2615683915,
  "lat": 48.7002440,
  "lon": 6.1766550,
  "tags": {
    "bus": "yes",
    "highway": "bus_stop",
    "name": "Citadelle",
    "public_transport": "stop_position",
    "source": "survey"
  }
},
{
  "type": "node",
  "id": 2615683916,
  "lat": 48.7004250,
  "lon": 6.1787124,
  "tags": {
    "bus": "yes",
    "highway": "bus_stop",
    "name": "Citadelle",
    "public_transport": "stop_position",
    "source": "survey"
  }
},
{
  "type": "node",
  "id": 2623155775,
  "lat": 48.7004488,
  "lon": 6.1798106,
  "tags": {
    "bus": "yes",
    "highway": "bus_stop",
    "name": "Sellier",
    "public_transport": "stop_position"
  }
},
{
  "type": "node",
  "id": 2623522081,
  "lat": 48.6969954,
  "lon": 6.1794194,
  "tags": {
    "bus": "yes",
    "highway": "bus_stop",
    "name": "Musée Lorrain",
    "public_transport": "stop_position"
  }
},
{
  "type": "node",
  "id": 2628255659,
  "lat": 48.6932941,
  "lon": 6.1910227,
  "tags": {
    "bus": "yes",
    "highway": "bus_stop",
    "name": "Division de Fer",
    "public_transport": "stop_position",
    "source": "survey"
  }
},
{
  "type": "node",
  "id": 2628770153,
  "lat": 48.6986336,
  "lon": 6.1921715,
  "tags": {
    "bus": "yes",
    "highway": "bus_stop",
    "name": "Dieuze",
    "public_transport": "stop_position",
    "source": "survey"
  }
},
{
  "type": "node",
  "id": 2628770163,
  "lat": 48.6995801,
  "lon": 6.1895783,
  "tags": {
    "bus": "yes",
    "highway": "bus_stop",
    "name": "Oberlin",
    "public_transport": "stop_position",
    "source": "survey"
  }
},
{
  "type": "node",
  "id": 2640109859,
  "lat": 48.6950401,
  "lon": 6.1797071,
  "tags": {
    "bus": "yes",
    "highway": "bus_stop",
    "name": "Saint-Epvre",
    "public_transport": "stop_position"
  }
},
{
  "type": "node",
  "id": 2640109860,
  "lat": 48.6955155,
  "lon": 6.1795901,
  "tags": {
    "bus": "yes",
    "highway": "bus_stop",
    "name": "Saint-Epvre",
    "public_transport": "stop_position"
  }
},
{
  "type": "node",
  "id": 2656587622,
  "lat": 48.6897185,
  "lon": 6.1773302,
  "tags": {
    "bus": "yes",
    "highway": "bus_stop",
    "name": "Maginot",
    "public_transport": "stop_position"
  }
},
{
  "type": "node",
  "id": 2656606776,
  "lat": 48.6996670,
  "lon": 6.1581962,
  "tags": {
    "bus": "yes",
    "highway": "bus_stop",
    "name": "Hacquard",
    "public_transport": "stop_position",
    "source": "survey"
  }
},
{
  "type": "node",
  "id": 2659787768,
  "lat": 48.6853924,
  "lon": 6.1959390,
  "tags": {
    "bus": "yes",
    "highway": "bus_stop",
    "name": "Molitor",
    "public_transport": "stop_position",
    "source": "survey"
  }
},
{
  "type": "node",
  "id": 2772127508,
  "lat": 48.6985592,
  "lon": 6.1776061,
  "tags": {
    "bus": "yes",
    "highway": "bus_stop",
    "name": "Porte de la Craffe",
    "public_transport": "stop_position"
  }
},
{
  "type": "node",
  "id": 2788671522,
  "lat": 48.6930312,
  "lon": 6.1807957,
  "tags": {
    "bus": "yes",
    "highway": "bus_stop",
    "name": "Amerval",
    "public_transport": "stop_position"
  }
},
{
  "type": "node",
  "id": 3140500814,
  "lat": 48.6873720,
  "lon": 6.2042196,
  "tags": {
    "bus": "yes",
    "highway": "bus_stop",
    "name": "Austrasie",
    "public_transport": "stop_position"
  }
},
{
  "type": "node",
  "id": 3145323556,
  "lat": 48.6688349,
  "lon": 6.1640194,
  "tags": {
    "bus": "yes",
    "highway": "bus_stop",
    "name": "Rond-Point des Familles",
    "public_transport": "stop_position"
  }
},
{
  "type": "node",
  "id": 3423895872,
  "lat": 48.6994627,
  "lon": 6.1697957,
  "tags": {
    "bus": "yes",
    "highway": "bus_stop",
    "name": "Chanoine Jacob",
    "public_transport": "stop_position",
    "source": "survey"
  }
},
{
  "type": "node",
  "id": 3639914396,
  "lat": 48.6977108,
  "lon": 6.1509691,
  "tags": {
    "bus": "yes",
    "highway": "bus_stop",
    "name": "Chemin",
    "public_transport": "stop_position"
  }
},
{
  "type": "node",
  "id": 3639914397,
  "lat": 48.6987100,
  "lon": 6.1600737,
  "tags": {
    "bus": "yes",
    "highway": "bus_stop",
    "name": "Croix Gagnée",
    "public_transport": "stop_position"
  }
},
{
  "type": "node",
  "id": 3639914398,
  "lat": 48.6976512,
  "lon": 6.1495283,
  "tags": {
    "bus": "yes",
    "highway": "bus_stop",
    "name": "La Renaudine",
    "public_transport": "stop_position"
  }
},
{
  "type": "node",
  "id": 3639914407,
  "lat": 48.6986563,
  "lon": 6.1565894,
  "tags": {
    "bus": "yes",
    "highway": "bus_stop",
    "name": "Robert Sittler",
    "public_transport": "stop_position"
  }
},
{
  "type": "node",
  "id": 3639914408,
  "lat": 48.6993259,
  "lon": 6.1639108,
  "tags": {
    "bus": "yes",
    "highway": "bus_stop",
    "name": "Saint-Bodon",
    "public_transport": "stop_position"
  }
},
{
  "type": "node",
  "id": 3639914409,
  "lat": 48.6968248,
  "lon": 6.1458566,
  "tags": {
    "bus": "yes",
    "highway": "bus_stop",
    "name": "Sentier",
    "public_transport": "stop_position"
  }
},
{
  "type": "node",
  "id": 3639914410,
  "lat": 48.6983116,
  "lon": 6.1543603,
  "tags": {
    "bus": "yes",
    "highway": "bus_stop",
    "name": "Sifflets",
    "public_transport": "stop_position"
  }
},
{
  "type": "node",
  "id": 3639914411,
  "lat": 48.6987344,
  "lon": 6.1619984,
  "tags": {
    "bus": "yes",
    "highway": "bus_stop",
    "name": "Viard",
    "public_transport": "stop_position"
  }
},
{
  "type": "node",
  "id": 3644525611,
  "lat": 48.6944380,
  "lon": 6.1454210,
  "tags": {
    "bus": "yes",
    "highway": "bus_stop",
    "name": "Bourcier",
    "public_transport": "stop_position"
  }
},
{
  "type": "node",
  "id": 4409498640,
  "lat": 48.6835260,
  "lon": 6.1853885,
  "tags": {
    "bus": "yes",
    "highway": "bus_stop",
    "name": "Pichon",
    "public_transport": "stop_position"
  }
},
{
  "type": "node",
  "id": 4409533644,
  "lat": 48.6789557,
  "lon": 6.1898942,
  "tags": {
    "bus": "yes",
    "highway": "bus_stop",
    "name": "Villemin",
    "public_transport": "stop_position"
  }
},
{
  "type": "node",
  "id": 4510825606,
  "lat": 48.6849135,
  "lon": 6.1750763,
  "tags": {
    "bus": "yes",
    "highway": "bus_stop",
    "name": "Jeanne d'Arc",
    "public_transport": "stop_position"
  }
},
{
  "type": "node",
  "id": 4538228272,
  "lat": 48.6962684,
  "lon": 6.1624443,
  "tags": {
    "bus": "yes",
    "highway": "bus_stop",
    "name": "Cité Universitaire",
    "public_transport": "stop_position"
  }
},
{
  "type": "node",
  "id": 4538253606,
  "lat": 48.6980976,
  "lon": 6.1654154,
  "tags": {
    "bus": "yes",
    "highway": "bus_stop",
    "name": "Moulin",
    "public_transport": "stop_position",
    "source": "survey"
  }
},
{
  "type": "node",
  "id": 4538325441,
  "lat": 48.6999781,
  "lon": 6.1659402,
  "tags": {
    "bus": "yes",
    "highway": "bus_stop",
    "name": "Auxonne",
    "public_transport": "stop_position"
  }
},
{
  "type": "node",
  "id": 4560880749,
  "lat": 48.6984027,
  "lon": 6.1752280,
  "tags": {
    "bus": "yes",
    "highway": "bus_stop",
    "name": "Charles V",
    "public_transport": "stop_position",
    "source": "cadastre-dgi-fr source : Direction Générale des Impôts - Cadastre. Mise à jour : 2012"
  }
},
{
  "type": "node",
  "id": 4562130372,
  "lat": 48.6975603,
  "lon": 6.1592367,
  "tags": {
    "bus": "yes",
    "highway": "bus_stop",
    "name": "Monbois",
    "public_transport": "stop_position",
    "source": "survey"
  }
},
{
  "type": "node",
  "id": 4562165878,
  "lat": 48.7005948,
  "lon": 6.1628803,
  "tags": {
    "bus": "yes",
    "highway": "bus_stop",
    "name": "Montreville",
    "public_transport": "stop_position"
  }
},
{
  "type": "node",
  "id": 4693806789,
  "lat": 48.6972958,
  "lon": 6.1547113,
  "tags": {
    "bus": "yes",
    "highway": "bus_stop",
    "name": "Saint-Mansuy",
    "public_transport": "stop_position"
  }
},
{
  "type": "node",
  "id": 4767802926,
  "lat": 48.6726108,
  "lon": 6.1730695,
  "tags": {
    "bus": "yes",
    "highway": "bus_stop",
    "name": "ARTEM Blandan",
    "public_transport": "stop_position"
  }
},
{
  "type": "node",
  "id": 5339844614,
  "lat": 48.6746622,
  "lon": 6.1706042,
  "tags": {
    "bus": "yes",
    "highway": "bus_stop",
    "name": "ARTEM Vauban",
    "public_transport": "stop_position"
  }
},
{
  "type": "node",
  "id": 5603020244,
  "lat": 48.7044774,
  "lon": 6.1774931,
  "tags": {
    "bus": "yes",
    "highway": "bus_stop",
    "name": "Fontenoy",
    "public_transport": "stop_position"
  }
},
{
  "type": "node",
  "id": 5604951907,
  "lat": 48.6794624,
  "lon": 6.1616650,
  "tags": {
    "bus": "yes",
    "highway": "bus_stop",
    "name": "Bertin",
    "public_transport": "stop_position",
    "source": "survey"
  }
},
{
  "type": "node",
  "id": 5628972437,
  "lat": 48.6862434,
  "lon": 6.2013566,
  "tags": {
    "bus": "yes",
    "highway": "bus_stop",
    "name": "Victor",
    "public_transport": "stop_position"
  }
},
{
  "type": "node",
  "id": 6075744416,
  "lat": 48.6982716,
  "lon": 6.1738681,
  "tags": {
    "bus": "yes",
    "highway": "bus_stop",
    "name": "Désilles",
    "public_transport": "stop_position",
    "source": "survey"
  }
},
{
  "type": "node",
  "id": 6741988851,
  "lat": 48.6813986,
  "lon": 6.1978253,
  "tags": {
    "bus": "yes",
    "highway": "bus_stop",
    "name": "Lobau",
    "public_transport": "stop_position",
    "source": "survey"
  }
},
{
  "type": "node",
  "id": 6741988859,
  "lat": 48.6820196,
  "lon": 6.1975557,
  "tags": {
    "bus": "yes",
    "highway": "bus_stop",
    "name": "Lobau",
    "public_transport": "stop_position",
    "source": "survey"
  }
},
{
  "type": "node",
  "id": 6742010078,
  "lat": 48.6853587,
  "lon": 6.1958377,
  "tags": {
    "bus": "yes",
    "highway": "bus_stop",
    "name": "Molitor",
    "public_transport": "stop_position",
    "source": "survey"
  }
},
{
  "type": "node",
  "id": 6744632403,
  "lat": 48.6773157,
  "lon": 6.1915262,
  "tags": {
    "bus": "yes",
    "highway": "bus_stop",
    "name": "Cimetière du Sud",
    "public_transport": "stop_position"
  }
},
{
  "type": "node",
  "id": 6744632408,
  "lat": 48.6764913,
  "lon": 6.1921675,
  "tags": {
    "bus": "yes",
    "highway": "bus_stop",
    "name": "Cimetière du Sud",
    "public_transport": "stop_position"
  }
},
{
  "type": "node",
  "id": 6757741744,
  "lat": 48.6889872,
  "lon": 6.1788442,
  "tags": {
    "bus": "yes",
    "highway": "bus_stop",
    "name": "Saint-Sébastien",
    "public_transport": "stop_position"
  }
},
{
  "type": "node",
  "id": 6764290813,
  "lat": 48.6752370,
  "lon": 6.1759771,
  "tags": {
    "bus": "yes",
    "highway": "bus_stop",
    "name": "Exelmans",
    "public_transport": "stop_position"
  }
},
{
  "type": "node",
  "id": 6765169795,
  "lat": 48.6931537,
  "lon": 6.1752677,
  "tags": {
    "bus": "yes",
    "highway": "bus_stop",
    "name": "Faculté de Droit",
    "public_transport": "stop_position"
  }
},
{
  "type": "node",
  "id": 6767483067,
  "lat": 48.6983944,
  "lon": 6.1739115,
  "tags": {
    "bus": "yes",
    "highway": "bus_stop",
    "name": "Désilles",
    "public_transport": "stop_position"
  }
},
{
  "type": "node",
  "id": 6848215647,
  "lat": 48.6859488,
  "lon": 6.1812228,
  "tags": {
    "bus": "yes",
    "highway": "bus_stop",
    "name": "Place des Justes",
    "public_transport": "stop_position"
  }
},
{
  "type": "node",
  "id": 8179609082,
  "lat": 48.7018519,
  "lon": 6.1465257,
  "tags": {
    "bus": "yes",
    "highway": "bus_stop",
    "name": "Bisiaux",
    "public_transport": "stop_position"
  }
},
{
  "type": "node",
  "id": 8241544029,
  "lat": 48.6889822,
  "lon": 6.1814370,
  "tags": {
    "bus": "yes",
    "highway": "bus_stop",
    "name": "Marché Central",
    "public_transport": "stop_position"
  }
},
{
  "type": "node",
  "id": 8334851594,
  "lat": 48.6921782,
  "lon": 6.1803871,
  "tags": {
    "bus": "yes",
    "highway": "bus_stop",
    "name": "Gambetta",
    "public_transport": "stop_position"
  }
},
{
  "type": "node",
  "id": 8334900111,
  "lat": 48.6971217,
  "lon": 6.1758774,
  "tags": {
    "bus": "yes",
    "highway": "bus_stop",
    "name": "Léopold",
    "public_transport": "stop_position"
  }
},
{
  "type": "node",
  "id": 8337508355,
  "lat": 48.6928885,
  "lon": 6.1825940,
  "tags": {
    "bus": "yes",
    "highway": "bus_stop",
    "name": "Place Stanislas",
    "public_transport": "stop_position"
  }
},
{
  "type": "node",
  "id": 8364655338,
  "lat": 48.6906760,
  "lon": 6.1802077,
  "tags": {
    "bus": "yes",
    "highway": "bus_stop",
    "name": "Visitation",
    "public_transport": "stop_position"
  }
},
{
  "type": "node",
  "id": 8364716046,
  "lat": 48.6889971,
  "lon": 6.1855157,
  "tags": {
    "bus": "yes",
    "highway": "bus_stop",
    "name": "Saint-Nicolas",
    "public_transport": "stop_position"
  }
},
{
  "type": "node",
  "id": 8364716055,
  "lat": 48.6903083,
  "lon": 6.1843474,
  "tags": {
    "bus": "yes",
    "highway": "bus_stop",
    "name": "Faïencerie",
    "public_transport": "stop_position"
  }
}

  ]
}
