{
  "version": 0.6,
  "generator": "Overpass API 0.7.57.1 74a55df1",
  "osm3s": {
    "timestamp_osm_base": "2022-02-13T13:28:39Z",
    "timestamp_areas_base": "2022-02-13T06:29:09Z",
    "copyright": "The data included in this document is from www.openstreetmap.org. The data is made available under ODbL."
  },
  "elements": [

{
  "type": "node",
  "id": 29718447,
  "lat": 47.4820551,
  "lon": -0.5778482,
  "tags": {
    "bus": "yes",
    "highway": "bus_stop",
    "name": "Rêveries",
    "public_transport": "stop_position",
    "public_transport:version": "2"
  }
},
{
  "type": "node",
  "id": 30404213,
  "lat": 47.4737975,
  "lon": -0.5799608,
  "tags": {
    "bus": "yes",
    "highway": "bus_stop",
    "name": "Montesquieu",
    "public_transport": "stop_position"
  }
},
{
  "type": "node",
  "id": 495478108,
  "lat": 47.4655736,
  "lon": -0.5954893,
  "tags": {
    "bus": "yes",
    "highway": "bus_stop",
    "name": "Pérussaie",
    "public_transport": "stop_position",
    "public_transport:version": "2"
  }
},
{
  "type": "node",
  "id": 508860885,
  "lat": 47.4629850,
  "lon": -0.6023102,
  "tags": {
    "bus": "yes",
    "highway": "bus_stop",
    "name": "Vallon",
    "public_transport": "stop_position"
  }
},
{
  "type": "node",
  "id": 523074701,
  "lat": 47.4660124,
  "lon": -0.5963874,
  "tags": {
    "bus": "yes",
    "highway": "bus_stop",
    "name": "Pérussaie",
    "public_transport": "stop_position",
    "public_transport:version": "2"
  }
},
{
  "type": "node",
  "id": 630682592,
  "lat": 47.4858459,
  "lon": -0.5619591,
  "tags": {
    "bus": "yes",
    "highway": "bus_stop",
    "name": "Frémond",
    "public_transport": "stop_position"
  }
},
{
  "type": "node",
  "id": 630683521,
  "lat": 47.4845909,
  "lon": -0.5593133,
  "tags": {
    "bus": "yes",
    "highway": "bus_stop",
    "name": "J. Wresinski",
    "public_transport": "stop_position"
  }
},
{
  "type": "node",
  "id": 633273407,
  "lat": 47.4843685,
  "lon": -0.5826309,
  "tags": {
    "bus": "yes",
    "highway": "bus_stop",
    "name": "Meignanne",
    "public_transport": "stop_position",
    "public_transport:version": "2"
  }
},
{
  "type": "node",
  "id": 633305619,
  "lat": 47.4820512,
  "lon": -0.5784496,
  "tags": {
    "bus": "yes",
    "highway": "bus_stop",
    "name": "Rêveries",
    "public_transport": "stop_position",
    "public_transport:version": "2"
  }
},
{
  "type": "node",
  "id": 916665858,
  "lat": 47.4837479,
  "lon": -0.5638273,
  "tags": {
    "bus": "yes",
    "highway": "bus_stop",
    "name": "Barra",
    "public_transport": "stop_position",
    "public_transport:version": "2"
  }
},
{
  "type": "node",
  "id": 1339554298,
  "lat": 47.4840725,
  "lon": -0.5593374,
  "tags": {
    "bus": "yes",
    "highway": "bus_stop",
    "name": "J. Wresinski",
    "public_transport": "stop_position"
  }
},
{
  "type": "node",
  "id": 1393537426,
  "lat": 47.4903807,
  "lon": -0.5140833,
  "tags": {
    "bus": "yes",
    "highway": "bus_stop",
    "name": "Bois l'Abbé",
    "public_transport": "stop_position",
    "public_transport:version": "2"
  }
},
{
  "type": "node",
  "id": 1562198891,
  "lat": 47.4874213,
  "lon": -0.5547824,
  "tags": {
    "bus": "yes",
    "highway": "bus_stop",
    "name": "Capucins",
    "public_transport": "stop_position"
  }
},
{
  "type": "node",
  "id": 1585156527,
  "lat": 47.4674299,
  "lon": -0.5203084,
  "tags": {
    "bus": "yes",
    "highway": "bus_stop",
    "name": "Espace Anjou",
    "public_transport": "stop_position"
  }
},
{
  "type": "node",
  "id": 1997255758,
  "lat": 47.4689090,
  "lon": -0.5581675,
  "tags": {
    "bus": "yes",
    "highway": "bus_stop",
    "name": "Office de Tourisme",
    "public_transport": "stop_position",
    "public_transport:version": "2"
  }
},
{
  "type": "node",
  "id": 1998363591,
  "lat": 47.4875442,
  "lon": -0.5282517,
  "tags": {
    "bus": "yes",
    "highway": "bus_stop",
    "name": "Place de l'Europe",
    "public_transport": "stop_position",
    "public_transport:version": "2"
  }
},
{
  "type": "node",
  "id": 2002886855,
  "lat": 47.4856405,
  "lon": -0.5612722,
  "tags": {
    "bus": "yes",
    "highway": "bus_stop",
    "name": "Frémond",
    "public_transport": "stop_position"
  }
},
{
  "type": "node",
  "id": 2004656078,
  "lat": 47.4805677,
  "lon": -0.5643211,
  "tags": {
    "bus": "yes",
    "highway": "bus_stop",
    "name": "Sainte-Thérèse",
    "public_transport": "stop_position",
    "public_transport:version": "2"
  }
},
{
  "type": "node",
  "id": 2004656079,
  "lat": 47.4809015,
  "lon": -0.5642102,
  "tags": {
    "bus": "yes",
    "highway": "bus_stop",
    "name": "Sainte-Thérèse",
    "public_transport": "stop_position",
    "public_transport:version": "2"
  }
},
{
  "type": "node",
  "id": 2008971154,
  "lat": 47.4511439,
  "lon": -0.5198176,
  "tags": {
    "bus": "yes",
    "highway": "bus_stop",
    "name": "Éclateries",
    "public_transport": "stop_position"
  }
},
{
  "type": "node",
  "id": 2009104214,
  "lat": 47.4826221,
  "lon": -0.5212422,
  "tags": {
    "bus": "yes",
    "highway": "bus_stop",
    "name": "Chatenay",
    "public_transport": "stop_position",
    "public_transport:version": "2"
  }
},
{
  "type": "node",
  "id": 2010546907,
  "lat": 47.4682776,
  "lon": -0.5505029,
  "tags": {
    "bus": "yes",
    "highway": "bus_stop",
    "name": "Foch - Saint-Aubin",
    "public_transport": "stop_position",
    "public_transport:version": "2"
  }
},
{
  "type": "node",
  "id": 2010548120,
  "lat": 47.4681231,
  "lon": -0.5509828,
  "tags": {
    "bus": "yes",
    "highway": "bus_stop",
    "name": "Foch - Saint-Aubin",
    "public_transport": "stop_position",
    "public_transport:version": "2"
  }
},
{
  "type": "node",
  "id": 2026475648,
  "lat": 47.4879572,
  "lon": -0.5424500,
  "tags": {
    "bus": "yes",
    "highway": "bus_stop",
    "name": "Carrefour Saint-Serge",
    "public_transport": "stop_position",
    "public_transport:version": "2"
  }
},
{
  "type": "node",
  "id": 2026486171,
  "lat": 47.4881994,
  "lon": -0.5435618,
  "tags": {
    "bus": "yes",
    "highway": "bus_stop",
    "name": "Carrefour Saint-Serge",
    "public_transport": "stop_position",
    "public_transport:version": "2"
  }
},
{
  "type": "node",
  "id": 2026558231,
  "lat": 47.4713858,
  "lon": -0.5191435,
  "tags": {
    "bus": "yes",
    "highway": "bus_stop",
    "name": "Camélia",
    "public_transport": "stop_position"
  }
},
{
  "type": "node",
  "id": 2026558241,
  "lat": 47.4717395,
  "lon": -0.5190789,
  "tags": {
    "bus": "yes",
    "highway": "bus_stop",
    "name": "Camélia",
    "public_transport": "stop_position"
  }
},
{
  "type": "node",
  "id": 2026568148,
  "lat": 47.4675697,
  "lon": -0.5204975,
  "tags": {
    "bus": "yes",
    "highway": "bus_stop",
    "name": "Espace Anjou",
    "public_transport": "stop_position"
  }
},
{
  "type": "node",
  "id": 2074513409,
  "lat": 47.4674777,
  "lon": -0.5934161,
  "tags": {
    "bus": "yes",
    "highway": "bus_stop",
    "name": "Grand Maine",
    "public_transport": "stop_position",
    "public_transport:version": "2"
  }
},
{
  "type": "node",
  "id": 2074515879,
  "lat": 47.4672292,
  "lon": -0.5934991,
  "tags": {
    "bus": "yes",
    "highway": "bus_stop",
    "name": "Grand Maine",
    "public_transport": "stop_position",
    "public_transport:version": "2"
  }
},
{
  "type": "node",
  "id": 2503976344,
  "lat": 47.4595167,
  "lon": -0.6048607,
  "tags": {
    "bus": "yes",
    "highway": "bus_stop",
    "name": "Grésillé",
    "public_transport": "stop_position"
  }
},
{
  "type": "node",
  "id": 3390898182,
  "lat": 47.4736714,
  "lon": -0.5847651,
  "tags": {
    "highway": "bus_stop",
    "name": "Elysée",
    "public_transport": "platform",
    "public_transport:version": "2",
    "shelter": "yes"
  }
},
{
  "type": "node",
  "id": 3390898183,
  "lat": 47.4735652,
  "lon": -0.5846456,
  "tags": {
    "bench": "yes",
    "highway": "bus_stop",
    "name": "Elysée",
    "public_transport": "platform",
    "public_transport:version": "2",
    "shelter": "yes"
  }
},
{
  "type": "node",
  "id": 3393651909,
  "lat": 47.4737639,
  "lon": -0.5804539,
  "tags": {
    "amenity": "shelter",
    "bus": "yes",
    "highway": "bus_stop",
    "name": "Montesquieu",
    "public_transport": "platform"
  }
},
{
  "type": "node",
  "id": 3421341094,
  "lat": 47.4704996,
  "lon": -0.5697441,
  "tags": {
    "bench": "yes",
    "bin": "yes",
    "bus": "yes",
    "highway": "bus_stop",
    "name": "Bon Pasteur",
    "public_transport": "platform",
    "public_transport:version": "2",
    "shelter": "yes"
  }
},
{
  "type": "node",
  "id": 3446473417,
  "lat": 47.4722575,
  "lon": -0.5661801,
  "tags": {
    "bench": "yes",
    "bin": "yes",
    "highway": "bus_stop",
    "name": "Front de Maine",
    "public_transport": "platform",
    "public_transport:version": "2",
    "shelter": "yes"
  }
},
{
  "type": "node",
  "id": 3509988063,
  "lat": 47.4717809,
  "lon": -0.5675198,
  "tags": {
    "bench": "yes",
    "bin": "yes",
    "highway": "bus_stop",
    "name": "Aragon",
    "public_transport": "platform",
    "shelter": "yes"
  }
},
{
  "type": "node",
  "id": 3549970859,
  "lat": 47.4753287,
  "lon": -0.5859872,
  "tags": {
    "bus": "yes",
    "highway": "bus_stop",
    "name": "Chapelle Belle-Beille",
    "public_transport": "platform",
    "public_transport:version": "2",
    "shelter": "yes"
  }
},
{
  "type": "node",
  "id": 3550086360,
  "lat": 47.4758227,
  "lon": -0.5861642,
  "tags": {
    "bus": "yes",
    "highway": "bus_stop",
    "name": "Chapelle Belle-Beille",
    "public_transport": "platform",
    "public_transport:version": "2",
    "shelter": "yes"
  }
},
{
  "type": "node",
  "id": 3571895595,
  "lat": 47.4715972,
  "lon": -0.5670496,
  "tags": {
    "bench": "yes",
    "bin": "yes",
    "highway": "bus_stop",
    "name": "Aragon",
    "public_transport": "platform",
    "shelter": "yes"
  }
},
{
  "type": "node",
  "id": 3614924520,
  "lat": 47.4731004,
  "lon": -0.5986656,
  "tags": {
    "bench": "yes",
    "bin": "yes",
    "highway": "bus_stop",
    "name": "La Barre",
    "public_transport": "platform",
    "shelter": "yes"
  }
},
{
  "type": "node",
  "id": 3626791215,
  "lat": 47.4814885,
  "lon": -0.5743481,
  "tags": {
    "bench": "yes",
    "bus": "yes",
    "highway": "bus_stop",
    "name": "Pomone",
    "public_transport": "platform",
    "public_transport:version": "2",
    "shelter": "yes"
  }
},
{
  "type": "node",
  "id": 3626811469,
  "lat": 47.4813776,
  "lon": -0.5745732,
  "tags": {
    "bench": "yes",
    "bus": "yes",
    "highway": "bus_stop",
    "name": "Pomone",
    "public_transport": "platform",
    "public_transport:version": "2",
    "shelter": "yes"
  }
},
{
  "type": "node",
  "id": 3639020015,
  "lat": 47.4851253,
  "lon": -0.5758785,
  "tags": {
    "bench": "yes",
    "bin": "yes",
    "highway": "bus_stop",
    "name": "Camus",
    "public_transport": "platform",
    "public_transport:version": "2",
    "shelter": "yes"
  }
},
{
  "type": "node",
  "id": 3639020021,
  "lat": 47.4849381,
  "lon": -0.5758100,
  "tags": {
    "bench": "yes",
    "highway": "bus_stop",
    "name": "Camus",
    "public_transport": "platform",
    "public_transport:version": "2",
    "shelter": "yes"
  }
},
{
  "type": "node",
  "id": 3642391490,
  "lat": 47.4921530,
  "lon": -0.5772472,
  "tags": {
    "bus": "yes",
    "highway": "bus_stop",
    "name": "Kennedy",
    "public_transport": "stop_position"
  }
},
{
  "type": "node",
  "id": 5283874150,
  "lat": 47.4495450,
  "lon": -0.5388014,
  "tags": {
    "bench": "yes",
    "highway": "bus_stop",
    "name": "Allard",
    "public_transport": "platform",
    "shelter": "yes"
  }
},
{
  "type": "node",
  "id": 5283874151,
  "lat": 47.4489039,
  "lon": -0.5387085,
  "tags": {
    "bench": "yes",
    "highway": "bus_stop",
    "name": "Allard",
    "public_transport": "platform",
    "shelter": "yes",
    "tactile_paving": "no"
  }
},
{
  "type": "node",
  "id": 5283874153,
  "lat": 47.4532007,
  "lon": -0.5413860,
  "tags": {
    "bench": "yes",
    "bin": "yes",
    "highway": "bus_stop",
    "lit": "yes",
    "name": "De Lattre",
    "public_transport": "platform",
    "public_transport:version": "2",
    "shelter": "yes",
    "tactile_paving": "no"
  }
},
{
  "type": "node",
  "id": 5283874154,
  "lat": 47.4533267,
  "lon": -0.5411661,
  "tags": {
    "bench": "yes",
    "bin": "yes",
    "highway": "bus_stop",
    "lit": "yes",
    "name": "De Lattre",
    "public_transport": "platform",
    "public_transport:version": "2",
    "shelter": "yes",
    "tactile_paving": "no"
  }
},
{
  "type": "node",
  "id": 5283874155,
  "lat": 47.4585939,
  "lon": -0.5449308,
  "tags": {
    "bench": "yes",
    "bin": "yes",
    "highway": "bus_stop",
    "name": "ESA",
    "public_transport": "platform",
    "public_transport:version": "2",
    "shelter": "yes",
    "tactile_paving": "no",
    "wheelchair": "yes"
  }
},
{
  "type": "node",
  "id": 5283874156,
  "lat": 47.4589552,
  "lon": -0.5453429,
  "tags": {
    "highway": "bus_stop",
    "name": "ESA",
    "public_transport": "platform",
    "public_transport:version": "2"
  }
},
{
  "type": "node",
  "id": 5287121526,
  "lat": 47.4692899,
  "lon": -0.5601077,
  "tags": {
    "bench": "yes",
    "bin": "yes",
    "bus": "yes",
    "highway": "bus_stop",
    "lit": "yes",
    "name": "Château",
    "public_transport": "platform",
    "public_transport:version": "2",
    "shelter": "yes",
    "tactile_paving": "no"
  }
},
{
  "type": "node",
  "id": 5288177162,
  "lat": 47.4868919,
  "lon": -0.5729990,
  "tags": {
    "bench": "yes",
    "bin": "yes",
    "highway": "bus_stop",
    "name": "Lizé",
    "public_transport": "platform",
    "shelter": "yes"
  }
},
{
  "type": "node",
  "id": 5288177163,
  "lat": 47.4868667,
  "lon": -0.5731619,
  "tags": {
    "bench": "yes",
    "bin": "yes",
    "highway": "bus_stop",
    "name": "Lizé",
    "public_transport": "platform",
    "shelter": "yes"
  }
},
{
  "type": "node",
  "id": 5289257419,
  "lat": 47.4646966,
  "lon": -0.5581018,
  "tags": {
    "highway": "bus_stop",
    "name": "Angers : Gare Routière",
    "public_transport": "platform",
    "shelter": "yes"
  }
},
{
  "type": "node",
  "id": 5293689422,
  "lat": 47.4730197,
  "lon": -0.5455063,
  "tags": {
    "bench": "yes",
    "bin": "yes",
    "bus": "yes",
    "highway": "bus_stop",
    "name": "Mendès France",
    "public_transport": "platform",
    "public_transport:version": "2",
    "shelter": "yes",
    "tactile_paving": "no"
  }
},
{
  "type": "node",
  "id": 5293689423,
  "lat": 47.4725845,
  "lon": -0.5462406,
  "tags": {
    "bus": "yes",
    "highway": "bus_stop",
    "name": "Mendès France",
    "public_transport": "platform",
    "public_transport:version": "2",
    "shelter": "yes",
    "tactile_paving": "no"
  }
},
{
  "type": "node",
  "id": 5293689424,
  "lat": 47.4792967,
  "lon": -0.5274168,
  "tags": {
    "highway": "bus_stop",
    "name": "Brisepotière",
    "public_transport": "platform",
    "public_transport:version": "2"
  }
},
{
  "type": "node",
  "id": 5293689425,
  "lat": 47.4795492,
  "lon": -0.5272432,
  "tags": {
    "highway": "bus_stop",
    "name": "Brisepotière",
    "public_transport": "platform"
  }
},
{
  "type": "node",
  "id": 5314525971,
  "lat": 47.4931306,
  "lon": -0.5682024,
  "tags": {
    "bench": "yes",
    "bus": "yes",
    "highway": "bus_stop",
    "name": "Verneau - Aquavita",
    "public_transport": "stop_position"
  }
},
{
  "type": "node",
  "id": 5316860912,
  "lat": 47.4775587,
  "lon": -0.5922649,
  "tags": {
    "bus": "yes",
    "highway": "bus_stop",
    "name": "Melgrani",
    "public_transport": "stop_position",
    "public_transport:version": "2"
  }
},
{
  "type": "node",
  "id": 5324567610,
  "lat": 47.4884718,
  "lon": -0.5100784,
  "tags": {
    "bus": "yes",
    "highway": "bus_stop",
    "name": "Mirbeau",
    "public_transport": "stop_position"
  }
},
{
  "type": "node",
  "id": 5324567611,
  "lat": 47.4881401,
  "lon": -0.5107275,
  "tags": {
    "bus": "yes",
    "highway": "bus_stop",
    "name": "Mirbeau",
    "public_transport": "stop_position"
  }
},
{
  "type": "node",
  "id": 5325434487,
  "lat": 47.4523758,
  "lon": -0.5704938,
  "tags": {
    "bus": "yes",
    "highway": "bus_stop",
    "name": "Centre de Tri",
    "public_transport": "stop_position",
    "public_transport:version": "2"
  }
},
{
  "type": "node",
  "id": 5325491626,
  "lat": 47.4874586,
  "lon": -0.5545561,
  "tags": {
    "bus": "yes",
    "highway": "bus_stop",
    "name": "Capucins",
    "public_transport": "stop_position"
  }
},
{
  "type": "node",
  "id": 5325535263,
  "lat": 47.4830087,
  "lon": -0.5624136,
  "tags": {
    "bus": "yes",
    "highway": "bus_stop",
    "name": "Ballour",
    "public_transport": "stop_position"
  }
},
{
  "type": "node",
  "id": 5325535264,
  "lat": 47.4822139,
  "lon": -0.5610685,
  "tags": {
    "bus": "yes",
    "highway": "bus_stop",
    "name": "Bigot",
    "public_transport": "stop_position"
  }
},
{
  "type": "node",
  "id": 5325657837,
  "lat": 47.4905996,
  "lon": -0.5323836,
  "tags": {
    "bus": "yes",
    "highway": "bus_stop",
    "name": "Doyenné",
    "public_transport": "stop_position",
    "public_transport:version": "2"
  }
},
{
  "type": "node",
  "id": 5325964131,
  "lat": 47.4580086,
  "lon": -0.6032422,
  "tags": {
    "bus": "yes",
    "highway": "bus_stop",
    "name": "Plateau du Maine",
    "public_transport": "stop_position"
  }
},
{
  "type": "node",
  "id": 5325964132,
  "lat": 47.4588885,
  "lon": -0.5988702,
  "tags": {
    "bus": "yes",
    "highway": "bus_stop",
    "name": "Chouanière",
    "public_transport": "stop_position"
  }
},
{
  "type": "node",
  "id": 5325964133,
  "lat": 47.4614514,
  "lon": -0.5990333,
  "tags": {
    "bus": "yes",
    "highway": "bus_stop",
    "name": "Fontaine",
    "public_transport": "stop_position"
  }
},
{
  "type": "node",
  "id": 5328040607,
  "lat": 47.4859362,
  "lon": -0.5557763,
  "tags": {
    "bus": "yes",
    "highway": "bus_stop",
    "name": "Valentin Haüy",
    "public_transport": "stop_position"
  }
},
{
  "type": "node",
  "id": 5328040608,
  "lat": 47.4863220,
  "lon": -0.5555783,
  "tags": {
    "bus": "yes",
    "highway": "bus_stop",
    "name": "Valentin Haüy",
    "public_transport": "stop_position"
  }
},
{
  "type": "node",
  "id": 5329358937,
  "lat": 47.4533285,
  "lon": -0.5262930,
  "tags": {
    "bench": "yes",
    "bin": "yes",
    "highway": "bus_stop",
    "name": "Justices",
    "public_transport": "platform",
    "shelter": "yes"
  }
},
{
  "type": "node",
  "id": 5329358938,
  "lat": 47.4536146,
  "lon": -0.5265538,
  "tags": {
    "bench": "yes",
    "bin": "yes",
    "highway": "bus_stop",
    "name": "Justices",
    "public_transport": "platform",
    "shelter": "yes"
  }
},
{
  "type": "node",
  "id": 5329358939,
  "lat": 47.4568192,
  "lon": -0.5319370,
  "tags": {
    "highway": "bus_stop",
    "name": "Saumuroise",
    "public_transport": "platform"
  }
},
{
  "type": "node",
  "id": 5329358940,
  "lat": 47.4572980,
  "lon": -0.5324601,
  "tags": {
    "bench": "yes",
    "highway": "bus_stop",
    "name": "Saumuroise",
    "public_transport": "platform",
    "shelter": "yes"
  }
},
{
  "type": "node",
  "id": 5329358941,
  "lat": 47.4646945,
  "lon": -0.5490871,
  "tags": {
    "bench": "yes",
    "bin": "yes",
    "bus": "yes",
    "highway": "bus_stop",
    "name": "André Leroy",
    "public_transport": "platform",
    "public_transport:version": "2",
    "shelter": "yes",
    "tactile_paving": "no"
  }
},
{
  "type": "node",
  "id": 5345710950,
  "lat": 47.4941806,
  "lon": -0.5746203,
  "tags": {
    "bus": "yes",
    "highway": "bus_stop",
    "name": "Terra Botanica",
    "public_transport": "stop_position",
    "public_transport:version": "2"
  }
},
{
  "type": "node",
  "id": 5345710951,
  "lat": 47.4943143,
  "lon": -0.5747616,
  "tags": {
    "bus": "yes",
    "highway": "bus_stop",
    "name": "Terra Botanica",
    "public_transport": "stop_position",
    "public_transport:version": "2"
  }
},
{
  "type": "node",
  "id": 5345710952,
  "lat": 47.4925537,
  "lon": -0.5671437,
  "tags": {
    "bus": "yes",
    "highway": "bus_stop",
    "name": "Verneau",
    "public_transport": "stop_position",
    "public_transport:version": "2"
  }
},
{
  "type": "node",
  "id": 5456650933,
  "lat": 47.4733789,
  "lon": -0.5900514,
  "tags": {
    "bench": "yes",
    "bin": "yes",
    "covered": "no",
    "highway": "bus_stop",
    "name": "Patton",
    "public_transport": "platform",
    "shelter": "yes"
  }
},
{
  "type": "node",
  "id": 5456650934,
  "lat": 47.4735313,
  "lon": -0.5902214,
  "tags": {
    "bench": "yes",
    "bin": "yes",
    "covered": "no",
    "highway": "bus_stop",
    "name": "Patton",
    "public_transport": "platform",
    "shelter": "yes",
    "tactile_paving": "no"
  }
},
{
  "type": "node",
  "id": 5462132892,
  "lat": 47.4933739,
  "lon": -0.5652977,
  "tags": {
    "bench": "yes",
    "highway": "bus_stop",
    "name": "Verneau - Aqua Vita",
    "public_transport": "platform",
    "shelter": "yes"
  }
},
{
  "type": "node",
  "id": 5462132893,
  "lat": 47.4933707,
  "lon": -0.5655116,
  "tags": {
    "bench": "yes",
    "bin": "yes",
    "highway": "bus_stop",
    "name": "Verneau - Aqua Vita",
    "public_transport": "platform",
    "shelter": "yes"
  }
},
{
  "type": "node",
  "id": 5462132894,
  "lat": 47.4736700,
  "lon": -0.5672590,
  "tags": {
    "bench": "yes",
    "bin": "yes",
    "highway": "bus_stop",
    "name": "Dumesnil",
    "public_transport": "platform",
    "public_transport:version": "2",
    "shelter": "yes",
    "tactile_paving": "no"
  }
},
{
  "type": "node",
  "id": 5462132895,
  "lat": 47.4737833,
  "lon": -0.5669265,
  "tags": {
    "bench": "yes",
    "bin": "yes",
    "highway": "bus_stop",
    "name": "Dumesnil",
    "public_transport": "platform",
    "public_transport:version": "2",
    "shelter": "yes",
    "tactile_paving": "no"
  }
},
{
  "type": "node",
  "id": 5472943499,
  "lat": 47.4857014,
  "lon": -0.5151357,
  "tags": {
    "bench": "yes",
    "bin": "yes",
    "highway": "bus_stop",
    "name": "7 Sonnettes",
    "public_transport": "platform",
    "public_transport:version": "2",
    "shelter": "yes"
  }
},
{
  "type": "node",
  "id": 5472943500,
  "lat": 47.4860829,
  "lon": -0.5148205,
  "tags": {
    "bench": "yes",
    "bin": "yes",
    "highway": "bus_stop",
    "name": "7 Sonnettes",
    "public_transport": "platform",
    "public_transport:version": "2",
    "shelter": "yes"
  }
},
{
  "type": "node",
  "id": 5856684587,
  "lat": 47.4645133,
  "lon": -0.5601280,
  "tags": {
    "bench": "yes",
    "bin": "yes",
    "bus": "yes",
    "highway": "bus_stop",
    "name": "Gares Sémard",
    "public_transport": "platform",
    "public_transport:version": "2",
    "shelter": "yes",
    "tactile_paving": "no"
  }
},
{
  "type": "node",
  "id": 5856737196,
  "lat": 47.4629548,
  "lon": -0.6151546,
  "tags": {
    "highway": "bus_stop",
    "name": "Alienor d'Aquitaine",
    "public_transport": "platform",
    "public_transport:version": "2",
    "shelter": "yes"
  }
},
{
  "type": "node",
  "id": 5856744085,
  "lat": 47.4634877,
  "lon": -0.6025829,
  "tags": {
    "highway": "bus_stop",
    "name": "Vallon",
    "public_transport": "platform",
    "shelter": "none"
  }
},
{
  "type": "node",
  "id": 5856744086,
  "lat": 47.4635391,
  "lon": -0.6024379,
  "tags": {
    "highway": "bus_stop",
    "name": "Vallon",
    "public_transport": "platform",
    "shelter": "yes"
  }
},
{
  "type": "node",
  "id": 5856755510,
  "lat": 47.4630625,
  "lon": -0.6151783,
  "tags": {
    "highway": "bus_stop",
    "name": "Alienor d'Aquitaine",
    "public_transport": "platform",
    "public_transport:version": "2",
    "shelter": "no"
  }
},
{
  "type": "node",
  "id": 5857306351,
  "lat": 47.4738338,
  "lon": -0.5799686,
  "tags": {
    "amenity": "shelter",
    "bus": "yes",
    "highway": "bus_stop",
    "name": "Montesquieu",
    "public_transport": "platform"
  }
},
{
  "type": "node",
  "id": 5857306352,
  "lat": 47.4739687,
  "lon": -0.5776265,
  "tags": {
    "bench": "yes",
    "bin": "yes",
    "bus": "yes",
    "highway": "bus_stop",
    "name": "Marius Briant",
    "public_transport": "platform",
    "public_transport:version": "2",
    "shelter": "yes"
  }
},
{
  "type": "node",
  "id": 5857306353,
  "lat": 47.4740497,
  "lon": -0.5774843,
  "tags": {
    "bench": "yes",
    "bin": "yes",
    "bus": "yes",
    "highway": "bus_stop",
    "name": "Marius Briant",
    "public_transport": "platform",
    "public_transport:version": "2",
    "shelter": "yes"
  }
},
{
  "type": "node",
  "id": 5857350014,
  "lat": 47.4770465,
  "lon": -0.5878355,
  "tags": {
    "bus": "yes",
    "highway": "bus_stop",
    "name": "Mansion",
    "public_transport": "platform",
    "public_transport:version": "2"
  }
},
{
  "type": "node",
  "id": 5857350015,
  "lat": 47.4770440,
  "lon": -0.5882691,
  "tags": {
    "bus": "yes",
    "highway": "bus_stop",
    "name": "Mansion",
    "public_transport": "platform",
    "public_transport:version": "2"
  }
},
{
  "type": "node",
  "id": 5861969959,
  "lat": 47.4749307,
  "lon": -0.5700948,
  "tags": {
    "bench": "no",
    "bus": "yes",
    "highway": "bus_stop",
    "name": "Raspail",
    "public_transport": "platform",
    "public_transport:version": "2"
  }
},
{
  "type": "node",
  "id": 5861969960,
  "lat": 47.4750664,
  "lon": -0.5701790,
  "tags": {
    "bench": "no",
    "bus": "yes",
    "highway": "bus_stop",
    "name": "Raspail",
    "public_transport": "platform",
    "public_transport:version": "2"
  }
},
{
  "type": "node",
  "id": 5884560640,
  "lat": 47.4723390,
  "lon": -0.6000720,
  "tags": {
    "bench": "yes",
    "bin": "yes",
    "bus": "yes",
    "highway": "bus_stop",
    "lit": "yes",
    "name": "CNFTP",
    "public_transport": "platform",
    "shelter": "yes",
    "tactile_paving": "no"
  }
},
{
  "type": "node",
  "id": 5884560641,
  "lat": 47.4723701,
  "lon": -0.5997661,
  "tags": {
    "bench": "yes",
    "bin": "yes",
    "highway": "bus_stop",
    "lit": "yes",
    "name": "CNFTP",
    "public_transport": "platform",
    "shelter": "yes",
    "tactile_paving": "no"
  }
},
{
  "type": "node",
  "id": 5884560642,
  "lat": 47.4732956,
  "lon": -0.5986757,
  "tags": {
    "bench": "yes",
    "bin": "yes",
    "highway": "bus_stop",
    "name": "La Barre",
    "public_transport": "platform",
    "shelter": "yes"
  }
},
{
  "type": "node",
  "id": 5892421222,
  "lat": 47.4603271,
  "lon": -0.5549353,
  "tags": {
    "bench": "yes",
    "bin": "yes",
    "bus": "yes",
    "highway": "bus_stop",
    "lit": "yes",
    "name": "Place la Fayette",
    "public_transport": "platform",
    "shelter": "yes",
    "tactile_paving": "no"
  }
},
{
  "type": "node",
  "id": 5892421223,
  "lat": 47.4604530,
  "lon": -0.5542714,
  "tags": {
    "bench": "yes",
    "bin": "yes",
    "bus": "yes",
    "highway": "bus_stop",
    "lit": "yes",
    "name": "Place la Fayette",
    "public_transport": "platform",
    "shelter": "yes",
    "tactile_paving": "no"
  }
},
{
  "type": "node",
  "id": 5892558929,
  "lat": 47.4746970,
  "lon": -0.5998577,
  "tags": {
    "bench": "yes",
    "highway": "bus_stop",
    "name": "Gaubert",
    "public_transport": "platform",
    "public_transport:version": "2",
    "shelter": "yes"
  }
},
{
  "type": "node",
  "id": 5892558930,
  "lat": 47.4753192,
  "lon": -0.5993816,
  "tags": {
    "bench": "yes",
    "bin": "yes",
    "highway": "bus_stop",
    "name": "Gaubert",
    "public_transport": "platform",
    "public_transport:version": "2",
    "shelter": "yes",
    "tactile_paving": "no"
  }
},
{
  "type": "node",
  "id": 5892558931,
  "lat": 47.4783663,
  "lon": -0.6063146,
  "tags": {
    "highway": "bus_stop",
    "name": "Maison de Technopole",
    "public_transport": "platform"
  }
},
{
  "type": "node",
  "id": 5892558932,
  "lat": 47.4784123,
  "lon": -0.6060700,
  "tags": {
    "highway": "bus_stop",
    "name": "Maison de Technopole",
    "public_transport": "platform"
  }
},
{
  "type": "node",
  "id": 5893175053,
  "lat": 47.4742692,
  "lon": -0.5666515,
  "tags": {
    "bench": "yes",
    "bin": "yes",
    "highway": "bus_stop",
    "name": "Monprofit",
    "public_transport": "platform",
    "public_transport:version": "2",
    "shelter": "yes",
    "tactile_paving": "no"
  }
},
{
  "type": "node",
  "id": 5893175054,
  "lat": 47.4743553,
  "lon": -0.5666864,
  "tags": {
    "bench": "yes",
    "bin": "yes",
    "highway": "bus_stop",
    "name": "Monprofit",
    "public_transport": "platform",
    "public_transport:version": "2",
    "shelter": "yes",
    "tactile_paving": "no"
  }
},
{
  "type": "node",
  "id": 5893175055,
  "lat": 47.4746816,
  "lon": -0.5674656,
  "tags": {
    "bench": "yes",
    "bin": "yes",
    "highway": "bus_stop",
    "name": "Monprofit",
    "public_transport": "platform",
    "public_transport:version": "2",
    "shelter": "yes"
  }
},
{
  "type": "node",
  "id": 5893175056,
  "lat": 47.4744922,
  "lon": -0.5671008,
  "tags": {
    "bench": "yes",
    "bin": "yes",
    "highway": "bus_stop",
    "name": "Monprofit",
    "public_transport": "platform",
    "public_transport:version": "2",
    "shelter": "yes"
  }
},
{
  "type": "node",
  "id": 5893175057,
  "lat": 47.4793008,
  "lon": -0.5647431,
  "tags": {
    "bench": "yes",
    "highway": "bus_stop",
    "name": "Bichon",
    "public_transport": "platform",
    "public_transport:version": "2",
    "shelter": "yes"
  }
},
{
  "type": "node",
  "id": 5893175058,
  "lat": 47.4793198,
  "lon": -0.5648209,
  "tags": {
    "bench": "no",
    "highway": "bus_stop",
    "name": "Bichon",
    "public_transport": "platform",
    "public_transport:version": "2",
    "shelter": "no"
  }
},
{
  "type": "node",
  "id": 5893175059,
  "lat": 47.4859524,
  "lon": -0.5636193,
  "tags": {
    "bench": "yes",
    "highway": "bus_stop",
    "name": "Blériot",
    "public_transport": "platform",
    "shelter": "no"
  }
},
{
  "type": "node",
  "id": 5893175060,
  "lat": 47.4861717,
  "lon": -0.5634731,
  "tags": {
    "bench": "yes",
    "highway": "bus_stop",
    "name": "Blériot",
    "public_transport": "platform",
    "shelter": "no"
  }
},
{
  "type": "node",
  "id": 5893175061,
  "lat": 47.4923721,
  "lon": -0.5674750,
  "tags": {
    "bench": "yes",
    "highway": "bus_stop",
    "name": "Verneau - Aqua Vita",
    "public_transport": "platform",
    "shelter": "no"
  }
},
{
  "type": "node",
  "id": 5893175062,
  "lat": 47.4930807,
  "lon": -0.5682045,
  "tags": {
    "bench": "yes",
    "highway": "bus_stop",
    "name": "Verneau - Aqua Vita",
    "public_transport": "platform",
    "shelter": "no"
  }
},
{
  "type": "node",
  "id": 5897634619,
  "lat": 47.4599686,
  "lon": -0.5608269,
  "tags": {
    "bench": "yes",
    "bin": "yes",
    "bus": "yes",
    "highway": "bus_stop",
    "lit": "yes",
    "name": "Vauban",
    "public_transport": "platform",
    "public_transport:version": "2",
    "shelter": "yes",
    "tactile_paving": "no"
  }
},
{
  "type": "node",
  "id": 5897634620,
  "lat": 47.4601840,
  "lon": -0.5608032,
  "tags": {
    "bench": "yes",
    "bin": "yes",
    "bus": "yes",
    "highway": "bus_stop",
    "lit": "yes",
    "name": "Vauban",
    "public_transport": "platform",
    "public_transport:version": "2",
    "shelter": "yes",
    "tactile_paving": "no"
  }
},
{
  "type": "node",
  "id": 5897634621,
  "lat": 47.4651425,
  "lon": -0.5557756,
  "tags": {
    "bench": "yes",
    "bin": "yes",
    "bus": "yes",
    "highway": "bus_stop",
    "name": "Les Gares",
    "public_transport": "platform",
    "shelter": "yes",
    "tactile_paving": "no"
  }
},
{
  "type": "node",
  "id": 5897707489,
  "lat": 47.4449666,
  "lon": -0.5772277,
  "tags": {
    "bench": "no",
    "highway": "bus_stop",
    "name": "Route de Bouchemaine",
    "public_transport": "platform",
    "shelter": "no"
  }
},
{
  "type": "node",
  "id": 5897707491,
  "lat": 47.4485522,
  "lon": -0.5733485,
  "tags": {
    "bench": "no",
    "bin": "no",
    "highway": "bus_stop",
    "lit": "yes",
    "name": "Gaubourgs",
    "public_transport": "platform",
    "shelter": "no",
    "tactile_paving": "no"
  }
},
{
  "type": "node",
  "id": 5897707493,
  "lat": 47.4493208,
  "lon": -0.5730200,
  "tags": {
    "bench": "no",
    "bin": "no",
    "highway": "bus_stop",
    "lit": "yes",
    "name": "Gaubourgs",
    "public_transport": "platform",
    "shelter": "no",
    "tactile_paving": "yes"
  }
},
{
  "type": "node",
  "id": 5902561725,
  "lat": 47.4644892,
  "lon": -0.5485386,
  "tags": {
    "bench": "yes",
    "bin": "yes",
    "highway": "bus_stop",
    "name": "André Leroy",
    "public_transport": "platform",
    "public_transport:version": "2",
    "shelter": "yes",
    "tactile_paving": "no"
  }
},
{
  "type": "node",
  "id": 5902561727,
  "lat": 47.4646075,
  "lon": -0.5482361,
  "tags": {
    "bench": "yes",
    "bin": "yes",
    "highway": "bus_stop",
    "name": "André Leroy",
    "public_transport": "platform",
    "public_transport:version": "2",
    "shelter": "yes",
    "tactile_paving": "no"
  }
},
{
  "type": "node",
  "id": 5902561730,
  "lat": 47.4570088,
  "lon": -0.5332419,
  "tags": {
    "bench": "no",
    "highway": "bus_stop",
    "name": "Millot",
    "public_transport": "platform",
    "public_transport:version": "2",
    "shelter": "no"
  }
},
{
  "type": "node",
  "id": 5902561731,
  "lat": 47.4569616,
  "lon": -0.5334230,
  "tags": {
    "bench": "no",
    "highway": "bus_stop",
    "name": "Millot",
    "public_transport": "platform",
    "public_transport:version": "2",
    "shelter": "no"
  }
},
{
  "type": "node",
  "id": 5906840316,
  "lat": 47.4827396,
  "lon": -0.5212055,
  "tags": {
    "bench": "yes",
    "bin": "yes",
    "highway": "bus_stop",
    "name": "Chatenay",
    "public_transport": "platform",
    "shelter": "yes"
  }
},
{
  "type": "node",
  "id": 5906840317,
  "lat": 47.4825483,
  "lon": -0.5211653,
  "tags": {
    "bench": "yes",
    "bin": "yes",
    "highway": "bus_stop",
    "name": "Chatenay",
    "public_transport": "platform",
    "shelter": "yes"
  }
},
{
  "type": "node",
  "id": 5907029912,
  "lat": 47.4795238,
  "lon": -0.5281471,
  "tags": {
    "bench": "yes",
    "highway": "bus_stop",
    "name": "Brisepotière",
    "public_transport": "platform",
    "public_transport:version": "2",
    "shelter": "yes"
  }
},
{
  "type": "node",
  "id": 5907029913,
  "lat": 47.4796063,
  "lon": -0.5278748,
  "tags": {
    "bench": "yes",
    "highway": "bus_stop",
    "name": "Brisepotière",
    "public_transport": "platform",
    "shelter": "yes"
  }
},
{
  "type": "node",
  "id": 5910264185,
  "lat": 47.4586472,
  "lon": -0.5581002,
  "tags": {
    "bench": "no",
    "bin": "no",
    "bus": "yes",
    "highway": "bus_stop",
    "lit": "no",
    "name": "Frémur",
    "public_transport": "platform",
    "public_transport:version": "2",
    "shelter": "no",
    "tactile_paving": "no"
  }
},
{
  "type": "node",
  "id": 5923728287,
  "lat": 47.4873841,
  "lon": -0.5525978,
  "tags": {
    "highway": "bus_stop",
    "name": "Fac de Médecine",
    "public_transport": "platform",
    "shelter": "no"
  }
},
{
  "type": "node",
  "id": 5923733885,
  "lat": 47.4871477,
  "lon": -0.5523115,
  "tags": {
    "highway": "bus_stop",
    "name": "Fac de Médecine",
    "public_transport": "platform",
    "shelter": "no"
  }
},
{
  "type": "node",
  "id": 5924519569,
  "lat": 47.4923984,
  "lon": -0.5518994,
  "tags": {
    "bench": "yes",
    "bin": "yes",
    "bus": "yes",
    "highway": "bus_stop",
    "name": "Jean Moulin",
    "public_transport": "platform",
    "public_transport:version": "2",
    "shelter": "yes"
  }
},
{
  "type": "node",
  "id": 5924519570,
  "lat": 47.4922262,
  "lon": -0.5518658,
  "tags": {
    "bench": "yes",
    "bin": "yes",
    "bus": "yes",
    "highway": "bus_stop",
    "name": "Jean Moulin",
    "public_transport": "platform",
    "public_transport:version": "2",
    "shelter": "yes"
  }
},
{
  "type": "node",
  "id": 6005909358,
  "lat": 47.4644089,
  "lon": -0.6047684,
  "tags": {
    "bus": "yes",
    "highway": "bus_stop",
    "name": "Montéclair",
    "public_transport": "platform",
    "shelter": "no"
  }
},
{
  "type": "node",
  "id": 6005909359,
  "lat": 47.4645018,
  "lon": -0.6048046,
  "tags": {
    "bus": "yes",
    "highway": "bus_stop",
    "name": "Montéclair",
    "public_transport": "platform",
    "shelter": "yes"
  }
},
{
  "type": "node",
  "id": 6032328618,
  "lat": 47.4640358,
  "lon": -0.5626843,
  "tags": {
    "bench": "yes",
    "bin": "yes",
    "bus": "yes",
    "highway": "bus_stop",
    "name": "Pont Noir",
    "public_transport": "platform",
    "public_transport:version": "2",
    "shelter": "yes",
    "tactile_paving": "no"
  }
},
{
  "type": "node",
  "id": 6032328619,
  "lat": 47.4638664,
  "lon": -0.5628406,
  "tags": {
    "bench": "yes",
    "bin": "yes",
    "bus": "yes",
    "highway": "bus_stop",
    "name": "Pont Noir",
    "public_transport": "platform",
    "public_transport:version": "2",
    "shelter": "yes",
    "tactile_paving": "no"
  }
},
{
  "type": "node",
  "id": 6032346946,
  "lat": 47.4703400,
  "lon": -0.5472469,
  "tags": {
    "bench": "yes",
    "bus": "yes",
    "highway": "bus_stop",
    "name": "Lorraine",
    "public_transport": "platform",
    "public_transport:version": "2",
    "shelter": "yes"
  }
},
{
  "type": "node",
  "id": 6032346947,
  "lat": 47.4702254,
  "lon": -0.5471429,
  "tags": {
    "bench": "yes",
    "bus": "yes",
    "highway": "bus_stop",
    "name": "Lorraine",
    "public_transport": "platform",
    "public_transport:version": "2",
    "shelter": "yes"
  }
},
{
  "type": "node",
  "id": 6032346948,
  "lat": 47.4701250,
  "lon": -0.5478700,
  "tags": {
    "bench": "yes",
    "bus": "yes",
    "highway": "bus_stop",
    "name": "Lorraine",
    "public_transport": "platform",
    "shelter": "yes"
  }
},
{
  "type": "node",
  "id": 6032346965,
  "lat": 47.4701584,
  "lon": -0.5475931,
  "tags": {
    "bench": "yes",
    "bus": "yes",
    "highway": "bus_stop",
    "name": "Lorraine",
    "public_transport": "platform",
    "public_transport:version": "2",
    "shelter": "yes"
  }
},
{
  "type": "node",
  "id": 6032942251,
  "lat": 47.4649778,
  "lon": -0.5591789,
  "tags": {
    "bench": "yes",
    "bin": "no",
    "bus": "yes",
    "highway": "bus_stop",
    "name": "Gares Sémard",
    "public_transport": "platform",
    "public_transport:version": "2",
    "route_ref": "Flixbus 714, 715, 724, N723, N724; Keolis 33, 34, 35, 36, 38, 39, 43",
    "shelter": "yes",
    "tactile_paving": "no"
  }
},
{
  "type": "node",
  "id": 6032942252,
  "lat": 47.4659534,
  "lon": -0.5593237,
  "tags": {
    "bus": "yes",
    "highway": "bus_stop",
    "name": "Gares Bremont",
    "public_transport": "platform",
    "public_transport:version": "2",
    "shelter": "yes"
  }
},
{
  "type": "node",
  "id": 6032942254,
  "lat": 47.4656779,
  "lon": -0.5595241,
  "tags": {
    "bus": "yes",
    "highway": "bus_stop",
    "name": "Gares Bremont",
    "public_transport": "platform",
    "public_transport:version": "2",
    "shelter": "yes"
  }
},
{
  "type": "node",
  "id": 6032983010,
  "lat": 47.4793724,
  "lon": -0.5610967,
  "tags": {
    "bench": "yes",
    "bin": "yes",
    "highway": "bus_stop",
    "lit": "yes",
    "name": "Hôtel Dieu",
    "public_transport": "platform",
    "public_transport:version": "2",
    "shelter": "yes"
  }
},
{
  "type": "node",
  "id": 6032983011,
  "lat": 47.4792220,
  "lon": -0.5593385,
  "tags": {
    "bench": "yes",
    "bus": "yes",
    "highway": "bus_stop",
    "name": "Hôtel Dieu",
    "public_transport": "platform",
    "public_transport:version": "2",
    "shelter": "yes"
  }
},
{
  "type": "node",
  "id": 6032983012,
  "lat": 47.4789020,
  "lon": -0.5640028,
  "tags": {
    "bench": "yes",
    "bin": "yes",
    "highway": "bus_stop",
    "lit": "yes",
    "name": "Bichon",
    "public_transport": "platform",
    "public_transport:version": "2",
    "shelter": "yes"
  }
},
{
  "type": "node",
  "id": 6032983013,
  "lat": 47.4792333,
  "lon": -0.5636300,
  "tags": {
    "bench": "yes",
    "bin": "yes",
    "highway": "bus_stop",
    "lit": "yes",
    "name": "Bichon",
    "public_transport": "platform",
    "public_transport:version": "2",
    "shelter": "yes"
  }
},
{
  "type": "node",
  "id": 6032983014,
  "lat": 47.4774191,
  "lon": -0.5659421,
  "tags": {
    "bench": "yes",
    "highway": "bus_stop",
    "name": "Descazeaux",
    "public_transport": "platform",
    "public_transport:version": "2",
    "shelter": "yes"
  }
},
{
  "type": "node",
  "id": 6032983015,
  "lat": 47.4762172,
  "lon": -0.5658536,
  "tags": {
    "bench": "yes",
    "highway": "bus_stop",
    "name": "Descazeaux",
    "public_transport": "platform",
    "public_transport:version": "2",
    "shelter": "yes"
  }
},
{
  "type": "node",
  "id": 6032983016,
  "lat": 47.4766332,
  "lon": -0.5671920,
  "tags": {
    "bench": "yes",
    "highway": "bus_stop",
    "name": "Descazeaux",
    "public_transport": "platform",
    "public_transport:version": "2",
    "shelter": "yes"
  }
},
{
  "type": "node",
  "id": 6032983017,
  "lat": 47.4767665,
  "lon": -0.5661513,
  "tags": {
    "bench": "yes",
    "highway": "bus_stop",
    "name": "Descazeaux",
    "public_transport": "platform",
    "public_transport:version": "2",
    "shelter": "yes"
  }
},
{
  "type": "node",
  "id": 6032983018,
  "lat": 47.4724761,
  "lon": -0.5665804,
  "tags": {
    "bench": "yes",
    "bin": "yes",
    "highway": "bus_stop",
    "name": "Front de Maine",
    "public_transport": "platform",
    "public_transport:version": "2",
    "shelter": "yes",
    "tactile_paving": "no"
  }
},
{
  "type": "node",
  "id": 6033058793,
  "lat": 47.4704084,
  "lon": -0.5697556,
  "tags": {
    "bench": "yes",
    "bin": "yes",
    "bus": "yes",
    "highway": "bus_stop",
    "name": "Bon Pasteur",
    "public_transport": "platform",
    "public_transport:version": "2",
    "shelter": "yes"
  }
},
{
  "type": "node",
  "id": 6033058794,
  "lat": 47.4735948,
  "lon": -0.5711938,
  "tags": {
    "bench": "yes",
    "bin": "yes",
    "highway": "bus_stop",
    "name": "Saint-Jacques",
    "public_transport": "platform",
    "public_transport:version": "2",
    "shelter": "yes",
    "tactile_paving": "no"
  }
},
{
  "type": "node",
  "id": 6033058795,
  "lat": 47.4737262,
  "lon": -0.5726677,
  "tags": {
    "bench": "yes",
    "bin": "yes",
    "highway": "bus_stop",
    "name": "Saint-Jacques",
    "public_transport": "platform",
    "public_transport:version": "2",
    "shelter": "yes"
  }
},
{
  "type": "node",
  "id": 6033058796,
  "lat": 47.4752201,
  "lon": -0.5626430,
  "tags": {
    "amenity": "shelter",
    "bench": "yes",
    "highway": "bus_stop",
    "name": "Trinité",
    "public_transport": "platform",
    "public_transport:version": "2",
    "shelter_type": "public_transport"
  }
},
{
  "type": "node",
  "id": 6033058797,
  "lat": 47.4751865,
  "lon": -0.5617592,
  "tags": {
    "amenity": "shelter",
    "bench": "yes",
    "highway": "bus_stop",
    "name": "Trinité",
    "public_transport": "platform",
    "public_transport:version": "2",
    "shelter_type": "public_transport"
  }
},
{
  "type": "node",
  "id": 6033058798,
  "lat": 47.4740453,
  "lon": -0.5597053,
  "tags": {
    "amenity": "shelter",
    "bench": "yes",
    "highway": "bus_stop",
    "name": "Beaurepaire",
    "public_transport": "platform",
    "public_transport:version": "2",
    "shelter_type": "public_transport"
  }
},
{
  "type": "node",
  "id": 6033058799,
  "lat": 47.4740797,
  "lon": -0.5596543,
  "tags": {
    "amenity": "shelter",
    "bench": "yes",
    "highway": "bus_stop",
    "name": "Beaurepaire",
    "public_transport": "platform",
    "public_transport:version": "2",
    "shelter_type": "public_transport"
  }
},
{
  "type": "node",
  "id": 6033058800,
  "lat": 47.4805974,
  "lon": -0.5548900,
  "tags": {
    "bench": "yes",
    "bin": "yes",
    "highway": "bus_stop",
    "name": "CHU - Hôpital",
    "public_transport": "platform",
    "public_transport:version": "2",
    "shelter": "yes"
  }
},
{
  "type": "node",
  "id": 6033058801,
  "lat": 47.4794295,
  "lon": -0.5567314,
  "tags": {
    "bench": "yes",
    "bus": "yes",
    "highway": "bus_stop",
    "name": "La Rochefoucauld",
    "public_transport": "platform",
    "public_transport:version": "2",
    "shelter": "yes",
    "tactile_paving": "no"
  }
},
{
  "type": "node",
  "id": 6033058802,
  "lat": 47.4788576,
  "lon": -0.5570063,
  "tags": {
    "bench": "yes",
    "bus": "yes",
    "highway": "bus_stop",
    "name": "La Rochefoucauld",
    "public_transport": "platform",
    "public_transport:version": "2",
    "shelter": "yes",
    "tactile_paving": "no"
  }
},
{
  "type": "node",
  "id": 6033086585,
  "lat": 47.4572763,
  "lon": -0.5545427,
  "tags": {
    "bench": "no",
    "bin": "no",
    "highway": "bus_stop",
    "name": "Strasbourg",
    "public_transport": "platform",
    "public_transport:version": "2",
    "shelter": "no",
    "tactile_paving": "no"
  }
},
{
  "type": "node",
  "id": 6033086586,
  "lat": 47.4571897,
  "lon": -0.5544703,
  "tags": {
    "bench": "no",
    "bin": "yes",
    "highway": "bus_stop",
    "name": "Strasbourg",
    "public_transport": "platform",
    "public_transport:version": "2",
    "shelter": "no",
    "tactile_paving": "no"
  }
},
{
  "type": "node",
  "id": 6033086587,
  "lat": 47.4585920,
  "lon": -0.5580866,
  "tags": {
    "bench": "no",
    "bin": "no",
    "bus": "yes",
    "highway": "bus_stop",
    "lit": "no",
    "name": "Frémur",
    "public_transport": "platform",
    "public_transport:version": "2",
    "shelter": "no",
    "tactile_paving": "no"
  }
},
{
  "type": "node",
  "id": 6033086588,
  "lat": 47.4615125,
  "lon": -0.5621481,
  "tags": {
    "bench": "yes",
    "bin": "yes",
    "bus": "yes",
    "highway": "bus_stop",
    "lit": "yes",
    "name": "Poirel",
    "public_transport": "platform",
    "public_transport:version": "2",
    "shelter": "yes",
    "tactile_paving": "no"
  }
},
{
  "type": "node",
  "id": 6033086589,
  "lat": 47.4617111,
  "lon": -0.5620958,
  "tags": {
    "bench": "yes",
    "bin": "yes",
    "bus": "yes",
    "highway": "bus_stop",
    "name": "Poirel",
    "public_transport": "platform",
    "public_transport:version": "2",
    "shelter": "yes",
    "tactile_paving": "no"
  }
},
{
  "type": "node",
  "id": 6052416466,
  "lat": 47.4802489,
  "lon": -0.6024121,
  "tags": {
    "bus": "yes",
    "highway": "bus_stop",
    "name": "IUT",
    "public_transport": "platform",
    "public_transport:version": "2",
    "shelter": "yes"
  }
},
{
  "type": "node",
  "id": 6052416467,
  "lat": 47.4805335,
  "lon": -0.6029297,
  "tags": {
    "bus": "yes",
    "highway": "bus_stop",
    "name": "IUT",
    "public_transport": "platform",
    "public_transport:version": "2",
    "shelter": "yes"
  }
},
{
  "type": "node",
  "id": 6052422823,
  "lat": 47.4788313,
  "lon": -0.5979301,
  "tags": {
    "bench": "yes",
    "bus": "yes",
    "highway": "bus_stop",
    "lit": "yes",
    "name": "Cité Universitaire",
    "public_transport": "platform",
    "public_transport:version": "2",
    "shelter": "yes",
    "tactile_paving": "no"
  }
},
{
  "type": "node",
  "id": 6052422824,
  "lat": 47.4786817,
  "lon": -0.5982560,
  "tags": {
    "bench": "yes",
    "bus": "yes",
    "highway": "bus_stop",
    "lit": "yes",
    "name": "Cité Universitaire",
    "public_transport": "platform",
    "public_transport:version": "2",
    "shelter": "yes",
    "tactile_paving": "no"
  }
},
{
  "type": "node",
  "id": 6052422825,
  "lat": 47.4792065,
  "lon": -0.6002703,
  "tags": {
    "bench": "yes",
    "bus": "yes",
    "highway": "bus_stop",
    "name": "Restaurant Universitaire",
    "public_transport": "platform",
    "public_transport:version": "2",
    "shelter": "yes",
    "tactile_paving": "no"
  }
},
{
  "type": "node",
  "id": 6052422826,
  "lat": 47.4795301,
  "lon": -0.6003240,
  "tags": {
    "bus": "yes",
    "highway": "bus_stop",
    "name": "Restaurant Universitaire",
    "public_transport": "platform",
    "public_transport:version": "2",
    "shelter": "yes"
  }
},
{
  "type": "node",
  "id": 6052499947,
  "lat": 47.4651755,
  "lon": -0.5574408,
  "tags": {
    "bench": "no",
    "bus": "yes",
    "highway": "bus_stop",
    "name": "Gares Papin",
    "public_transport": "platform",
    "public_transport:version": "2",
    "shelter": "no",
    "tactile_paving": "no"
  }
},
{
  "type": "node",
  "id": 6052499948,
  "lat": 47.4649216,
  "lon": -0.5577788,
  "tags": {
    "bench": "yes",
    "bin": "yes",
    "bus": "yes",
    "highway": "bus_stop",
    "name": "Gares Papin",
    "public_transport": "platform",
    "public_transport:version": "2",
    "shelter": "yes",
    "tactile_paving": "no"
  }
},
{
  "type": "node",
  "id": 6052499949,
  "lat": 47.4688835,
  "lon": -0.5581087,
  "tags": {
    "bench": "yes",
    "bin": "yes",
    "bus": "yes",
    "highway": "bus_stop",
    "name": "Office de Tourisme",
    "public_transport": "platform",
    "public_transport:version": "2",
    "shelter": "no",
    "tactile_paving": "no"
  }
},
{
  "type": "node",
  "id": 6052499950,
  "lat": 47.4691754,
  "lon": -0.5575722,
  "tags": {
    "bus": "yes",
    "highway": "bus_stop",
    "name": "Office de Tourisme",
    "public_transport": "platform",
    "public_transport:version": "2",
    "shelter": "no"
  }
},
{
  "type": "node",
  "id": 6052499952,
  "lat": 47.4699546,
  "lon": -0.5544032,
  "tags": {
    "bus": "yes",
    "highway": "bus_stop",
    "name": "Sainte-Croix",
    "public_transport": "platform",
    "public_transport:version": "2",
    "shelter": "no"
  }
},
{
  "type": "node",
  "id": 6052499953,
  "lat": 47.4699229,
  "lon": -0.5547854,
  "tags": {
    "bus": "yes",
    "highway": "bus_stop",
    "name": "Sainte-Croix",
    "public_transport": "platform",
    "public_transport:version": "2",
    "shelter": "no"
  }
},
{
  "type": "node",
  "id": 6052499954,
  "lat": 47.4710338,
  "lon": -0.5539995,
  "tags": {
    "bus": "yes",
    "highway": "bus_stop",
    "name": "République",
    "public_transport": "platform",
    "public_transport:version": "2",
    "shelter": "yes"
  }
},
{
  "type": "node",
  "id": 6052499955,
  "lat": 47.4716920,
  "lon": -0.5538654,
  "tags": {
    "bus": "yes",
    "highway": "bus_stop",
    "name": "République",
    "public_transport": "platform",
    "public_transport:version": "2",
    "shelter": "yes",
    "tactile_paving": "no"
  }
},
{
  "type": "node",
  "id": 6052499957,
  "lat": 47.4725768,
  "lon": -0.5567180,
  "tags": {
    "bench": "yes",
    "bin": "yes",
    "bus": "yes",
    "highway": "bus_stop",
    "name": "Cœur de Maine",
    "public_transport": "platform",
    "public_transport:version": "2",
    "shelter": "yes"
  }
},
{
  "type": "node",
  "id": 6052499958,
  "lat": 47.4723369,
  "lon": -0.5572068,
  "tags": {
    "bench": "yes",
    "bus": "yes",
    "highway": "bus_stop",
    "name": "Cœur de Maine",
    "public_transport": "platform",
    "public_transport:version": "2",
    "shelter": "yes",
    "tactile_paving": "no"
  }
},
{
  "type": "node",
  "id": 6052499962,
  "lat": 47.4782784,
  "lon": -0.5848423,
  "tags": {
    "bus": "yes",
    "highway": "bus_stop",
    "name": "Boisramé",
    "public_transport": "platform",
    "public_transport:version": "2",
    "shelter": "yes"
  }
},
{
  "type": "node",
  "id": 6052499964,
  "lat": 47.4783065,
  "lon": -0.5846652,
  "tags": {
    "bus": "yes",
    "highway": "bus_stop",
    "name": "Boisramé",
    "public_transport": "platform",
    "public_transport:version": "2",
    "shelter": "yes"
  }
},
{
  "type": "node",
  "id": 6052499965,
  "lat": 47.4796208,
  "lon": -0.5898151,
  "tags": {
    "bus": "yes",
    "highway": "bus_stop",
    "name": "Notre-Dame du Lac",
    "public_transport": "platform",
    "public_transport:version": "2",
    "shelter": "yes"
  }
},
{
  "type": "node",
  "id": 6052499966,
  "lat": 47.4796887,
  "lon": -0.5895844,
  "tags": {
    "bus": "yes",
    "highway": "bus_stop",
    "name": "Notre-Dame du Lac",
    "public_transport": "platform",
    "public_transport:version": "2",
    "shelter": "yes"
  }
},
{
  "type": "node",
  "id": 6052499967,
  "lat": 47.4805888,
  "lon": -0.5945089,
  "tags": {
    "bus": "yes",
    "highway": "bus_stop",
    "name": "Polytech Angers",
    "public_transport": "platform",
    "public_transport:version": "2",
    "shelter": "yes",
    "tactile_paving": "yes"
  }
},
{
  "type": "node",
  "id": 6052499968,
  "lat": 47.4806840,
  "lon": -0.5946216,
  "tags": {
    "bus": "yes",
    "highway": "bus_stop",
    "name": "Polytech Angers",
    "public_transport": "platform",
    "public_transport:version": "2",
    "shelter": "yes",
    "tactile_paving": "yes"
  }
},
{
  "type": "node",
  "id": 6052509143,
  "lat": 47.4687928,
  "lon": -0.5592848,
  "tags": {
    "bench": "yes",
    "bin": "yes",
    "bus": "yes",
    "covered": "yes",
    "highway": "bus_stop",
    "lit": "yes",
    "name": "Château",
    "public_transport": "platform",
    "public_transport:version": "2",
    "shelter": "yes",
    "tactile_paving": "no",
    "wheelchair": "yes"
  }
},
{
  "type": "node",
  "id": 6052509144,
  "lat": 47.4696545,
  "lon": -0.5615453,
  "tags": {
    "bus": "yes",
    "highway": "bus_stop",
    "name": "Roi de Pologne",
    "public_transport": "platform",
    "public_transport:version": "2",
    "shelter": "no"
  }
},
{
  "type": "node",
  "id": 6052705178,
  "lat": 47.4683513,
  "lon": -0.5587283,
  "tags": {
    "bench": "no",
    "bin": "no",
    "bus": "yes",
    "covered": "no",
    "highway": "bus_stop",
    "lit": "no",
    "name": "Académie",
    "public_transport": "platform",
    "public_transport:version": "2",
    "shelter": "no",
    "tactile_paving": "no",
    "wheelchair": "no"
  }
},
{
  "type": "node",
  "id": 6052741953,
  "lat": 47.4672539,
  "lon": -0.5522380,
  "tags": {
    "bench": "yes",
    "bin": "yes",
    "highway": "bus_stop",
    "name": "Foch - Haras",
    "public_transport": "platform",
    "public_transport:version": "2",
    "shelter": "yes"
  }
},
{
  "type": "node",
  "id": 6052741954,
  "lat": 47.4671782,
  "lon": -0.5518940,
  "tags": {
    "bench": "yes",
    "bin": "yes",
    "highway": "bus_stop",
    "name": "Foch - Haras",
    "public_transport": "platform",
    "public_transport:version": "2",
    "shelter": "yes",
    "tactile_paving": "no"
  }
},
{
  "type": "node",
  "id": 6052741955,
  "lat": 47.4681564,
  "lon": -0.5510424,
  "tags": {
    "bench": "yes",
    "bin": "yes",
    "bus": "yes",
    "highway": "bus_stop",
    "name": "Foch - Saint-Aubin",
    "public_transport": "platform",
    "public_transport:version": "2",
    "shelter": "yes"
  }
},
{
  "type": "node",
  "id": 6052741956,
  "lat": 47.4682552,
  "lon": -0.5504671,
  "tags": {
    "bench": "yes",
    "bin": "yes",
    "bus": "yes",
    "highway": "bus_stop",
    "name": "Foch - Saint-Aubin",
    "public_transport": "platform",
    "public_transport:version": "2",
    "shelter": "yes"
  }
},
{
  "type": "node",
  "id": 6052763837,
  "lat": 47.4696505,
  "lon": -0.5485855,
  "tags": {
    "bench": "yes",
    "bus": "yes",
    "highway": "bus_stop",
    "lit": "yes",
    "name": "Foch - Maison Bleue",
    "public_transport": "platform",
    "public_transport:version": "2",
    "shelter": "yes",
    "tactile_paving": "no"
  }
},
{
  "type": "node",
  "id": 6052763839,
  "lat": 47.4697402,
  "lon": -0.5488819,
  "tags": {
    "bench": "yes",
    "bus": "yes",
    "highway": "bus_stop",
    "name": "Foch - Maison Bleue",
    "public_transport": "platform",
    "public_transport:version": "2",
    "shelter": "yes"
  }
},
{
  "type": "node",
  "id": 6052763840,
  "lat": 47.4710882,
  "lon": -0.5463164,
  "tags": {
    "bench": "yes",
    "bus": "yes",
    "highway": "bus_stop",
    "name": "Mail",
    "public_transport": "platform",
    "public_transport:version": "2",
    "shelter": "yes",
    "wheelchair": "yes"
  }
},
{
  "type": "node",
  "id": 6052773449,
  "lat": 47.4720256,
  "lon": -0.5416064,
  "tags": {
    "bench": "yes",
    "bus": "yes",
    "highway": "bus_stop",
    "name": "C. Lemoine",
    "public_transport": "platform",
    "public_transport:version": "2",
    "shelter": "yes"
  }
},
{
  "type": "node",
  "id": 6052773450,
  "lat": 47.4719848,
  "lon": -0.5421066,
  "tags": {
    "bench": "no",
    "bus": "yes",
    "highway": "bus_stop",
    "name": "C. Lemoine",
    "public_transport": "platform",
    "public_transport:version": "2",
    "shelter": "no",
    "tactile_paving": "no"
  }
},
{
  "type": "node",
  "id": 6052782774,
  "lat": 47.4689696,
  "lon": -0.5400842,
  "tags": {
    "bench": "no",
    "bin": "yes",
    "bus": "yes",
    "highway": "bus_stop",
    "name": "Sécurité Sociale",
    "public_transport": "platform",
    "public_transport:version": "2",
    "shelter": "no",
    "tactile_paving": "no"
  }
},
{
  "type": "node",
  "id": 6052782775,
  "lat": 47.4691346,
  "lon": -0.5401164,
  "tags": {
    "bench": "no",
    "bin": "yes",
    "bus": "yes",
    "highway": "bus_stop",
    "name": "Sécurité Sociale",
    "public_transport": "platform",
    "public_transport:version": "2",
    "shelter": "no",
    "tactile_paving": "no"
  }
},
{
  "type": "node",
  "id": 6052803290,
  "lat": 47.4682988,
  "lon": -0.5331279,
  "tags": {
    "bench": "yes",
    "highway": "bus_stop",
    "name": "Gardot",
    "public_transport": "platform",
    "public_transport:version": "2",
    "shelter": "yes"
  }
},
{
  "type": "node",
  "id": 6052803291,
  "lat": 47.4683033,
  "lon": -0.5333948,
  "tags": {
    "bench": "yes",
    "highway": "bus_stop",
    "name": "Gardot",
    "public_transport": "platform",
    "public_transport:version": "2",
    "shelter": "yes"
  }
},
{
  "type": "node",
  "id": 6052803302,
  "lat": 47.4678500,
  "lon": -0.5364847,
  "tags": {
    "bench": "yes",
    "bin": "yes",
    "bus": "yes",
    "highway": "bus_stop",
    "lit": "yes",
    "name": "Saint-Exupéry",
    "public_transport": "platform",
    "public_transport:version": "2",
    "shelter": "yes",
    "wheelchair": "yes"
  }
},
{
  "type": "node",
  "id": 6052803303,
  "lat": 47.4680458,
  "lon": -0.5373953,
  "tags": {
    "bench": "yes",
    "bin": "yes",
    "bus": "yes",
    "highway": "bus_stop",
    "lit": "yes",
    "name": "Saint-Exupéry",
    "public_transport": "platform",
    "public_transport:version": "2",
    "shelter": "yes",
    "tactile_paving": "no",
    "wheelchair": "yes"
  }
},
{
  "type": "node",
  "id": 6052816397,
  "lat": 47.4715098,
  "lon": -0.5308802,
  "tags": {
    "bench": "yes",
    "highway": "bus_stop",
    "name": "Fratellini",
    "public_transport": "platform",
    "public_transport:version": "2",
    "shelter": "yes"
  }
},
{
  "type": "node",
  "id": 6052816398,
  "lat": 47.4708009,
  "lon": -0.5314341,
  "tags": {
    "bench": "no",
    "highway": "bus_stop",
    "name": "Montaigne",
    "public_transport": "platform",
    "public_transport:version": "2",
    "shelter": "no"
  }
},
{
  "type": "node",
  "id": 6052816399,
  "lat": 47.4694782,
  "lon": -0.5315924,
  "tags": {
    "bench": "yes",
    "bin": "yes",
    "highway": "bus_stop",
    "name": "Montaigne",
    "public_transport": "platform",
    "public_transport:version": "2",
    "shelter": "yes"
  }
},
{
  "type": "node",
  "id": 6052824552,
  "lat": 47.4713248,
  "lon": -0.5336282,
  "tags": {
    "bench": "yes",
    "bus": "yes",
    "highway": "bus_stop",
    "name": "Laréveillière",
    "public_transport": "platform",
    "public_transport:version": "2",
    "shelter": "yes"
  }
},
{
  "type": "node",
  "id": 6052824553,
  "lat": 47.4712315,
  "lon": -0.5318271,
  "tags": {
    "bench": "no",
    "highway": "bus_stop",
    "name": "Laréveillière",
    "public_transport": "platform",
    "public_transport:version": "2",
    "shelter": "no",
    "tactile_paving": "no"
  }
},
{
  "type": "node",
  "id": 6052848019,
  "lat": 47.4735558,
  "lon": -0.5297215,
  "tags": {
    "bench": "yes",
    "highway": "bus_stop",
    "name": "Jérusalem",
    "public_transport": "platform",
    "public_transport:version": "2",
    "shelter": "yes"
  }
},
{
  "type": "node",
  "id": 6052848020,
  "lat": 47.4730753,
  "lon": -0.5302311,
  "tags": {
    "bench": "yes",
    "highway": "bus_stop",
    "name": "Jérusalem",
    "public_transport": "platform",
    "public_transport:version": "2",
    "shelter": "yes"
  }
},
{
  "type": "node",
  "id": 6052890862,
  "lat": 47.4773484,
  "lon": -0.5281229,
  "tags": {
    "bench": "yes",
    "highway": "bus_stop",
    "name": "Thuleau",
    "public_transport": "platform",
    "shelter": "yes"
  }
},
{
  "type": "node",
  "id": 6052890863,
  "lat": 47.4774816,
  "lon": -0.5282959,
  "tags": {
    "bench": "yes",
    "highway": "bus_stop",
    "name": "Thuleau",
    "public_transport": "platform",
    "shelter": "yes"
  }
},
{
  "type": "node",
  "id": 6052890864,
  "lat": 47.4906993,
  "lon": -0.5275396,
  "tags": {
    "bench": "yes",
    "highway": "bus_stop",
    "name": "Monplaisir",
    "public_transport": "platform",
    "shelter": "yes"
  }
},
{
  "type": "node",
  "id": 6052890865,
  "lat": 47.4911760,
  "lon": -0.5282986,
  "tags": {
    "bench": "yes",
    "highway": "bus_stop",
    "name": "Monplaisir",
    "public_transport": "platform",
    "public_transport:version": "2",
    "shelter": "yes"
  }
},
{
  "type": "node",
  "id": 6052890870,
  "lat": 47.4902163,
  "lon": -0.5300944,
  "tags": {
    "bench": "yes",
    "highway": "bus_stop",
    "name": "Auvergne",
    "public_transport": "platform",
    "public_transport:version": "2",
    "shelter": "yes"
  }
},
{
  "type": "node",
  "id": 6052890871,
  "lat": 47.4895375,
  "lon": -0.5308467,
  "tags": {
    "bench": "yes",
    "highway": "bus_stop",
    "name": "Auvergne",
    "public_transport": "platform",
    "public_transport:version": "2",
    "shelter": "yes"
  }
},
{
  "type": "node",
  "id": 6052890872,
  "lat": 47.4876426,
  "lon": -0.5319666,
  "tags": {
    "bench": "yes",
    "highway": "bus_stop",
    "name": "Nauzay",
    "public_transport": "platform",
    "public_transport:version": "2",
    "shelter": "yes"
  }
},
{
  "type": "node",
  "id": 6052890873,
  "lat": 47.4878238,
  "lon": -0.5320671,
  "tags": {
    "bench": "yes",
    "highway": "bus_stop",
    "name": "Nauzay",
    "public_transport": "platform",
    "public_transport:version": "2",
    "shelter": "yes"
  }
},
{
  "type": "node",
  "id": 6052890875,
  "lat": 47.4875157,
  "lon": -0.5282463,
  "tags": {
    "bench": "yes",
    "highway": "bus_stop",
    "name": "Place de l'Europe",
    "public_transport": "platform",
    "shelter": "yes"
  }
},
{
  "type": "node",
  "id": 6052890876,
  "lat": 47.4851069,
  "lon": -0.5270608,
  "tags": {
    "bench": "yes",
    "highway": "bus_stop",
    "name": "Allonneau",
    "public_transport": "platform",
    "shelter": "yes"
  }
},
{
  "type": "node",
  "id": 6052890877,
  "lat": 47.4851966,
  "lon": -0.5268677,
  "tags": {
    "bench": "yes",
    "highway": "bus_stop",
    "name": "Allonneau",
    "public_transport": "platform",
    "shelter": "yes"
  }
},
{
  "type": "node",
  "id": 6052890878,
  "lat": 47.4827921,
  "lon": -0.5267885,
  "tags": {
    "bench": "yes",
    "bin": "no",
    "highway": "bus_stop",
    "name": "Vaugareau",
    "public_transport": "platform",
    "shelter": "yes"
  }
},
{
  "type": "node",
  "id": 6052890879,
  "lat": 47.4823526,
  "lon": -0.5266839,
  "tags": {
    "bench": "yes",
    "bin": "no",
    "highway": "bus_stop",
    "name": "Vaugareau",
    "public_transport": "platform",
    "shelter": "yes"
  }
},
{
  "type": "node",
  "id": 6052918239,
  "lat": 47.4902620,
  "lon": -0.5231112,
  "tags": {
    "bench": "yes",
    "highway": "bus_stop",
    "name": "Industrie",
    "public_transport": "platform",
    "public_transport:version": "2",
    "shelter": "yes"
  }
},
{
  "type": "node",
  "id": 6052918240,
  "lat": 47.4899979,
  "lon": -0.5228511,
  "tags": {
    "bench": "yes",
    "highway": "bus_stop",
    "name": "Industrie",
    "public_transport": "platform",
    "public_transport:version": "2",
    "shelter": "yes"
  }
},
{
  "type": "node",
  "id": 6052918241,
  "lat": 47.4891718,
  "lon": -0.5196679,
  "tags": {
    "bench": "yes",
    "bus": "yes",
    "highway": "bus_stop",
    "name": "Hôtellerie",
    "public_transport": "platform",
    "public_transport:version": "2",
    "shelter": "yes"
  }
},
{
  "type": "node",
  "id": 6052918242,
  "lat": 47.4892895,
  "lon": -0.5196155,
  "tags": {
    "bench": "yes",
    "bus": "yes",
    "highway": "bus_stop",
    "name": "Hôtellerie",
    "public_transport": "platform",
    "public_transport:version": "2",
    "shelter": "yes"
  }
},
{
  "type": "node",
  "id": 6052918243,
  "lat": 47.4875547,
  "lon": -0.5158746,
  "tags": {
    "bench": "yes",
    "highway": "bus_stop",
    "name": "Debussy",
    "public_transport": "platform",
    "shelter": "yes"
  }
},
{
  "type": "node",
  "id": 6052918244,
  "lat": 47.4876712,
  "lon": -0.5158358,
  "tags": {
    "bench": "yes",
    "highway": "bus_stop",
    "name": "Debussy",
    "public_transport": "platform",
    "shelter": "yes"
  }
},
{
  "type": "node",
  "id": 6052918245,
  "lat": 47.4884156,
  "lon": -0.5158176,
  "tags": {
    "bench": "yes",
    "highway": "bus_stop",
    "name": "Debussy",
    "public_transport": "platform",
    "public_transport:version": "2",
    "shelter": "yes"
  }
},
{
  "type": "node",
  "id": 6052918246,
  "lat": 47.4883150,
  "lon": -0.5161093,
  "tags": {
    "bench": "yes",
    "highway": "bus_stop",
    "name": "Debussy",
    "public_transport": "platform",
    "public_transport:version": "2",
    "shelter": "yes"
  }
},
{
  "type": "node",
  "id": 6052918247,
  "lat": 47.4903749,
  "lon": -0.5140105,
  "tags": {
    "bench": "yes",
    "highway": "bus_stop",
    "name": "Bois l'Abbé",
    "public_transport": "platform",
    "public_transport:version": "2",
    "shelter": "yes"
  }
},
{
  "type": "node",
  "id": 6052918248,
  "lat": 47.4903350,
  "lon": -0.5141982,
  "tags": {
    "bench": "yes",
    "highway": "bus_stop",
    "name": "Bois l'Abbé",
    "public_transport": "platform",
    "public_transport:version": "2",
    "shelter": "yes"
  }
},
{
  "type": "node",
  "id": 6052918271,
  "lat": 47.4884202,
  "lon": -0.5361709,
  "tags": {
    "bench": "yes",
    "highway": "bus_stop",
    "name": "La Cité Chabada",
    "public_transport": "platform",
    "public_transport:version": "2",
    "shelter": "yes"
  }
},
{
  "type": "node",
  "id": 6052918272,
  "lat": 47.4883821,
  "lon": -0.5358624,
  "tags": {
    "bench": "yes",
    "highway": "bus_stop",
    "name": "La Cité Chabada",
    "public_transport": "platform",
    "public_transport:version": "2",
    "shelter": "yes"
  }
},
{
  "type": "node",
  "id": 6052918273,
  "lat": 47.4906313,
  "lon": -0.5322348,
  "tags": {
    "bench": "no",
    "highway": "bus_stop",
    "name": "Doyenné",
    "public_transport": "platform",
    "shelter": "no"
  }
},
{
  "type": "node",
  "id": 6052918274,
  "lat": 47.4906168,
  "lon": -0.5325600,
  "tags": {
    "bench": "no",
    "highway": "bus_stop",
    "name": "Doyenné",
    "public_transport": "platform",
    "shelter": "no"
  }
},
{
  "type": "node",
  "id": 6053061099,
  "lat": 47.4660613,
  "lon": -0.5963610,
  "tags": {
    "bus": "yes",
    "highway": "bus_stop",
    "name": "Pérussaie",
    "public_transport": "platform",
    "public_transport:version": "2",
    "shelter": "no"
  }
},
{
  "type": "node",
  "id": 6053061100,
  "lat": 47.4655055,
  "lon": -0.5954947,
  "tags": {
    "bus": "yes",
    "highway": "bus_stop",
    "name": "Pérussaie",
    "public_transport": "platform",
    "public_transport:version": "2",
    "shelter": "yes"
  }
},
{
  "type": "node",
  "id": 6053061103,
  "lat": 47.4659443,
  "lon": -0.5986845,
  "tags": {
    "bus": "yes",
    "highway": "bus_stop",
    "name": "Maison du Lac",
    "public_transport": "platform",
    "public_transport:version": "2",
    "shelter": "yes"
  }
},
{
  "type": "node",
  "id": 6053061104,
  "lat": 47.4659847,
  "lon": -0.5989051,
  "tags": {
    "bus": "yes",
    "highway": "bus_stop",
    "name": "Maison du Lac",
    "public_transport": "platform",
    "public_transport:version": "2",
    "shelter": "yes"
  }
},
{
  "type": "node",
  "id": 6053061105,
  "lat": 47.4654946,
  "lon": -0.6013338,
  "tags": {
    "bus": "yes",
    "highway": "bus_stop",
    "name": "Monnet",
    "public_transport": "platform",
    "public_transport:version": "2",
    "shelter": "yes"
  }
},
{
  "type": "node",
  "id": 6053061106,
  "lat": 47.4656242,
  "lon": -0.6014385,
  "tags": {
    "bus": "yes",
    "highway": "bus_stop",
    "name": "Monnet",
    "public_transport": "platform",
    "public_transport:version": "2",
    "shelter": "yes"
  }
},
{
  "type": "node",
  "id": 6053061107,
  "lat": 47.4766224,
  "lon": -0.5974862,
  "tags": {
    "bus": "yes",
    "highway": "bus_stop",
    "name": "ESSCA",
    "public_transport": "platform",
    "public_transport:version": "2",
    "shelter": "yes"
  }
},
{
  "type": "node",
  "id": 6053061108,
  "lat": 47.4771246,
  "lon": -0.5999177,
  "tags": {
    "bus": "yes",
    "highway": "bus_stop",
    "name": "ESSCA",
    "public_transport": "platform",
    "public_transport:version": "2",
    "shelter": "yes"
  }
},
{
  "type": "node",
  "id": 6053061109,
  "lat": 47.4763060,
  "lon": -0.5994441,
  "tags": {
    "bench": "yes",
    "bin": "yes",
    "bus": "yes",
    "highway": "bus_stop",
    "lit": "yes",
    "name": "ESSCA",
    "public_transport": "platform",
    "public_transport:version": "2",
    "shelter": "yes",
    "tactile_paving": "no"
  }
},
{
  "type": "node",
  "id": 6053061110,
  "lat": 47.4774545,
  "lon": -0.5986459,
  "tags": {
    "bus": "yes",
    "highway": "bus_stop",
    "name": "ESSCA",
    "public_transport": "platform",
    "public_transport:version": "2",
    "shelter": "yes"
  }
},
{
  "type": "node",
  "id": 6053136205,
  "lat": 47.4577106,
  "lon": -0.5972515,
  "tags": {
    "bus": "yes",
    "highway": "bus_stop",
    "name": "Lac de Maine Camping",
    "public_transport": "platform",
    "public_transport:version": "2",
    "shelter": "yes"
  }
},
{
  "type": "node",
  "id": 6053136206,
  "lat": 47.4611879,
  "lon": -0.5961049,
  "tags": {
    "bus": "yes",
    "highway": "bus_stop",
    "name": "Lac de Maine Nautique",
    "public_transport": "platform",
    "public_transport:version": "2",
    "shelter": "yes"
  }
},
{
  "type": "node",
  "id": 6053136207,
  "lat": 47.4640249,
  "lon": -0.5943802,
  "tags": {
    "bus": "yes",
    "highway": "bus_stop",
    "name": "Maison de l'Environnement",
    "public_transport": "platform",
    "public_transport:version": "2",
    "shelter": "yes"
  }
},
{
  "type": "node",
  "id": 6053136208,
  "lat": 47.4638699,
  "lon": -0.5942796,
  "tags": {
    "bus": "yes",
    "highway": "bus_stop",
    "name": "Maison de l'Environnement",
    "public_transport": "platform",
    "public_transport:version": "2",
    "shelter": "yes"
  }
},
{
  "type": "node",
  "id": 6053136209,
  "lat": 47.4611118,
  "lon": -0.5964281,
  "tags": {
    "bus": "yes",
    "highway": "bus_stop",
    "name": "Lac de Maine Nautique",
    "public_transport": "platform",
    "public_transport:version": "2",
    "shelter": "yes"
  }
},
{
  "type": "node",
  "id": 6053157475,
  "lat": 47.4616902,
  "lon": -0.6033602,
  "tags": {
    "bus": "yes",
    "highway": "bus_stop",
    "name": "Proudhon",
    "public_transport": "platform",
    "public_transport:version": "2",
    "shelter": "yes"
  }
},
{
  "type": "node",
  "id": 6053157476,
  "lat": 47.4613838,
  "lon": -0.6031363,
  "tags": {
    "bus": "yes",
    "highway": "bus_stop",
    "name": "Proudhon",
    "public_transport": "platform",
    "public_transport:version": "2",
    "shelter": "yes",
    "tactile_paving": "no"
  }
},
{
  "type": "node",
  "id": 6053157477,
  "lat": 47.4611734,
  "lon": -0.6038484,
  "tags": {
    "bus": "yes",
    "highway": "bus_stop",
    "name": "Proudhon",
    "public_transport": "platform",
    "public_transport:version": "2",
    "shelter": "yes"
  }
},
{
  "type": "node",
  "id": 6053157478,
  "lat": 47.4660495,
  "lon": -0.6050447,
  "tags": {
    "bus": "yes",
    "highway": "bus_stop",
    "name": "Delescluze",
    "public_transport": "platform",
    "public_transport:version": "2",
    "shelter": "no"
  }
},
{
  "type": "node",
  "id": 6053157479,
  "lat": 47.4660853,
  "lon": -0.6048730,
  "tags": {
    "bus": "yes",
    "highway": "bus_stop",
    "name": "Delescluze",
    "public_transport": "platform",
    "public_transport:version": "2",
    "shelter": "yes"
  }
},
{
  "type": "node",
  "id": 6055809931,
  "lat": 47.4734399,
  "lon": -0.5764406,
  "tags": {
    "bench": "yes",
    "bin": "yes",
    "bus": "yes",
    "highway": "bus_stop",
    "name": "Saint-Nicolas",
    "public_transport": "platform",
    "public_transport:version": "2",
    "shelter": "yes"
  }
},
{
  "type": "node",
  "id": 6055962632,
  "lat": 47.4834166,
  "lon": -0.5283536,
  "tags": {
    "bench": "yes",
    "highway": "bus_stop",
    "name": "Vaugareau",
    "public_transport": "platform",
    "public_transport:version": "2",
    "shelter": "yes"
  }
},
{
  "type": "node",
  "id": 6055962633,
  "lat": 47.4836876,
  "lon": -0.5286996,
  "tags": {
    "bench": "yes",
    "highway": "bus_stop",
    "name": "Vaugareau",
    "public_transport": "platform",
    "public_transport:version": "2",
    "shelter": "yes"
  }
},
{
  "type": "node",
  "id": 6055962634,
  "lat": 47.4845567,
  "lon": -0.5310439,
  "tags": {
    "bench": "yes",
    "highway": "bus_stop",
    "name": "Voltaire",
    "public_transport": "platform",
    "public_transport:version": "2",
    "shelter": "yes"
  }
},
{
  "type": "node",
  "id": 6055962635,
  "lat": 47.4846927,
  "lon": -0.5309942,
  "tags": {
    "bench": "yes",
    "highway": "bus_stop",
    "name": "Voltaire",
    "public_transport": "platform",
    "public_transport:version": "2",
    "shelter": "yes"
  }
},
{
  "type": "node",
  "id": 6055962636,
  "lat": 47.4861473,
  "lon": -0.5328463,
  "tags": {
    "bench": "yes",
    "highway": "bus_stop",
    "name": "Route de Briollay",
    "public_transport": "platform",
    "public_transport:version": "2",
    "shelter": "yes"
  }
},
{
  "type": "node",
  "id": 6055962637,
  "lat": 47.4864210,
  "lon": -0.5328879,
  "tags": {
    "bench": "no",
    "highway": "bus_stop",
    "name": "Route de Briollay",
    "public_transport": "platform",
    "public_transport:version": "2",
    "shelter": "no"
  }
},
{
  "type": "node",
  "id": 6055986930,
  "lat": 47.4725844,
  "lon": -0.5762782,
  "tags": {
    "bench": "yes",
    "highway": "bus_stop",
    "name": "Balzac",
    "public_transport": "platform",
    "shelter": "yes"
  }
},
{
  "type": "node",
  "id": 6055986931,
  "lat": 47.4727300,
  "lon": -0.5763759,
  "tags": {
    "bench": "yes",
    "highway": "bus_stop",
    "name": "Balzac",
    "public_transport": "platform",
    "shelter": "yes"
  }
},
{
  "type": "node",
  "id": 6476723180,
  "lat": 47.4785486,
  "lon": -0.5431952,
  "tags": {
    "bench": "yes",
    "bin": "yes",
    "highway": "bus_stop",
    "name": "Place Ney",
    "network": "Irigo",
    "public_transport": "platform",
    "public_transport:version": "2",
    "shelter": "no",
    "tactile_paving": "no"
  }
},
{
  "type": "node",
  "id": 6476723621,
  "lat": 47.4761366,
  "lon": -0.5477305,
  "tags": {
    "bench": "yes",
    "bus": "yes",
    "highway": "bus_stop",
    "name": "Talet",
    "network": "Irigo",
    "public_transport": "platform",
    "public_transport:version": "2",
    "shelter": "yes"
  }
},
{
  "type": "node",
  "id": 6487396542,
  "lat": 47.4784030,
  "lon": -0.5434787,
  "tags": {
    "bench": "yes",
    "bin": "yes",
    "highway": "bus_stop",
    "name": "Place Ney",
    "network": "Irigo",
    "public_transport": "platform",
    "public_transport:version": "2",
    "shelter": "yes",
    "tactile_paving": "no"
  }
},
{
  "type": "node",
  "id": 6509605322,
  "lat": 47.4852926,
  "lon": -0.5335685,
  "tags": {
    "bench": "yes",
    "highway": "bus_stop",
    "name": "Vaillante",
    "network": "Irigo",
    "public_transport": "platform",
    "public_transport:version": "2",
    "shelter": "yes"
  }
},
{
  "type": "node",
  "id": 6509605323,
  "lat": 47.4852931,
  "lon": -0.5333764,
  "tags": {
    "bench": "yes",
    "highway": "bus_stop",
    "name": "Vaillante",
    "network": "Irigo",
    "public_transport": "platform",
    "public_transport:version": "2",
    "shelter": "yes"
  }
},
{
  "type": "node",
  "id": 6509605324,
  "lat": 47.4815704,
  "lon": -0.5364197,
  "tags": {
    "bench": "yes",
    "highway": "bus_stop",
    "name": "Chalouère",
    "network": "Irigo",
    "public_transport": "platform",
    "public_transport:version": "2",
    "shelter": "no"
  }
},
{
  "type": "node",
  "id": 6509605325,
  "lat": 47.4812115,
  "lon": -0.5368723,
  "tags": {
    "bench": "yes",
    "highway": "bus_stop",
    "name": "Chalouère",
    "network": "Irigo",
    "public_transport": "platform",
    "public_transport:version": "2",
    "shelter": "no"
  }
},
{
  "type": "node",
  "id": 6509605329,
  "lat": 47.4764166,
  "lon": -0.5476575,
  "tags": {
    "bench": "yes",
    "bus": "yes",
    "highway": "bus_stop",
    "name": "Talet",
    "public_transport": "platform",
    "public_transport:version": "2",
    "shelter": "no"
  }
},
{
  "type": "node",
  "id": 6509605330,
  "lat": 47.4753597,
  "lon": -0.5458952,
  "tags": {
    "bench": "yes",
    "bin": "yes",
    "bus": "yes",
    "highway": "bus_stop",
    "lit": "no",
    "name": "Boreau",
    "public_transport": "platform",
    "public_transport:version": "2",
    "shelter": "no",
    "tactile_paving": "no"
  }
},
{
  "type": "node",
  "id": 6509605331,
  "lat": 47.4752708,
  "lon": -0.5461326,
  "tags": {
    "bench": "yes",
    "bin": "yes",
    "bus": "yes",
    "highway": "bus_stop",
    "lit": "yes",
    "name": "Boreau",
    "public_transport": "platform",
    "public_transport:version": "2",
    "shelter": "yes",
    "tactile_paving": "no"
  }
},
{
  "type": "node",
  "id": 6522134403,
  "lat": 47.4709985,
  "lon": -0.5198792,
  "tags": {
    "bench": "yes",
    "highway": "bus_stop",
    "name": "Arceau",
    "public_transport": "platform",
    "public_transport:version": "2",
    "shelter": "yes"
  }
},
{
  "type": "node",
  "id": 6522134404,
  "lat": 47.4711073,
  "lon": -0.5197692,
  "tags": {
    "bench": "yes",
    "highway": "bus_stop",
    "name": "Arceau",
    "public_transport": "platform",
    "public_transport:version": "2",
    "shelter": "yes"
  }
},
{
  "type": "node",
  "id": 6522134405,
  "lat": 47.4712967,
  "lon": -0.5270661,
  "tags": {
    "bench": "yes",
    "highway": "bus_stop",
    "name": "Cimetière de l'Est",
    "public_transport": "platform",
    "public_transport:version": "2",
    "shelter": "yes",
    "tactile_paving": "no"
  }
},
{
  "type": "node",
  "id": 6522134406,
  "lat": 47.4713575,
  "lon": -0.5277501,
  "tags": {
    "bench": "yes",
    "highway": "bus_stop",
    "name": "Cimetière de l'Est",
    "public_transport": "platform",
    "public_transport:version": "2",
    "shelter": "yes",
    "tactile_paving": "no"
  }
},
{
  "type": "node",
  "id": 6522134412,
  "lat": 47.4714536,
  "lon": -0.5228658,
  "tags": {
    "bench": "yes",
    "highway": "bus_stop",
    "name": "AFPA",
    "public_transport": "platform",
    "public_transport:version": "2",
    "shelter": "yes"
  }
},
{
  "type": "node",
  "id": 6522134413,
  "lat": 47.4715696,
  "lon": -0.5233298,
  "tags": {
    "bench": "yes",
    "highway": "bus_stop",
    "name": "AFPA",
    "public_transport": "platform",
    "public_transport:version": "2",
    "shelter": "yes"
  }
},
{
  "type": "node",
  "id": 6729734988,
  "lat": 47.4748421,
  "lon": -0.5284019,
  "tags": {
    "bench": "yes",
    "highway": "bus_stop",
    "name": "Daguenet",
    "public_transport": "platform",
    "public_transport:version": "2",
    "shelter": "yes"
  }
},
{
  "type": "node",
  "id": 6729734989,
  "lat": 47.4747433,
  "lon": -0.5281819,
  "tags": {
    "bench": "yes",
    "highway": "bus_stop",
    "name": "Daguenet",
    "public_transport": "platform",
    "public_transport:version": "2",
    "shelter": "yes"
  }
},
{
  "type": "node",
  "id": 6730320188,
  "lat": 47.4765988,
  "lon": -0.5519705,
  "tags": {
    "bench": "yes",
    "bus": "yes",
    "highway": "bus_stop",
    "name": "Saint Serge-Université",
    "public_transport": "platform",
    "public_transport:version": "2",
    "shelter": "no"
  }
},
{
  "type": "node",
  "id": 6730320189,
  "lat": 47.4765562,
  "lon": -0.5511135,
  "tags": {
    "bench": "yes",
    "bus": "yes",
    "highway": "bus_stop",
    "name": "Saint Serge-Université",
    "public_transport": "platform",
    "public_transport:version": "2",
    "shelter": "no"
  }
},
{
  "type": "node",
  "id": 6730320190,
  "lat": 47.4660440,
  "lon": -0.5518565,
  "tags": {
    "bench": "yes",
    "bin": "yes",
    "bus": "yes",
    "highway": "bus_stop",
    "name": "Paul Bert",
    "public_transport": "platform",
    "public_transport:version": "2",
    "shelter": "yes"
  }
},
{
  "type": "node",
  "id": 6731367462,
  "lat": 47.4833676,
  "lon": -0.5257988,
  "tags": {
    "bench": "yes",
    "highway": "bus_stop",
    "name": "Dunant",
    "public_transport": "platform",
    "public_transport:version": "2",
    "shelter": "yes"
  }
},
{
  "type": "node",
  "id": 6731367463,
  "lat": 47.4835362,
  "lon": -0.5255212,
  "tags": {
    "bench": "yes",
    "highway": "bus_stop",
    "name": "Dunant",
    "public_transport": "platform",
    "public_transport:version": "2",
    "shelter": "yes"
  }
},
{
  "type": "node",
  "id": 6731367467,
  "lat": 47.4814924,
  "lon": -0.5232413,
  "tags": {
    "bench": "yes",
    "highway": "bus_stop",
    "name": "Mimosas",
    "public_transport": "platform",
    "public_transport:version": "2",
    "shelter": "yes"
  }
},
{
  "type": "node",
  "id": 6731367468,
  "lat": 47.4816393,
  "lon": -0.5233084,
  "tags": {
    "bench": "yes",
    "highway": "bus_stop",
    "name": "Mimosas",
    "public_transport": "platform",
    "public_transport:version": "2",
    "shelter": "yes"
  }
},
{
  "type": "node",
  "id": 6731367472,
  "lat": 47.4749962,
  "lon": -0.6072629,
  "tags": {
    "bench": "no",
    "highway": "bus_stop",
    "name": "Morel",
    "public_transport": "platform",
    "public_transport:version": "2",
    "shelter": "no"
  }
},
{
  "type": "node",
  "id": 6732176766,
  "lat": 47.4735948,
  "lon": -0.5387968,
  "tags": {
    "bench": "yes",
    "bus": "yes",
    "highway": "bus_stop",
    "name": "Musset",
    "public_transport": "platform",
    "public_transport:version": "1",
    "shelter": "yes",
    "tactile_paving": "no"
  }
},
{
  "type": "node",
  "id": 6732176767,
  "lat": 47.4737470,
  "lon": -0.5397543,
  "tags": {
    "bus": "yes",
    "highway": "bus_stop",
    "name": "Musset",
    "public_transport": "platform",
    "public_transport:version": "1"
  }
},
{
  "type": "node",
  "id": 6732176769,
  "lat": 47.4757553,
  "lon": -0.5341579,
  "tags": {
    "highway": "bus_stop",
    "name": "Lutin",
    "public_transport": "platform",
    "public_transport:version": "2"
  }
},
{
  "type": "node",
  "id": 6732176770,
  "lat": 47.4757494,
  "lon": -0.5344395,
  "tags": {
    "highway": "bus_stop",
    "name": "Lutin",
    "public_transport": "platform",
    "public_transport:version": "2"
  }
},
{
  "type": "node",
  "id": 6732176779,
  "lat": 47.4770284,
  "lon": -0.5317949,
  "tags": {
    "bench": "no",
    "highway": "bus_stop",
    "name": "Macé",
    "public_transport": "platform",
    "public_transport:version": "2",
    "shelter": "no",
    "tactile_paving": "no"
  }
},
{
  "type": "node",
  "id": 6732176780,
  "lat": 47.4766350,
  "lon": -0.5327531,
  "tags": {
    "bench": "yes",
    "highway": "bus_stop",
    "name": "Macé",
    "public_transport": "platform",
    "public_transport:version": "2",
    "shelter": "yes",
    "tactile_paving": "no"
  }
},
{
  "type": "node",
  "id": 6732180386,
  "lat": 47.4778401,
  "lon": -0.5302124,
  "tags": {
    "highway": "bus_stop",
    "name": "Desjardins",
    "public_transport": "platform",
    "public_transport:version": "2",
    "shelter": "yes",
    "wall": "no"
  }
},
{
  "type": "node",
  "id": 6732180387,
  "lat": 47.4779412,
  "lon": -0.5302881,
  "tags": {
    "highway": "bus_stop",
    "name": "Desjardins",
    "public_transport": "platform",
    "public_transport:version": "2",
    "shelter": "yes",
    "wall": "no"
  }
},
{
  "type": "node",
  "id": 6732206775,
  "lat": 47.4712623,
  "lon": -0.5465289,
  "tags": {
    "bench": "yes",
    "bus": "yes",
    "highway": "bus_stop",
    "name": "Mail",
    "public_transport": "platform",
    "public_transport:version": "2",
    "shelter": "yes",
    "tactile_paving": "no",
    "wheelchair": "yes"
  }
},
{
  "type": "node",
  "id": 6732206776,
  "lat": 47.4734697,
  "lon": -0.5413476,
  "tags": {
    "bus": "yes",
    "highway": "bus_stop",
    "name": "Savary",
    "public_transport": "platform",
    "public_transport:version": "2"
  }
},
{
  "type": "node",
  "id": 6732206777,
  "lat": 47.4735404,
  "lon": -0.5427316,
  "tags": {
    "bus": "yes",
    "highway": "bus_stop",
    "name": "Savary",
    "public_transport": "platform",
    "public_transport:version": "2"
  }
},
{
  "type": "node",
  "id": 6834692324,
  "lat": 47.4527086,
  "lon": -0.5451871,
  "tags": {
    "bench": "yes",
    "bin": "yes",
    "highway": "bus_stop",
    "lit": "yes",
    "name": "Morellerie",
    "public_transport": "platform",
    "public_transport:version": "2",
    "shelter": "yes",
    "tactile_paving": "no"
  }
},
{
  "type": "node",
  "id": 6834692325,
  "lat": 47.4530841,
  "lon": -0.5451764,
  "tags": {
    "bench": "yes",
    "bin": "yes",
    "highway": "bus_stop",
    "lit": "yes",
    "name": "Morellerie",
    "public_transport": "platform",
    "public_transport:version": "2",
    "shelter": "yes",
    "tactile_paving": "no"
  }
},
{
  "type": "node",
  "id": 6835107661,
  "lat": 47.4512014,
  "lon": -0.5447634,
  "tags": {
    "bench": "no",
    "bin": "yes",
    "highway": "bus_stop",
    "lit": "no",
    "name": "Morellerie",
    "public_transport": "platform",
    "public_transport:version": "2",
    "shelter": "no",
    "tactile_paving": "no"
  }
},
{
  "type": "node",
  "id": 6835107662,
  "lat": 47.4514164,
  "lon": -0.5449377,
  "tags": {
    "bench": "no",
    "bin": "yes",
    "highway": "bus_stop",
    "lit": "no",
    "name": "Morellerie",
    "public_transport": "platform",
    "public_transport:version": "2",
    "shelter": "no",
    "tactile_paving": "no"
  }
},
{
  "type": "node",
  "id": 6990860470,
  "lat": 47.4531751,
  "lon": -0.5184166,
  "tags": {
    "bench": "yes",
    "bin": "yes",
    "highway": "bus_stop",
    "name": "Parmentier",
    "public_transport": "platform",
    "shelter": "yes"
  }
},
{
  "type": "node",
  "id": 6990860471,
  "lat": 47.4530905,
  "lon": -0.5185275,
  "tags": {
    "bench": "no",
    "bin": "no",
    "highway": "bus_stop",
    "name": "Parmentier",
    "public_transport": "platform",
    "shelter": "no"
  }
},
{
  "type": "node",
  "id": 7011077169,
  "lat": 47.4590748,
  "lon": -0.5355761,
  "tags": {
    "bench": "yes",
    "bus": "yes",
    "highway": "bus_stop",
    "name": "Madeleine",
    "public_transport": "platform",
    "public_transport:version": "2",
    "shelter": "yes"
  }
},
{
  "type": "node",
  "id": 7011077170,
  "lat": 47.4592318,
  "lon": -0.5356328,
  "tags": {
    "bench": "yes",
    "bus": "yes",
    "highway": "bus_stop",
    "name": "Madeleine",
    "public_transport": "platform",
    "public_transport:version": "2",
    "shelter": "yes"
  }
},
{
  "type": "node",
  "id": 7011081311,
  "lat": 47.4604281,
  "lon": -0.5380055,
  "tags": {
    "bench": "yes",
    "bus": "yes",
    "highway": "bus_stop",
    "name": "Volney",
    "public_transport": "platform",
    "public_transport:version": "2",
    "shelter": "yes"
  }
},
{
  "type": "node",
  "id": 7011081312,
  "lat": 47.4605981,
  "lon": -0.5386506,
  "tags": {
    "bench": "yes",
    "bus": "yes",
    "highway": "bus_stop",
    "name": "Volney",
    "public_transport": "platform",
    "public_transport:version": "2",
    "shelter": "yes",
    "tactile_paving": "no"
  }
},
{
  "type": "node",
  "id": 7011081313,
  "lat": 47.4621336,
  "lon": -0.5422018,
  "tags": {
    "bench": "no",
    "bus": "yes",
    "highway": "bus_stop",
    "name": "Bourgonnier",
    "public_transport": "platform",
    "public_transport:version": "2",
    "shelter": "no"
  }
},
{
  "type": "node",
  "id": 7011081314,
  "lat": 47.4616413,
  "lon": -0.5411839,
  "tags": {
    "bench": "no",
    "bus": "yes",
    "highway": "bus_stop",
    "name": "Bourgonnier",
    "public_transport": "platform",
    "public_transport:version": "2",
    "shelter": "no",
    "tactile_paving": "no"
  }
},
{
  "type": "node",
  "id": 7011081317,
  "lat": 47.4628930,
  "lon": -0.5442470,
  "tags": {
    "bench": "yes",
    "bus": "yes",
    "highway": "bus_stop",
    "name": "Michelet",
    "public_transport": "platform",
    "public_transport:version": "2",
    "shelter": "yes"
  }
},
{
  "type": "node",
  "id": 7011081318,
  "lat": 47.4635041,
  "lon": -0.5455140,
  "tags": {
    "bench": "no",
    "bus": "yes",
    "highway": "bus_stop",
    "name": "Michelet",
    "public_transport": "platform",
    "public_transport:version": "2",
    "shelter": "no"
  }
},
{
  "type": "node",
  "id": 7013790509,
  "lat": 47.4930508,
  "lon": -0.5223843,
  "tags": {
    "bench": "yes",
    "highway": "bus_stop",
    "name": "Scania",
    "public_transport": "platform",
    "public_transport:version": "2",
    "shelter": "yes"
  }
},
{
  "type": "node",
  "id": 7027062628,
  "lat": 47.4581035,
  "lon": -0.5154857,
  "tags": {
    "highway": "bus_stop",
    "name": "Cormiers",
    "public_transport": "platform",
    "public_transport:version": "2",
    "shelter": "yes"
  }
},
{
  "type": "node",
  "id": 7027062629,
  "lat": 47.4595029,
  "lon": -0.5219820,
  "tags": {
    "highway": "bus_stop",
    "name": "Saint-Léonard",
    "public_transport": "platform",
    "public_transport:version": "2",
    "shelter": "no"
  }
},
{
  "type": "node",
  "id": 7027062630,
  "lat": 47.4596131,
  "lon": -0.5220104,
  "tags": {
    "bench": "yes",
    "bin": "yes",
    "highway": "bus_stop",
    "name": "Saint-Léonard",
    "public_transport": "platform",
    "public_transport:version": "2",
    "shelter": "yes"
  }
},
{
  "type": "node",
  "id": 7027131241,
  "lat": 47.4891656,
  "lon": -0.5267504,
  "tags": {
    "bench": "yes",
    "highway": "bus_stop",
    "name": "Schuman",
    "public_transport": "platform",
    "public_transport:version": "2",
    "shelter": "yes"
  }
},
{
  "type": "node",
  "id": 7028279151,
  "lat": 47.4671856,
  "lon": -0.5547726,
  "tags": {
    "bench": "yes",
    "bin": "yes",
    "highway": "bus_stop",
    "lit": "yes",
    "name": "Lices",
    "public_transport": "platform",
    "public_transport:version": "2",
    "shelter": "yes",
    "tactile_paving": "no"
  }
},
{
  "type": "node",
  "id": 7028279152,
  "lat": 47.4671028,
  "lon": -0.5549509,
  "tags": {
    "bench": "yes",
    "bin": "yes",
    "highway": "bus_stop",
    "name": "Lices",
    "public_transport": "platform",
    "public_transport:version": "2",
    "shelter": "yes",
    "tactile_paving": "no"
  }
},
{
  "type": "node",
  "id": 7028279153,
  "lat": 47.4683049,
  "lon": -0.5575994,
  "tags": {
    "bench": "yes",
    "bin": "yes",
    "bus": "yes",
    "highway": "bus_stop",
    "lit": "yes",
    "name": "CCI",
    "public_transport": "platform",
    "public_transport:version": "2",
    "shelter": "yes",
    "tactile_paving": "no"
  }
},
{
  "type": "node",
  "id": 7028279154,
  "lat": 47.4682731,
  "lon": -0.5580375,
  "tags": {
    "bench": "yes",
    "bin": "yes",
    "bus": "yes",
    "highway": "bus_stop",
    "lit": "yes",
    "name": "CCI",
    "public_transport": "platform",
    "public_transport:version": "2",
    "shelter": "yes",
    "tactile_paving": "no"
  }
},
{
  "type": "node",
  "id": 7028358110,
  "lat": 47.4866348,
  "lon": -0.5378996,
  "tags": {
    "bench": "yes",
    "highway": "bus_stop",
    "name": "Ramon",
    "public_transport": "platform",
    "public_transport:version": "2",
    "shelter": "no"
  }
},
{
  "type": "node",
  "id": 7028358111,
  "lat": 47.4865197,
  "lon": -0.5380967,
  "tags": {
    "bench": "yes",
    "bin": "yes",
    "highway": "bus_stop",
    "name": "Ramon",
    "public_transport": "platform",
    "public_transport:version": "2",
    "shelter": "no"
  }
},
{
  "type": "node",
  "id": 7028358112,
  "lat": 47.4913717,
  "lon": -0.5650140,
  "tags": {
    "bench": "yes",
    "bin": "yes",
    "bus": "yes",
    "highway": "bus_stop",
    "name": "Auriol",
    "public_transport": "platform",
    "public_transport:version": "2",
    "shelter": "no",
    "tactile_paving": "no"
  }
},
{
  "type": "node",
  "id": 7028358113,
  "lat": 47.4908676,
  "lon": -0.5649635,
  "tags": {
    "bench": "yes",
    "bus": "yes",
    "highway": "bus_stop",
    "name": "Auriol",
    "public_transport": "platform",
    "public_transport:version": "2",
    "shelter": "no"
  }
},
{
  "type": "node",
  "id": 7028638967,
  "lat": 47.4645503,
  "lon": -0.5315850,
  "tags": {
    "bus": "yes",
    "highway": "bus_stop",
    "name": "Arobase",
    "public_transport": "platform",
    "public_transport:version": "2",
    "shelter": "yes"
  }
},
{
  "type": "node",
  "id": 7028638968,
  "lat": 47.4640136,
  "lon": -0.5317003,
  "tags": {
    "bus": "yes",
    "highway": "bus_stop",
    "name": "Arobase",
    "public_transport": "platform",
    "public_transport:version": "2",
    "shelter": "yes"
  }
},
{
  "type": "node",
  "id": 7028638969,
  "lat": 47.4793915,
  "lon": -0.5509633,
  "tags": {
    "bus": "yes",
    "highway": "bus_stop",
    "name": "Faculté",
    "public_transport": "platform",
    "public_transport:version": "2",
    "shelter": "yes"
  }
},
{
  "type": "node",
  "id": 7028638970,
  "lat": 47.4794490,
  "lon": -0.5512429,
  "tags": {
    "bus": "yes",
    "highway": "bus_stop",
    "name": "Faculté",
    "public_transport": "platform",
    "public_transport:version": "2",
    "shelter": "yes"
  }
},
{
  "type": "node",
  "id": 7029081754,
  "lat": 47.4856479,
  "lon": -0.5472001,
  "tags": {
    "bus": "yes",
    "highway": "bus_stop",
    "name": "Félix Faure",
    "public_transport": "platform",
    "public_transport:version": "2",
    "shelter": "yes"
  }
},
{
  "type": "node",
  "id": 7029081755,
  "lat": 47.4854676,
  "lon": -0.5469480,
  "tags": {
    "bus": "yes",
    "highway": "bus_stop",
    "name": "Félix Faure",
    "public_transport": "platform",
    "public_transport:version": "2",
    "shelter": "yes"
  }
},
{
  "type": "node",
  "id": 7029081756,
  "lat": 47.4553493,
  "lon": -0.5408607,
  "tags": {
    "bench": "yes",
    "highway": "bus_stop",
    "name": "Mutualité",
    "public_transport": "platform",
    "public_transport:version": "2",
    "shelter": "yes",
    "tactile_paving": "no"
  }
},
{
  "type": "node",
  "id": 7029081757,
  "lat": 47.4556540,
  "lon": -0.5407293,
  "tags": {
    "bench": "yes",
    "highway": "bus_stop",
    "name": "Mutualité",
    "public_transport": "platform",
    "public_transport:version": "2",
    "shelter": "yes",
    "tactile_paving": "no",
    "wheelchair": "yes"
  }
},
{
  "type": "node",
  "id": 7029100720,
  "lat": 47.4626296,
  "lon": -0.5324574,
  "tags": {
    "bench": "yes",
    "highway": "bus_stop",
    "name": "Coubertin",
    "public_transport": "platform",
    "public_transport:version": "2",
    "shelter": "yes"
  }
},
{
  "type": "node",
  "id": 7029100721,
  "lat": 47.4626396,
  "lon": -0.5322629,
  "tags": {
    "bench": "yes",
    "highway": "bus_stop",
    "name": "Coubertin",
    "public_transport": "platform",
    "public_transport:version": "2",
    "shelter": "yes"
  }
},
{
  "type": "node",
  "id": 7029100722,
  "lat": 47.4589402,
  "lon": -0.5327945,
  "tags": {
    "bench": "yes",
    "highway": "bus_stop",
    "name": "Jean Bouin",
    "public_transport": "platform",
    "public_transport:version": "2",
    "shelter": "yes"
  }
},
{
  "type": "node",
  "id": 7029100723,
  "lat": 47.4587421,
  "lon": -0.5330312,
  "tags": {
    "bench": "yes",
    "bus": "yes",
    "highway": "bus_stop",
    "name": "Jean Bouin",
    "public_transport": "platform",
    "public_transport:version": "2",
    "shelter": "yes"
  }
},
{
  "type": "node",
  "id": 7029158496,
  "lat": 47.4681578,
  "lon": -0.5259939,
  "tags": {
    "bench": "yes",
    "bus": "yes",
    "highway": "bus_stop",
    "name": "Espace Anjou",
    "public_transport": "platform",
    "public_transport:version": "2",
    "shelter": "yes"
  }
},
{
  "type": "node",
  "id": 7029158497,
  "lat": 47.4872058,
  "lon": -0.5437401,
  "tags": {
    "bench": "yes",
    "highway": "bus_stop",
    "name": "Carrefour Saint-Serge",
    "public_transport": "platform",
    "public_transport:version": "2",
    "shelter": "yes"
  }
},
{
  "type": "node",
  "id": 7029158498,
  "lat": 47.4875873,
  "lon": -0.5431366,
  "tags": {
    "bench": "yes",
    "highway": "bus_stop",
    "name": "Carrefour Saint-Serge",
    "public_transport": "platform",
    "public_transport:version": "2",
    "shelter": "yes"
  }
},
{
  "type": "node",
  "id": 7029229815,
  "lat": 47.4825229,
  "lon": -0.5225587,
  "tags": {
    "bench": "yes",
    "highway": "bus_stop",
    "name": "Schweitzer",
    "public_transport": "platform",
    "public_transport:version": "2",
    "shelter": "yes"
  }
},
{
  "type": "node",
  "id": 7029229816,
  "lat": 47.4825529,
  "lon": -0.5221898,
  "tags": {
    "bench": "yes",
    "highway": "bus_stop",
    "name": "Schweitzer",
    "public_transport": "platform",
    "public_transport:version": "2",
    "shelter": "yes"
  }
},
{
  "type": "node",
  "id": 7037066326,
  "lat": 47.4785757,
  "lon": -0.5209950,
  "tags": {
    "highway": "bus_stop",
    "name": "Vandellant",
    "public_transport": "platform",
    "public_transport:version": "2",
    "shelter": "no"
  }
},
{
  "type": "node",
  "id": 7037066327,
  "lat": 47.4784560,
  "lon": -0.5211505,
  "tags": {
    "highway": "bus_stop",
    "name": "Vandellant",
    "public_transport": "platform",
    "public_transport:version": "2",
    "shelter": "no"
  }
},
{
  "type": "node",
  "id": 7037066329,
  "lat": 47.4749672,
  "lon": -0.5253240,
  "tags": {
    "highway": "bus_stop",
    "name": "Gillier",
    "public_transport": "platform",
    "public_transport:version": "2",
    "shelter": "no"
  }
},
{
  "type": "node",
  "id": 7037066330,
  "lat": 47.4750551,
  "lon": -0.5257948,
  "tags": {
    "highway": "bus_stop",
    "name": "Gillier",
    "public_transport": "platform",
    "public_transport:version": "2",
    "shelter": "no"
  }
},
{
  "type": "node",
  "id": 7037066334,
  "lat": 47.4746979,
  "lon": -0.5208434,
  "tags": {
    "highway": "bus_stop",
    "name": "Isoret",
    "public_transport": "platform",
    "public_transport:version": "2",
    "shelter": "no"
  }
},