{
  "version": 0.6,
  "generator": "Overpass API 0.7.57.1 74a55df1",
  "osm3s": {
    "timestamp_osm_base": "2022-02-13T13:28:39Z",
    "timestamp_areas_base": "2022-02-13T06:29:09Z",
    "copyright": "The data included in this document is from www.openstreetmap.org. The data is made available under ODbL."
  },
  "elements": [

{
  "type": "node",
  "id": 1423444850,
  "lat": 46.1556292,
  "lon": -1.1669708,
  "tags": {
    "bench": "yes",
    "highway": "bus_stop",
    "name": "Le Mail Casino",
    "note": "Ligne 20",
    "operator": "yélo"
  }
},
{
  "type": "node",
  "id": 1423444851,
  "lat": 46.1560295,
  "lon": -1.1664978,
  "tags": {
    "highway": "bus_stop",
    "name": "Le Mail Casino",
    "note": "Ligne 20",
    "operator": "yélo",
    "public_transport": "platform"
  }
},
{
  "type": "node",
  "id": 1423445033,
  "lat": 46.1558592,
  "lon": -1.1611769,
  "tags": {
    "bench": "yes",
    "highway": "bus_stop",
    "name": "Plage",
    "note": "Ligne 20",
    "shelter": "no"
  }
},
{
  "type": "node",
  "id": 1825536266,
  "lat": 46.1429128,
  "lon": -1.1413321,
  "tags": {
    "highway": "bus_stop",
    "name": "Les Frênes",
    "source": "Bing;cadastre-dgi-fr source : Direction Générale des Impôts - Cadastre. Mise à jour : 2012"
  }
},
{
  "type": "node",
  "id": 1825536267,
  "lat": 46.1429707,
  "lon": -1.1412068,
  "tags": {
    "highway": "bus_stop",
    "name": "Les Frênes",
    "source": "Bing;cadastre-dgi-fr source : Direction Générale des Impôts - Cadastre. Mise à jour : 2012"
  }
},
{
  "type": "node",
  "id": 1829801057,
  "lat": 46.1459344,
  "lon": -1.1545454,
  "tags": {
    "bench": "yes",
    "covered": "yes",
    "highway": "bus_stop",
    "name": "Le Lac",
    "passenger_information_display": "yes",
    "public_transport": "platform",
    "shelter": "yes",
    "tactile_paving": "yes",
    "wheelchair": "yes"
  }
},
{
  "type": "node",
  "id": 1829801063,
  "lat": 46.1459372,
  "lon": -1.1544073,
  "tags": {
    "bench": "yes",
    "bin": "yes",
    "covered": "yes",
    "highway": "bus_stop",
    "name": "Le Lac",
    "passenger_information_display": "yes",
    "public_transport": "platform",
    "shelter": "yes",
    "tactile_paving": "yes",
    "wheelchair": "yes"
  }
},
{
  "type": "node",
  "id": 1829809825,
  "lat": 46.1482956,
  "lon": -1.1537384,
  "tags": {
    "bench": "yes",
    "covered": "yes",
    "highway": "bus_stop",
    "name": "Technoforum",
    "passenger_information_display": "yes",
    "public_transport": "platform",
    "shelter": "yes",
    "tactile_paving": "yes",
    "wheelchair": "yes"
  }
},
{
  "type": "node",
  "id": 1829809826,
  "lat": 46.1483969,
  "lon": -1.1537707,
  "tags": {
    "bench": "yes",
    "covered": "yes",
    "highway": "bus_stop",
    "name": "Technoforum",
    "passenger_information_display": "yes",
    "public_transport": "platform",
    "shelter": "yes",
    "tactile_paving": "yes",
    "wheelchair": "yes"
  }
},
{
  "type": "node",
  "id": 1831475877,
  "lat": 46.1432400,
  "lon": -1.1567429,
  "tags": {
    "bench": "yes",
    "covered": "yes",
    "highway": "bus_stop",
    "name": "La Sole",
    "passenger_information_display": "yes",
    "public_transport": "platform",
    "shelter": "yes",
    "tactile_paving": "yes",
    "toilets:wheelchair": "no",
    "wheelchair": "yes"
  }
},
{
  "type": "node",
  "id": 1831475881,
  "lat": 46.1432535,
  "lon": -1.1568599,
  "tags": {
    "bench": "yes",
    "covered": "yes",
    "highway": "bus_stop",
    "name": "La Sole",
    "passenger_information_display": "yes",
    "public_transport": "platform",
    "shelter": "yes",
    "tactile_paving": "yes"
  }
},
{
  "type": "node",
  "id": 1836370096,
  "lat": 46.1407153,
  "lon": -1.1421435,
  "tags": {
    "highway": "bus_stop",
    "name": "République",
    "public_transport": "platform",
    "shelter": "no"
  }
},
{
  "type": "node",
  "id": 1836370097,
  "lat": 46.1393046,
  "lon": -1.1551274,
  "tags": {
    "bench": "yes",
    "bus": "yes",
    "check_date:shelter": "2021-09-04",
    "highway": "bus_stop",
    "name": "EIGSI",
    "public_transport": "platform",
    "shelter": "yes",
    "tactile_paving": "yes"
  }
},
{
  "type": "node",
  "id": 1836370099,
  "lat": 46.1387304,
  "lon": -1.1488034,
  "tags": {
    "highway": "bus_stop",
    "name": "Le Rail",
    "public_transport": "platform",
    "shelter": "yes"
  }
},
{
  "type": "node",
  "id": 1836370100,
  "lat": 46.1386133,
  "lon": -1.1486585,
  "tags": {
    "highway": "bus_stop",
    "name": "Le Rail",
    "public_transport": "platform"
  }
},
{
  "type": "node",
  "id": 1836370101,
  "lat": 46.1417887,
  "lon": -1.1394636,
  "tags": {
    "bench": "yes",
    "highway": "bus_stop",
    "name": "La Rochelle - La Courbe (Normandin)",
    "public_transport": "platform",
    "shelter": "yes"
  }
},
{
  "type": "node",
  "id": 1836370110,
  "lat": 46.1383197,
  "lon": -1.1520462,
  "tags": {
    "bench": "yes",
    "check_date:shelter": "2021-09-04",
    "highway": "bus_stop",
    "name": "Maison de la Charente Maritime",
    "public_transport": "platform",
    "shelter": "yes",
    "tactile_paving": "yes"
  }
},
{
  "type": "node",
  "id": 1836370111,
  "lat": 46.1406707,
  "lon": -1.1430152,
  "tags": {
    "highway": "bus_stop",
    "name": "République",
    "public_transport": "platform"
  }
},
{
  "type": "node",
  "id": 1836370119,
  "lat": 46.1393790,
  "lon": -1.1550389,
  "tags": {
    "bench": "yes",
    "bus": "yes",
    "check_date:shelter": "2021-09-04",
    "highway": "bus_stop",
    "name": "EIGSI",
    "public_transport": "platform",
    "shelter": "yes",
    "tactile_paving": "yes"
  }
},
{
  "type": "node",
  "id": 1836370124,
  "lat": 46.1382119,
  "lon": -1.1520167,
  "tags": {
    "bench": "yes",
    "check_date:shelter": "2021-09-04",
    "highway": "bus_stop",
    "name": "Maison de la Charente Maritime",
    "public_transport": "platform",
    "shelter": "yes",
    "tactile_paving": "yes"
  }
},
{
  "type": "node",
  "id": 1836378875,
  "lat": 46.1538221,
  "lon": -1.1473075,
  "tags": {
    "bench": "yes",
    "bus": "yes",
    "highway": "bus_stop",
    "name": "Gare SNCF (Avenue de Colmar)",
    "public_transport": "platform",
    "shelter": "yes"
  }
},
{
  "type": "node",
  "id": 1836378876,
  "lat": 46.1491490,
  "lon": -1.1511273,
  "tags": {
    "bench": "no",
    "bin": "no",
    "highway": "bus_stop",
    "lit": "yes",
    "name": "Musée Maritime",
    "passenger_information_display": "yes",
    "public_transport": "platform",
    "shelter": "no",
    "tactile_paving": "yes"
  }
},
{
  "type": "node",
  "id": 1836378877,
  "lat": 46.1538202,
  "lon": -1.1466410,
  "tags": {
    "bench": "yes",
    "bus": "yes",
    "highway": "bus_stop",
    "name": "Gare SNCF (Avenue de Gaulle)",
    "public_transport": "platform",
    "shelter": "no",
    "tactile_paving": "no"
  }
},
{
  "type": "node",
  "id": 1836378879,
  "lat": 46.1578929,
  "lon": -1.1504819,
  "tags": {
    "highway": "bus_stop",
    "name": "Dames Blanches (Quai Valin)",
    "passenger_information_display": "yes",
    "public_transport": "platform"
  }
},
{
  "type": "node",
  "id": 1836378880,
  "lat": 46.1539133,
  "lon": -1.1475145,
  "tags": {
    "bench": "yes",
    "highway": "bus_stop",
    "name": "Gare SNCF (Avenue de Colmar)",
    "public_transport": "platform",
    "shelter": "yes"
  }
},
{
  "type": "node",
  "id": 1836378881,
  "lat": 46.1406814,
  "lon": -1.1634450,
  "tags": {
    "bench": "no",
    "bin": "no",
    "highway": "bus_stop",
    "name": "La Sauvagère",
    "public_transport": "platform",
    "shelter": "no"
  }
},
{
  "type": "node",
  "id": 1836378882,
  "lat": 46.1517661,
  "lon": -1.1502003,
  "tags": {
    "highway": "bus_stop",
    "name": "Aquarium",
    "public_transport": "platform",
    "shelter": "no",
    "tactile_paving": "yes",
    "wheelchair": "limited"
  }
},
{
  "type": "node",
  "id": 1836378883,
  "lat": 46.1580906,
  "lon": -1.1533531,
  "tags": {
    "highway": "bus_stop",
    "name": "Grosse Horloge",
    "network": "Yelo",
    "operator": "RTCR",
    "passenger_information_display": "yes",
    "public_transport": "platform",
    "shelter": "no"
  }
},
{
  "type": "node",
  "id": 1836378884,
  "lat": 46.1408877,
  "lon": -1.1617820,
  "tags": {
    "highway": "bus_stop",
    "name": "La Sauvagère",
    "public_transport": "platform"
  }
},
{
  "type": "node",
  "id": 1836378885,
  "lat": 46.1414508,
  "lon": -1.1591588,
  "tags": {
    "highway": "bus_stop",
    "name": "Rond-Point de l'Europe",
    "public_transport": "platform",
    "shelter": "yes"
  }
},
{
  "type": "node",
  "id": 1836378886,
  "lat": 46.1494880,
  "lon": -1.1506101,
  "tags": {
    "bench": "yes",
    "bin": "no",
    "highway": "bus_stop",
    "lit": "yes",
    "name": "Musée Maritime",
    "passenger_information_display": "yes",
    "public_transport": "platform",
    "shelter": "yes",
    "tactile_paving": "no"
  }
},
{
  "type": "node",
  "id": 1836378888,
  "lat": 46.1415346,
  "lon": -1.1595269,
  "tags": {
    "highway": "bus_stop",
    "name": "Rond-Point de l'Europe",
    "public_transport": "platform",
    "shelter": "no",
    "tactile_paving": "yes"
  }
},
{
  "type": "node",
  "id": 1836547308,
  "lat": 46.1422757,
  "lon": -1.1528581,
  "tags": {
    "highway": "bus_stop",
    "public_transport": "platform"
  }
},
{
  "type": "node",
  "id": 2371035184,
  "lat": 46.1414765,
  "lon": -1.1570798,
  "tags": {
    "bench": "yes",
    "highway": "bus_stop",
    "name": "Europe",
    "public_transport": "platform",
    "shelter": "yes",
    "tactile_paving": "yes"
  }
},
{
  "type": "node",
  "id": 2371035185,
  "lat": 46.1414897,
  "lon": -1.1572154,
  "tags": {
    "bench": "yes",
    "highway": "bus_stop",
    "name": "Europe",
    "public_transport": "platform",
    "shelter": "yes",
    "tactile_paving": "yes"
  }
},
{
  "type": "node",
  "id": 2374637895,
  "lat": 46.1663994,
  "lon": -1.1596267,
  "tags": {
    "highway": "bus_stop",
    "name": "Jéricho"
  }
},
{
  "type": "node",
  "id": 2374637898,
  "lat": 46.1665526,
  "lon": -1.1595069,
  "tags": {
    "highway": "bus_stop",
    "name": "Jéricho"
  }
},
{
  "type": "node",
  "id": 3057604562,
  "lat": 46.1590039,
  "lon": -1.1495398,
  "tags": {
    "bench": "yes",
    "bin": "yes",
    "highway": "bus_stop",
    "name": "Dames Blanches (Maubec)",
    "public_transport": "platform",
    "shelter": "yes",
    "tactile_paving": "yes"
  }
},
{
  "type": "node",
  "id": 3073293545,
  "lat": 46.1417001,
  "lon": -1.1401939,
  "tags": {
    "highway": "bus_stop",
    "name": "Bongraine Normandin",
    "public_transport": "platform"
  }
},
{
  "type": "node",
  "id": 3073295136,
  "lat": 46.1557153,
  "lon": -1.1490651,
  "tags": {
    "bench": "yes",
    "bus": "yes",
    "highway": "bus_stop",
    "name": "Porte Saint-Nicolas",
    "public_transport": "platform",
    "shelter": "yes",
    "tactile_paving": "yes"
  }
},
{
  "type": "node",
  "id": 3073295137,
  "lat": 46.1555314,
  "lon": -1.1490404,
  "tags": {
    "highway": "bus_stop",
    "name": "Porte Saint-Nicolas",
    "public_transport": "platform",
    "shelter": "yes"
  }
},
{
  "type": "node",
  "id": 3073417869,
  "lat": 46.1601248,
  "lon": -1.1529662,
  "tags": {
    "covered": "yes",
    "highway": "bus_stop",
    "name": "Dupaty",
    "passenger_information_display": "yes",
    "public_transport": "platform",
    "wheelchair": "no"
  }
},
{
  "type": "node",
  "id": 3073427611,
  "lat": 46.1689879,
  "lon": -1.1522005,
  "tags": {
    "bus": "yes",
    "highway": "bus_stop",
    "name": "Piscine",
    "public_transport": "platform",
    "shelter": "yes"
  }
},
{
  "type": "node",
  "id": 3073427612,
  "lat": 46.1672829,
  "lon": -1.1528900,
  "tags": {
    "bus": "yes",
    "highway": "bus_stop",
    "name": "La Rochelle - Porte Dauphine",
    "public_transport": "platform",
    "shelter": "yes",
    "wheelchair": "yes"
  }
},
{
  "type": "node",
  "id": 3073427613,
  "lat": 46.1700339,
  "lon": -1.1509641,
  "tags": {
    "bus": "yes",
    "highway": "bus_stop",
    "name": "Piscine",
    "public_transport": "platform",
    "shelter": "yes",
    "tactile_paving": "yes"
  }
},
{
  "type": "node",
  "id": 3073427614,
  "lat": 46.1737161,
  "lon": -1.1503107,
  "tags": {
    "highway": "bus_stop",
    "name": "11 Novembre",
    "public_transport": "platform"
  }
},
{
  "type": "node",
  "id": 3073427615,
  "lat": 46.1768028,
  "lon": -1.1510667,
  "tags": {
    "bus": "yes",
    "highway": "bus_stop",
    "name": "La Rochelle - Lycée Vieljeux",
    "public_transport": "platform",
    "shelter": "yes"
  }
},
{
  "type": "node",
  "id": 3073427616,
  "lat": 46.1768436,
  "lon": -1.1518514,
  "tags": {
    "bus": "yes",
    "highway": "bus_stop",
    "name": "La Rochelle - Lycée Vieljeux",
    "public_transport": "platform",
    "shelter": "yes",
    "tactile_paving": "yes",
    "wheelchair": "limited"
  }
},
{
  "type": "node",
  "id": 3073510643,
  "lat": 46.1590334,
  "lon": -1.1614023,
  "tags": {
    "bench": "no",
    "highway": "bus_stop",
    "lit": "no",
    "name": "Renaudot",
    "public_transport": "platform",
    "shelter": "no",
    "tactile_paving": "no"
  }
},
{
  "type": "node",
  "id": 3073510644,
  "lat": 46.1589896,
  "lon": -1.1614747,
  "tags": {
    "bench": "yes",
    "highway": "bus_stop",
    "lit": "yes",
    "name": "Renaudot",
    "public_transport": "platform",
    "shelter": "yes",
    "tactile_paving": "no"
  }
},
{
  "type": "node",
  "id": 3073510649,
  "lat": 46.1595094,
  "lon": -1.1648365,
  "tags": {
    "bench": "yes",
    "highway": "bus_stop",
    "lit": "yes",
    "name": "Coligny Guiton",
    "shelter": "yes",
    "tactile_paving": "yes"
  }
},
{
  "type": "node",
  "id": 3073510650,
  "lat": 46.1596063,
  "lon": -1.1650188,
  "tags": {
    "bench": "yes",
    "highway": "bus_stop",
    "lit": "yes",
    "name": "Coligny Guiton",
    "shelter": "yes",
    "tactile_paving": "yes"
  }
},
{
  "type": "node",
  "id": 3077791019,
  "lat": 46.1677004,
  "lon": -1.1669360,
  "tags": {
    "highway": "bus_stop",
    "name": "Douanes"
  }
},
{
  "type": "node",
  "id": 3077791020,
  "lat": 46.1676423,
  "lon": -1.1670362,
  "tags": {
    "highway": "bus_stop",
    "name": "Douanes"
  }
},
{
  "type": "node",
  "id": 3077806593,
  "lat": 46.1694960,
  "lon": -1.1865822,
  "tags": {
    "highway": "bus_stop",
    "name": "Astrolabe",
    "public_transport": "platform"
  }
},
{
  "type": "node",
  "id": 3077806613,
  "lat": 46.1697189,
  "lon": -1.1838946,
  "tags": {
    "highway": "bus_stop",
    "name": "Louis Guillet",
    "public_transport": "platform"
  }
},
{
  "type": "node",
  "id": 3077806614,
  "lat": 46.1697727,
  "lon": -1.1837820,
  "tags": {
    "highway": "bus_stop",
    "name": "Louis Guillet",
    "public_transport": "platform"
  }
},
{
  "type": "node",
  "id": 3077806615,
  "lat": 46.1693882,
  "lon": -1.1808291,
  "tags": {
    "highway": "bus_stop",
    "name": "Résistance",
    "public_transport": "platform"
  }
},
{
  "type": "node",
  "id": 3077806616,
  "lat": 46.1694755,
  "lon": -1.1809284,
  "tags": {
    "highway": "bus_stop",
    "name": "Résistance",
    "public_transport": "platform"
  }
},
{
  "type": "node",
  "id": 3077806873,
  "lat": 46.1742701,
  "lon": -1.1801675,
  "tags": {
    "highway": "bus_stop",
    "name": "Mireuil Cimetière Paysager"
  }
},
{
  "type": "node",
  "id": 3077806874,
  "lat": 46.1718045,
  "lon": -1.1796075,
  "tags": {
    "highway": "bus_stop",
    "name": "Guiardes"
  }
},
{
  "type": "node",
  "id": 3077806875,
  "lat": 46.1719847,
  "lon": -1.1796943,
  "tags": {
    "highway": "bus_stop",
    "name": "Guiardes"
  }
},
{
  "type": "node",
  "id": 3077806876,
  "lat": 46.1709651,
  "lon": -1.1825733,
  "tags": {
    "highway": "bus_stop",
    "name": "Le Brun",
    "public_transport": "platform"
  }
},
{
  "type": "node",
  "id": 3077806877,
  "lat": 46.1710515,
  "lon": -1.1823466,
  "tags": {
    "highway": "bus_stop",
    "name": "Le Brun",
    "public_transport": "platform"
  }
},
{
  "type": "node",
  "id": 3077806878,
  "lat": 46.1705006,
  "lon": -1.1851796,
  "tags": {
    "highway": "bus_stop",
    "name": "La Tour",
    "public_transport": "platform"
  }
},
{
  "type": "node",
  "id": 3077806879,
  "lat": 46.1706182,
  "lon": -1.1850098,
  "tags": {
    "highway": "bus_stop",
    "name": "La Tour",
    "public_transport": "platform"
  }
},
{
  "type": "node",
  "id": 3077806880,
  "lat": 46.1694381,
  "lon": -1.1865740,
  "tags": {
    "highway": "bus_stop",
    "name": "Astrolabe",
    "public_transport": "platform"
  }
},
{
  "type": "node",
  "id": 3077818634,
  "lat": 46.1690836,
  "lon": -1.1777304,
  "tags": {
    "highway": "bus_stop",
    "name": "Luxembourg"
  }
},
{
  "type": "node",
  "id": 3077818635,
  "lat": 46.1691765,
  "lon": -1.1778358,
  "tags": {
    "bus": "yes",
    "highway": "bus_stop",
    "name": "Luxembourg",
    "public_transport": "platform"
  }
},
{
  "type": "node",
  "id": 3077821381,
  "lat": 46.1701899,
  "lon": -1.1772442,
  "tags": {
    "highway": "bus_stop",
    "name": "Église Saint-Paul"
  }
},
{
  "type": "node",
  "id": 3077821382,
  "lat": 46.1701813,
  "lon": -1.1773238,
  "tags": {
    "highway": "bus_stop",
    "name": "Église Saint-Paul"
  }
},
{
  "type": "node",
  "id": 3077822486,
  "lat": 46.1706408,
  "lon": -1.1738430,
  "tags": {
    "highway": "bus_stop",
    "name": "Prague"
  }
},
{
  "type": "node",
  "id": 3077822487,
  "lat": 46.1705955,
  "lon": -1.1737811,
  "tags": {
    "highway": "bus_stop",
    "name": "Prague"
  }
},
{
  "type": "node",
  "id": 3077823658,
  "lat": 46.1693397,
  "lon": -1.1722753,
  "tags": {
    "highway": "bus_stop",
    "name": "Le Lorrain"
  }
},
{
  "type": "node",
  "id": 3077823659,
  "lat": 46.1695815,
  "lon": -1.1722970,
  "tags": {
    "highway": "bus_stop",
    "name": "Le Lorrain",
    "shelter": "no"
  }
},
{
  "type": "node",
  "id": 3077823662,
  "lat": 46.1689920,
  "lon": -1.1696388,
  "tags": {
    "highway": "bus_stop",
    "name": "La Chope"
  }
},
{
  "type": "node",
  "id": 3077823663,
  "lat": 46.1689674,
  "lon": -1.1697567,
  "tags": {
    "highway": "bus_stop",
    "name": "La Chope"
  }
},
{
  "type": "node",
  "id": 3077825510,
  "lat": 46.1636095,
  "lon": -1.1649998,
  "tags": {
    "highway": "bus_stop",
    "name": "Coligny",
    "public_transport": "platform"
  }
},
{
  "type": "node",
  "id": 3077825511,
  "lat": 46.1629597,
  "lon": -1.1643048,
  "tags": {
    "highway": "bus_stop",
    "name": "Coligny"
  }
},
{
  "type": "node",
  "id": 3077825915,
  "lat": 46.1674248,
  "lon": -1.1640416,
  "tags": {
    "highway": "bus_stop",
    "name": "Bel Air",
    "public_transport": "platform"
  }
},
{
  "type": "node",
  "id": 3077825916,
  "lat": 46.1666110,
  "lon": -1.1641443,
  "tags": {
    "highway": "bus_stop",
    "name": "Bel Air",
    "public_transport": "platform"
  }
},
{
  "type": "node",
  "id": 3077829527,
  "lat": 46.1626218,
  "lon": -1.1609563,
  "tags": {
    "highway": "bus_stop",
    "name": "Claude Masse",
    "public_transport": "platform"
  }
},
{
  "type": "node",
  "id": 3077829528,
  "lat": 46.1626947,
  "lon": -1.1609084,
  "tags": {
    "highway": "bus_stop",
    "name": "Claude Masse",
    "public_transport": "platform"
  }
},
{
  "type": "node",
  "id": 3077867685,
  "lat": 46.1634845,
  "lon": -1.1685780,
  "tags": {
    "highway": "bus_stop",
    "name": "Missy",
    "public_transport": "platform"
  }
},
{
  "type": "node",
  "id": 3077867686,
  "lat": 46.1634322,
  "lon": -1.1686258,
  "tags": {
    "highway": "bus_stop",
    "name": "Missy",
    "public_transport": "platform"
  }
},
{
  "type": "node",
  "id": 3077895342,
  "lat": 46.1641061,
  "lon": -1.1752973,
  "tags": {
    "bus": "yes",
    "highway": "bus_stop",
    "name": "Saint-Maurice",
    "public_transport": "platform"
  }
},
{
  "type": "node",
  "id": 3077896048,
  "lat": 46.1639141,
  "lon": -1.2080053,
  "tags": {
    "highway": "bus_stop",
    "name": "Chirons Longs",
    "public_transport": "platform"
  }
},
{
  "type": "node",
  "id": 3077896050,
  "lat": 46.1635495,
  "lon": -1.2140008,
  "tags": {
    "highway": "bus_stop",
    "name": "Montcalm",
    "public_transport": "platform"
  }
},
{
  "type": "node",
  "id": 3077896688,
  "lat": 46.1654674,
  "lon": -1.1896419,
  "tags": {
    "highway": "bus_stop",
    "name": "Vaugouin",
    "public_transport": "platform"
  }
},
{
  "type": "node",
  "id": 3077896689,
  "lat": 46.1653362,
  "lon": -1.1903745,
  "tags": {
    "highway": "bus_stop",
    "name": "Vaugouin",
    "public_transport": "platform"
  }
},
{
  "type": "node",
  "id": 3077897479,
  "lat": 46.1646131,
  "lon": -1.1810571,
  "tags": {
    "highway": "bus_stop",
    "name": "Quatre Fages",
    "public_transport": "platform"
  }
},
{
  "type": "node",
  "id": 3077897481,
  "lat": 46.1645448,
  "lon": -1.1812758,
  "tags": {
    "bus": "yes",
    "highway": "bus_stop",
    "name": "Quatre Fages",
    "public_transport": "platform"
  }
},
{
  "type": "node",
  "id": 3077897482,
  "lat": 46.1654426,
  "lon": -1.1869100,
  "tags": {
    "highway": "bus_stop",
    "name": "Rossignolette",
    "public_transport": "platform"
  }
},
{
  "type": "node",
  "id": 3077897483,
  "lat": 46.1652990,
  "lon": -1.1859851,
  "tags": {
    "highway": "bus_stop",
    "name": "Rossignolette",
    "public_transport": "platform"
  }
},
{
  "type": "node",
  "id": 3077898498,
  "lat": 46.1646006,
  "lon": -1.1981190,
  "tags": {
    "highway": "bus_stop",
    "name": "Jacques Henry",
    "public_transport": "platform"
  }
},
{
  "type": "node",
  "id": 3077898499,
  "lat": 46.1646433,
  "lon": -1.1983501,
  "tags": {
    "highway": "bus_stop",
    "name": "Jacques Henry",
    "public_transport": "platform"
  }
},
{
  "type": "node",
  "id": 3077899284,
  "lat": 46.1641619,
  "lon": -1.2042280,
  "tags": {
    "highway": "bus_stop",
    "name": "Montréal",
    "public_transport": "platform"
  }
},
{
  "type": "node",
  "id": 3077899386,
  "lat": 46.1644272,
  "lon": -1.2006131,
  "tags": {
    "bench": "yes",
    "bin": "no",
    "highway": "bus_stop",
    "name": "Laleu Sports",
    "public_transport": "platform",
    "shelter": "yes",
    "tactile_paving": "yes"
  }
},
{
  "type": "node",
  "id": 3077902512,
  "lat": 46.1637290,
  "lon": -1.2112815,
  "tags": {
    "highway": "bus_stop",
    "name": "Duquesne",
    "public_transport": "platform"
  }
},
{
  "type": "node",
  "id": 3077903714,
  "lat": 46.1609176,
  "lon": -1.2134354,
  "tags": {
    "highway": "bus_stop",
    "name": "Frigo",
    "public_transport": "platform"
  }
},
{
  "type": "node",
  "id": 3077904497,
  "lat": 46.1610009,
  "lon": -1.2200165,
  "tags": {
    "highway": "bus_stop",
    "name": "Port La Pallice",
    "public_transport": "platform"
  }
},
{
  "type": "node",
  "id": 3077904498,
  "lat": 46.1606479,
  "lon": -1.2181514,
  "tags": {
    "highway": "bus_stop",
    "name": "La Pallice Magasins Généraux",
    "public_transport": "platform"
  }
},
{
  "type": "node",
  "id": 3077905195,
  "lat": 46.1606908,
  "lon": -1.2162650,
  "tags": {
    "highway": "bus_stop",
    "name": "La Sirène",
    "public_transport": "platform"
  }
},
{
  "type": "node",
  "id": 3077905623,
  "lat": 46.1613047,
  "lon": -1.2073348,
  "tags": {
    "highway": "bus_stop",
    "name": "Eugène Dor",
    "public_transport": "platform"
  }
},
{
  "type": "node",
  "id": 3077908429,
  "lat": 46.1638126,
  "lon": -1.2018657,
  "tags": {
    "highway": "bus_stop",
    "name": "Laleu Sports"
  }
},
{
  "type": "node",
  "id": 3077920391,
  "lat": 46.1681258,
  "lon": -1.1747439,
  "tags": {
    "highway": "bus_stop",
    "name": "Racine"
  }
},
{
  "type": "node",
  "id": 3077938659,
  "lat": 46.1663228,
  "lon": -1.1905593,
  "tags": {
    "highway": "bus_stop",
    "name": "Cité",
    "public_transport": "platform"
  }
},
{
  "type": "node",
  "id": 3077938660,
  "lat": 46.1662225,
  "lon": -1.1904976,
  "tags": {
    "highway": "bus_stop",
    "name": "Cité",
    "public_transport": "platform"
  }
},
{
  "type": "node",
  "id": 3077938661,
  "lat": 46.1675951,
  "lon": -1.1965218,
  "tags": {
    "highway": "bus_stop",
    "name": "Oncor",
    "operator": "RTCR"
  }
},
{
  "type": "node",
  "id": 3077938662,
  "lat": 46.1681691,
  "lon": -1.1950368,
  "tags": {
    "highway": "bus_stop",
    "name": "Oncor",
    "operator": "RTCR"
  }
},
{
  "type": "node",
  "id": 3077938696,
  "lat": 46.1702767,
  "lon": -1.1952280,
  "tags": {
    "bus": "yes",
    "highway": "bus_stop",
    "name": "Colibri",
    "public_transport": "platform"
  }
},
{
  "type": "node",
  "id": 3077938702,
  "lat": 46.1756960,
  "lon": -1.1953612,
  "tags": {
    "bus": "yes",
    "highway": "bus_stop",
    "name": "Laleu Aéroport",
    "name:fr": "Laleu Aéroport - lignes 3A et 3B",
    "note": "lignes 3A et 3B",
    "public_transport": "platform",
    "shelter": "yes"
  }
},
{
  "type": "node",
  "id": 3077942733,
  "lat": 46.1747626,
  "lon": -1.1974902,
  "tags": {
    "bus": "yes",
    "highway": "bus_stop",
    "name": "Laleu Les Douanes",
    "public_transport": "platform"
  }
},
{
  "type": "node",
  "id": 3077942773,
  "lat": 46.1699357,
  "lon": -1.2023866,
  "tags": {
    "bus": "yes",
    "highway": "bus_stop",
    "name": "Église",
    "public_transport": "platform"
  }
},
{
  "type": "node",
  "id": 3077944515,
  "lat": 46.1718144,
  "lon": -1.2016853,
  "tags": {
    "bus": "yes",
    "highway": "bus_stop",
    "name": "Les Rivauds",
    "public_transport": "platform"
  }
},
{
  "type": "node",
  "id": 3077944934,
  "lat": 46.1690236,
  "lon": -1.2002357,
  "tags": {
    "bus": "yes",
    "highway": "bus_stop",
    "name": "Place des Halles",
    "public_transport": "platform"
  }
},
{
  "type": "node",
  "id": 3077949159,
  "lat": 46.1660259,
  "lon": -1.1842461,
  "tags": {
    "highway": "bus_stop",
    "name": "Athènes",
    "public_transport": "platform"
  }
},
{
  "type": "node",
  "id": 3077949160,
  "lat": 46.1670246,
  "lon": -1.1867835,
  "tags": {
    "highway": "bus_stop",
    "name": "Belgrade",
    "public_transport": "platform"
  }
},
{
  "type": "node",
  "id": 3077949951,
  "lat": 46.1681333,
  "lon": -1.1864540,
  "tags": {
    "highway": "bus_stop",
    "name": "Budapest"
  }
},
{
  "type": "node",
  "id": 3077964733,
  "lat": 46.1677308,
  "lon": -1.1827319,
  "tags": {
    "highway": "bus_stop",
    "name": "Mangin"
  }
},
{
  "type": "node",
  "id": 3077964734,
  "lat": 46.1674364,
  "lon": -1.1798700,
  "tags": {
    "highway": "bus_stop",
    "name": "Kennedy"
  }
},
{
  "type": "node",
  "id": 3077965958,
  "lat": 46.1682006,
  "lon": -1.1742481,
  "tags": {
    "highway": "bus_stop",
    "name": "Racine"
  }
},
{
  "type": "node",
  "id": 3078109486,
  "lat": 46.1492183,
  "lon": -1.2198882,
  "tags": {
    "highway": "bus_stop",
    "name": "CHEF DE BAIE Port de Pêche"
  }
},
{
  "type": "node",
  "id": 3078109487,
  "lat": 46.1502308,
  "lon": -1.2110044,
  "tags": {
    "highway": "bus_stop",
    "name": "Agrocéan"
  }
},
{
  "type": "node",
  "id": 3078109488,
  "lat": 46.1502025,
  "lon": -1.2057956,
  "tags": {
    "highway": "bus_stop",
    "name": "Plage Chef de Baie"
  }
},
{
  "type": "node",
  "id": 3078111626,
  "lat": 46.1538644,
  "lon": -1.2033964,
  "tags": {
    "highway": "bus_stop",
    "name": "Québec"
  }
},
{
  "type": "node",
  "id": 3078111627,
  "lat": 46.1595069,
  "lon": -1.1991173,
  "tags": {
    "highway": "bus_stop",
    "name": "ZI Chef de Baie"
  }
},
{
  "type": "node",
  "id": 3078112375,
  "lat": 46.1607953,
  "lon": -1.1884821,
  "tags": {
    "highway": "bus_stop",
    "name": "Wilson"
  }
},
{
  "type": "node",
  "id": 3078112376,
  "lat": 46.1553714,
  "lon": -1.1909635,
  "tags": {
    "highway": "bus_stop",
    "name": "Plaine des Jeux"
  }
},
{
  "type": "node",
  "id": 3078114103,
  "lat": 46.1547024,
  "lon": -1.1840191,
  "tags": {
    "highway": "bus_stop",
    "name": "Baie de Port Neuf"
  }
},
{
  "type": "node",
  "id": 3078114368,
  "lat": 46.1571038,
  "lon": -1.1849365,
  "tags": {
    "bench": "no",
    "bin": "no",
    "highway": "bus_stop",
    "lit": "no",
    "name": "Savoie",
    "shelter": "no",
    "tactile_paving": "no"
  }
},
{
  "type": "node",
  "id": 3078115235,
  "lat": 46.1569308,
  "lon": -1.1819108,
  "tags": {
    "highway": "bus_stop",
    "name": "PORT NEUF Bâtiment 23"
  }
},
{
  "type": "node",
  "id": 3078117234,
  "lat": 46.1567729,
  "lon": -1.1797497,
  "tags": {
    "highway": "bus_stop",
    "name": "Juin"
  }
},
{
  "type": "node",
  "id": 3078117497,
  "lat": 46.1565945,
  "lon": -1.1774444,
  "tags": {
    "highway": "bus_stop",
    "name": "Provence"
  }
},
{
  "type": "node",
  "id": 3078117880,
  "lat": 46.1540377,
  "lon": -1.1758954,
  "tags": {
    "highway": "bus_stop",
    "name": "La Corniche"
  }
},
{
  "type": "node",
  "id": 3078117881,
  "lat": 46.1541490,
  "lon": -1.1735232,
  "tags": {
    "highway": "bus_stop",
    "name": "Philippe Vincent"
  }
},
{
  "type": "node",
  "id": 3078118163,
  "lat": 46.1566281,
  "lon": -1.1748964,
  "tags": {
    "highway": "bus_stop",
    "name": "Atlantique"
  }
},
{
  "type": "node",
  "id": 3078119118,
  "lat": 46.1554923,
  "lon": -1.1704416,
  "tags": {
    "highway": "bus_stop",
    "name": "Le Mail Clinique",
    "public_transport": "platform"
  }
},
{
  "type": "node",
  "id": 3078188862,
  "lat": 46.1576151,
  "lon": -1.1568290,
  "tags": {
    "highway": "bus_stop",
    "name": "Préfecture"
  }
},
{
  "type": "node",
  "id": 3078190437,
  "lat": 46.1582505,
  "lon": -1.1567432,
  "tags": {
    "highway": "bus_stop",
    "name": "Remparts"
  }
},
{
  "type": "node",
  "id": 3078191225,
  "lat": 46.1591500,
  "lon": -1.1562475,
  "tags": {
    "covered": "no",
    "highway": "bus_stop",
    "name": "Banque de France",
    "passenger_information_display": "yes",
    "public_transport": "platform"
  }
},
{
  "type": "node",
  "id": 3078191226,
  "lat": 46.1604800,
  "lon": -1.1555984,
  "tags": {
    "highway": "bus_stop",
    "name": "Porte Neuve"
  }
},
{
  "type": "node",
  "id": 3078193190,
  "lat": 46.1645866,
  "lon": -1.1557299,
  "tags": {
    "bench": "yes",
    "bus": "yes",
    "highway": "bus_stop",
    "lit": "no",
    "name": "Delayant",
    "public_transport": "platform",
    "shelter": "yes",
    "tactile_paving": "yes"
  }
},
{
  "type": "node",
  "id": 3078193191,
  "lat": 46.1661421,
  "lon": -1.1536835,
  "tags": {
    "bus": "yes",
    "highway": "bus_stop",
    "name": "La Rochelle - Esplanade des Parcs",
    "public_transport": "platform",
    "shelter": "yes",
    "wheelchair": "yes"
  }
},
{
  "type": "node",
  "id": 3079657354,
  "lat": 46.1641554,
  "lon": -1.1588404,
  "tags": {
    "bus": "yes",
    "highway": "bus_stop",
    "name": "Jourdan",
    "public_transport": "platform"
  }
},
{
  "type": "node",
  "id": 3079657744,
  "lat": 46.1688149,
  "lon": -1.1587059,
  "tags": {
    "bus": "yes",
    "highway": "bus_stop",
    "name": "Colbert",
    "public_transport": "platform"
  }
},
{
  "type": "node",
  "id": 3079657746,
  "lat": 46.1708738,
  "lon": -1.1588528,
  "tags": {
    "bus": "yes",
    "highway": "bus_stop",
    "name": "La Trompette",
    "public_transport": "platform",
    "shelter": "yes"
  }
},
{
  "type": "node",
  "id": 3079675821,
  "lat": 46.1728964,
  "lon": -1.1609016,
  "tags": {
    "bench": "yes",
    "bin": "no",
    "highway": "bus_stop",
    "name": "Franck Espoir",
    "shelter": "yes"
  }
},
{
  "type": "node",
  "id": 3084418825,
  "lat": 46.1629531,
  "lon": -1.1760613,
  "tags": {
    "highway": "bus_stop",
    "name": "Pierre Loti"
  }
},
{
  "type": "node",
  "id": 3084431592,
  "lat": 46.1615673,
  "lon": -1.1777160,
  "tags": {
    "highway": "bus_stop",
    "name": "Annette Epaud"
  }
},
{
  "type": "node",
  "id": 3084460815,
  "lat": 46.1612006,
  "lon": -1.1750393,
  "tags": {
    "highway": "bus_stop",
    "name": "Point du Jour"
  }
},
{
  "type": "node",
  "id": 3084460816,
  "lat": 46.1606867,
  "lon": -1.1718405,
  "tags": {
    "highway": "bus_stop",
    "name": "La Genette"
  }
},
{
  "type": "node",
  "id": 3084461787,
  "lat": 46.1610354,
  "lon": -1.1815526,
  "tags": {
    "highway": "bus_stop",
    "name": "La Grenouillère"
  }
},
{
  "type": "node",
  "id": 3084461788,
  "lat": 46.1596716,
  "lon": -1.1818331,
  "tags": {
    "highway": "bus_stop",
    "name": "Bretagne"
  }
},
{
  "type": "node",
  "id": 3084461789,
  "lat": 46.1575866,
  "lon": -1.1846521,
  "tags": {
    "highway": "bus_stop",
    "name": "Bourbonnais"
  }
},
{
  "type": "node",
  "id": 3084461790,
  "lat": 46.1577406,
  "lon": -1.1800080,
  "tags": {
    "highway": "bus_stop",
    "name": "Le Stade"
  }
},
{
  "type": "node",
  "id": 3084461793,
  "lat": 46.1601132,
  "lon": -1.1795463,
  "tags": {
    "highway": "bus_stop",
    "name": "La Couronne"
  }
},
{
  "type": "node",
  "id": 3084467067,
  "lat": 46.1601504,
  "lon": -1.1683962,
  "tags": {
    "highway": "bus_stop",
    "name": "Voltaire"
  }
},
{
  "type": "node",
  "id": 3084558690,
  "lat": 46.1503392,
  "lon": -1.1457870,
  "tags": {
    "highway": "bus_stop",
    "name": "Pont de Tasdon",
    "public_transport": "platform"
  }
},
{
  "type": "node",
  "id": 3084560632,
  "lat": 46.1451532,
  "lon": -1.1425467,
  "tags": {
    "highway": "bus_stop",
    "name": "La Rochelle - Octroi",
    "public_transport": "platform",
    "shelter": "yes"
  }
},
{
  "type": "node",
  "id": 3084562365,
  "lat": 46.1484615,
  "lon": -1.1437901,
  "tags": {
    "highway": "bus_stop",
    "name": "Place des Britanniques"
  }
},
{
  "type": "node",
  "id": 3084565619,
  "lat": 46.1438833,
  "lon": -1.1382972,
  "tags": {
    "highway": "bus_stop",
    "name": "Les Peupliers"
  }
},
{
  "type": "node",
  "id": 3084568088,
  "lat": 46.1528565,
  "lon": -1.1408415,
  "tags": {
    "highway": "bus_stop",
    "name": "P+R J. Moulin"
  }
},
{
  "type": "node",
  "id": 3086039431,
  "lat": 46.1771273,
  "lon": -1.1518182,
  "tags": {
    "bus": "yes",
    "highway": "bus_stop",
    "name": "La Rochelle - Lycée Vieljeux",
    "public_transport": "platform"
  }
},
{
  "type": "node",
  "id": 3086045950,
  "lat": 46.1759031,
  "lon": -1.1543054,
  "tags": {
    "highway": "bus_stop",
    "name": "Les Gonthières",
    "public_transport": "platform"
  }
},
{
  "type": "node",
  "id": 3086121947,
  "lat": 46.1572184,
  "lon": -1.1816219,
  "tags": {
    "highway": "bus_stop",
    "name": "PORT NEUF Bâtiment 23"
  }
},
{
  "type": "node",
  "id": 3086130969,
  "lat": 46.1533753,
  "lon": -1.1500003,
  "tags": {
    "bench": "no",
    "bus": "yes",
    "highway": "bus_stop",
    "name": "Aquarium",
    "public_transport": "platform",
    "shelter": "no",
    "tactile_paving": "no"
  }
},
{
  "type": "node",
  "id": 3086170271,
  "lat": 46.1783657,
  "lon": -1.1478373,
  "tags": {
    "highway": "bus_stop",
    "name": "Blériot"
  }
},
{
  "type": "node",
  "id": 3086172319,
  "lat": 46.1715069,
  "lon": -1.1534001,
  "tags": {
    "bus": "yes",
    "highway": "bus_stop",
    "name": "Place de Fétilly",
    "public_transport": "platform"
  }
},
{
  "type": "node",
  "id": 3086174809,
  "lat": 46.1757852,
  "lon": -1.1475246,
  "tags": {
    "highway": "bus_stop",
    "name": "Farman"
  }
},
{
  "type": "node",
  "id": 3086179721,
  "lat": 46.1740127,
  "lon": -1.1453979,
  "tags": {
    "highway": "bus_stop",
    "name": "La Rochelle - Place de Lafond",
    "public_transport": "platform"
  }
},
{
  "type": "node",
  "id": 3086179722,
  "lat": 46.1749906,
  "lon": -1.1433334,
  "tags": {
    "highway": "bus_stop",
    "name": "Soissons"
  }
},
{
  "type": "node",
  "id": 3086179726,
  "lat": 46.1763038,
  "lon": -1.1409734,
  "tags": {
    "highway": "bus_stop",
    "name": "Lafond Le Gué"
  }
},
{
  "type": "node",
  "id": 3086179728,
  "lat": 46.1785549,
  "lon": -1.1413320,
  "tags": {
    "highway": "bus_stop",
    "name": "Léon Jouhaux",
    "public_transport": "platform"
  }
},
{
  "type": "node",
  "id": 3087928599,
  "lat": 46.1629400,
  "lon": -1.1456649,
  "tags": {
    "bench": "yes",
    "bus": "yes",
    "covered": "yes",
    "highway": "bus_stop",
    "name": "Porte de Cougnes",
    "passenger_information_display": "yes",
    "public_transport": "platform",
    "shelter": "yes",
    "wheelchair": "yes"
  }
},
{
  "type": "node",
  "id": 3087950475,
  "lat": 46.1645968,
  "lon": -1.1513606,
  "tags": {
    "bus": "yes",
    "highway": "bus_stop",
    "name": "Museum",
    "public_transport": "platform"
  }
},
{
  "type": "node",
  "id": 3087950750,
  "lat": 46.1641881,
  "lon": -1.1486167,
  "tags": {
    "bus": "yes",
    "highway": "bus_stop",
    "name": "Cordouan",
    "public_transport": "platform"
  }
},
{
  "type": "node",
  "id": 3087951120,
  "lat": 46.1703172,
  "lon": -1.1463703,
  "tags": {
    "highway": "bus_stop",
    "name": "Electro",
    "public_transport": "platform"
  }
},
{
  "type": "node",
  "id": 3087951725,
  "lat": 46.1647454,
  "lon": -1.1516100,
  "tags": {
    "bus": "yes",
    "highway": "bus_stop",
    "name": "Museum",
    "public_transport": "platform"
  }
},
{
  "type": "node",
  "id": 3087951727,
  "lat": 46.1666495,
  "lon": -1.1507611,
  "tags": {
    "bus": "yes",
    "highway": "bus_stop",
    "name": "Glacière",
    "public_transport": "platform",
    "shelter": "yes"
  }
},
{
  "type": "node",
  "id": 3087956003,
  "lat": 46.1694071,
  "lon": -1.1486851,
  "tags": {
    "bus": "yes",
    "highway": "bus_stop",
    "name": "Champ de Mars",
    "public_transport": "platform"
  }
},
{
  "type": "node",
  "id": 3087956988,
  "lat": 46.1689595,
  "lon": -1.1458040,
  "tags": {
    "highway": "bus_stop",
    "name": "Marius Lacroix",
    "public_transport": "platform"
  }
},
{
  "type": "node",
  "id": 3088914132,
  "lat": 46.1399741,
  "lon": -1.1688924,
  "tags": {
    "bench": "yes",
    "bin": "no",
    "highway": "bus_stop",
    "name": "Les Minimes Plage des Minimes",
    "public_transport": "platform",
    "shelter": "yes",
    "tactile_paving": "yes"
  }
},
{
  "type": "node",
  "id": 3088915911,
  "lat": 46.1406701,
  "lon": -1.1654664,
  "tags": {
    "highway": "bus_stop",
    "name": "Port des Minimes",
    "public_transport": "platform"
  }
},
{
  "type": "node",
  "id": 3088921818,
  "lat": 46.1393241,
  "lon": -1.1658669,
  "tags": {
    "highway": "bus_stop",
    "name": "Cité des Minimes",
    "public_transport": "platform"
  }
},
{
  "type": "node",
  "id": 3088932271,
  "lat": 46.1676419,
  "lon": -1.1410501,
  "tags": {
    "highway": "bus_stop",
    "name": "Beauregard",
    "public_transport": "platform",
    "shelter": "no"
  }
},
{
  "type": "node",
  "id": 3088932272,
  "lat": 46.1668275,
  "lon": -1.1365887,
  "tags": {
    "highway": "bus_stop",
    "name": "La Rochelle - Patte d'Oie",
    "public_transport": "platform",
    "shelter": "yes"
  }
},
{
  "type": "node",
  "id": 3088932280,
  "lat": 46.1678597,
  "lon": -1.1335023,
  "tags": {
    "highway": "bus_stop",
    "name": "Iris",
    "public_transport": "platform",
    "shelter": "yes",
    "tactile_paving": "yes"
  }
},
{
  "type": "node",
  "id": 3088937220,
  "lat": 46.1689138,
  "lon": -1.1297285,
  "tags": {
    "highway": "bus_stop",
    "name": "Primevère",
    "public_transport": "platform"
  }
},
{
  "type": "node",
  "id": 3088941815,
  "lat": 46.1700028,
  "lon": -1.1263824,
  "tags": {
    "highway": "bus_stop",
    "name": "La Rochelle - Moulin des Justices",
    "public_transport": "platform"
  }
},
{
  "type": "node",
  "id": 3088967164,
  "lat": 46.1734719,
  "lon": -1.1350032,
  "tags": {
    "highway": "bus_stop",
    "name": "Les Moulins"
  }
},
{
  "type": "node",
  "id": 3088973703,
  "lat": 46.1716670,
  "lon": -1.1371382,
  "tags": {
    "highway": "bus_stop",
    "name": "Dufresse",
    "shelter": "no",
    "tactile_paving": "no"
  }
},
{
  "type": "node",
  "id": 3088974479,
  "lat": 46.1698745,
  "lon": -1.1387127,
  "tags": {
    "highway": "bus_stop",
    "name": "Mistral",
    "public_transport": "platform"
  }
},
{
  "type": "node",
  "id": 3088977378,
  "lat": 46.1761349,
  "lon": -1.1394492,
  "tags": {
    "highway": "bus_stop",
    "name": "Lafond Le Gué",
    "public_transport": "platform"
  }
},
{
  "type": "node",
  "id": 3088977382,
  "lat": 46.1764905,
  "lon": -1.1359409,
  "tags": {
    "highway": "bus_stop",
    "name": "La Rochelle - Hôpital Lafond",
    "public_transport": "platform"
  }
},
{
  "type": "node",
  "id": 3089141068,
  "lat": 46.1755608,
  "lon": -1.1420805,
  "tags": {
    "highway": "bus_stop",
    "name": "Soissons"
  }
},
{
  "type": "node",
  "id": 3092070758,
  "lat": 46.1730208,
  "lon": -1.1505312,
  "tags": {
    "highway": "bus_stop",
    "name": "11 Novembre",
    "public_transport": "platform",
    "shelter": "yes",
    "tactile_paving": "yes"
  }
},
{
  "type": "node",
  "id": 3092082273,
  "lat": 46.1645736,
  "lon": -1.1555174,
  "tags": {
    "bus": "yes",
    "highway": "bus_stop",
    "name": "Delayant",
    "public_transport": "platform"
  }
},
{
  "type": "node",
  "id": 3092218323,
  "lat": 46.1583798,
  "lon": -1.1453636,
  "tags": {
    "highway": "bus_stop",
    "name": "La Rochelle - Hôpital",
    "public_transport": "platform",
    "shelter": "yes",
    "tactile_paving": "yes"
  }
},
{
  "type": "node",
  "id": 3092218324,
  "lat": 46.1585934,
  "lon": -1.1481889,
  "tags": {
    "bench": "yes",
    "bin": "no",
    "covered": "yes",
    "highway": "bus_stop",
    "name": "Dames Blanches (Louis Durand)",
    "passenger_information_display": "yes",
    "public_transport": "platform",
    "shelter": "yes"
  }
},
{
  "type": "node",
  "id": 3092220765,
  "lat": 46.1551193,
  "lon": -1.1354924,
  "tags": {
    "highway": "bus_stop",
    "name": "La Rochelle - Lycée Valin",
    "public_transport": "platform",
    "shelter": "yes"
  }
},
{
  "type": "node",
  "id": 3092220766,
  "lat": 46.1544411,
  "lon": -1.1364420,
  "tags": {
    "highway": "bus_stop",
    "name": "La Rochelle - Lycée Valin",
    "public_transport": "platform",
    "shelter": "yes"
  }
},
{
  "type": "node",
  "id": 3092258757,
  "lat": 46.1526455,
  "lon": -1.1470046,
  "tags": {
    "bench": "yes",
    "highway": "bus_stop",
    "name": "Gare SNCF (Joffre)",
    "public_transport": "platform",
    "shelter": "yes"
  }
},
{
  "type": "node",
  "id": 3092264055,
  "lat": 46.1526988,
  "lon": -1.1472194,
  "tags": {
    "bench": "yes",
    "bus": "yes",
    "highway": "bus_stop",
    "name": "Gare SNCF (Joffre)",
    "public_transport": "platform",
    "shelter": "yes"
  }
},
{
  "type": "node",
  "id": 3092265654,
  "lat": 46.1534494,
  "lon": -1.1465656,
  "tags": {
    "bench": "yes",
    "bus": "yes",
    "highway": "bus_stop",
    "name": "Gare SNCF (Avenue de Gaulle)",
    "public_transport": "platform",
    "shelter": "yes"
  }
},
{
  "type": "node",
  "id": 3092272145,
  "lat": 46.1588906,
  "lon": -1.1338000,
  "tags": {
    "bench": "no",
    "covered": "no",
    "highway": "bus_stop",
    "name": "Les Sauniers",
    "public_transport": "platform",
    "shelter": "no"
  }
},
{
  "type": "node",
  "id": 3092272146,
  "lat": 46.1607485,
  "lon": -1.1276800,
  "tags": {
    "highway": "bus_stop",
    "name": "LEP Rompsay",
    "shelter": "yes"
  }
},
{
  "type": "node",
  "id": 3092272147,
  "lat": 46.1609851,
  "lon": -1.1268377,
  "tags": {
    "highway": "bus_stop",
    "name": "LEP Rompsay",
    "public_transport": "platform",
    "shelter": "yes"
  }
},
{
  "type": "node",
  "id": 3092272741,
  "lat": 46.1610145,
  "lon": -1.1262909,
  "tags": {
    "highway": "bus_stop",
    "name": "LEP Rompsay",
    "public_transport": "platform"
  }
},
{
  "type": "node",
  "id": 3093794386,
  "lat": 46.1622659,
  "lon": -1.1418266,
  "tags": {
    "highway": "bus_stop",
    "name": "Porte Royale",
    "shelter": "yes",
    "tactile_paving": "no"
  }
},
{
  "type": "node",
  "id": 3093794387,
  "lat": 46.1621811,
  "lon": -1.1415193,
  "tags": {
    "highway": "bus_stop",
    "name": "Porte Royale",
    "shelter": "yes",
    "tactile_paving": "no"
  }
},
{
  "type": "node",
  "id": 3093794396,
  "lat": 46.1631734,
  "lon": -1.1375693,
  "tags": {
    "bench": "no",
    "highway": "bus_stop",
    "name": "Les Routiers",
    "public_transport": "platform",
    "shelter": "no"
  }
},
{
  "type": "node",
  "id": 3093801893,
  "lat": 46.1628746,
  "lon": -1.1349222,
  "tags": {
    "highway": "bus_stop",
    "name": "Cimetière 1",
    "public_transport": "platform"
  }
},
{
  "type": "node",
  "id": 3093801897,
  "lat": 46.1630888,
  "lon": -1.1305128,
  "tags": {
    "bench": "yes",
    "highway": "bus_stop",
    "name": "Cimetière 2",
    "public_transport": "platform",
    "shelter": "yes"
  }
},
{
  "type": "node",
  "id": 3093801898,
  "lat": 46.1627533,
  "lon": -1.1297575,
  "tags": {
    "highway": "bus_stop",
    "name": "Cimetière 2",
    "public_transport": "platform"
  }
},
{
  "type": "node",
  "id": 3093803714,
  "lat": 46.1625426,
  "lon": -1.1240122,
  "tags": {
    "highway": "bus_stop",
    "name": "ZA Le Plessis"
  }
},
{
  "type": "node",
  "id": 3093803715,
  "lat": 46.1624070,
  "lon": -1.1240794,
  "tags": {
    "highway": "bus_stop",
    "name": "ZA Le Plessis"
  }
},
{
  "type": "node",
  "id": 3093804338,
  "lat": 46.1609280,
  "lon": -1.1294461,
  "tags": {
    "highway": "bus_stop",
    "name": "Lully"
  }
},
{
  "type": "node",
  "id": 3093804339,
  "lat": 46.1609841,
  "lon": -1.1293571,
  "tags": {
    "highway": "bus_stop",
    "name": "Lully"
  }
},
{
  "type": "node",
  "id": 3093804397,
  "lat": 46.1654366,
  "lon": -1.1191997,
  "tags": {
    "bench": "yes",
    "highway": "bus_stop",
    "name": "Chemin des Rossignols",
    "public_transport": "platform",
    "shelter": "yes"
  }
},
{
  "type": "node",
  "id": 3093807389,
  "lat": 46.1644213,
  "lon": -1.1244956,
  "tags": {
    "bench": "no",
    "highway": "bus_stop",
    "name": "Géraniums",
    "public_transport": "platform",
    "shelter": "no"
  }
},
{
  "type": "node",
  "id": 3093807390,
  "lat": 46.1644574,
  "lon": -1.1239256,
  "tags": {
    "bench": "no",
    "highway": "bus_stop",
    "name": "Géraniums",
    "public_transport": "platform",
    "shelter": "no"
  }
},
{
  "type": "node",
  "id": 3093909048,
  "lat": 46.1690273,
  "lon": -1.1299691,
  "tags": {
    "highway": "bus_stop",
    "name": "Primevère",
    "public_transport": "platform"
  }
},
{
  "type": "node",
  "id": 3094036224,
  "lat": 46.1566151,
  "lon": -1.1270521,
  "tags": {
    "highway": "bus_stop",
    "name": "Schoelcher",
    "public_transport": "platform"
  }
},
{
  "type": "node",
  "id": 3094038739,
  "lat": 46.1562184,
  "lon": -1.1312571,
  "tags": {
    "highway": "bus_stop",
    "name": "Petit Brouage"
  }
},
{
  "type": "node",
  "id": 3094038740,
  "lat": 46.1561595,
  "lon": -1.1302211,
  "tags": {
    "highway": "bus_stop",
    "name": "Petit Brouage"
  }
},
{
  "type": "node",
  "id": 3094038741,
  "lat": 46.1558883,
  "lon": -1.1308775,
  "tags": {
    "highway": "bus_stop",
    "name": "Petit Brouage"
  }
},
{
  "type": "node",
  "id": 3094039730,
  "lat": 46.1565110,
  "lon": -1.1261881,
  "tags": {
    "highway": "bus_stop",
    "name": "Schoelcher",
    "public_transport": "platform",
    "shelter": "no"
  }
},
{
  "type": "node",
  "id": 3094042601,
  "lat": 46.1568958,
  "lon": -1.1230247,
  "tags": {
    "bus": "yes",
    "highway": "bus_stop",
    "name": "Robespierre",
    "public_transport": "platform",
    "shelter": "yes"
  }
},
{
  "type": "node",
  "id": 3094042602,
  "lat": 46.1567246,
  "lon": -1.1219155,
  "tags": {
    "highway": "bus_stop",
    "name": "Robespierre"
  }
},
{
  "type": "node",
  "id": 3094044638,
  "lat": 46.1565312,
  "lon": -1.1200087,
  "tags": {
    "highway": "bus_stop",
    "name": "Clos Margat"
  }
},
{
  "type": "node",
  "id": 3094050853,
  "lat": 46.1539354,
  "lon": -1.1163227,
  "tags": {
    "highway": "bus_stop",
    "name": "Jean-Paul Sartre",
    "public_transport": "platform"
  }
},
{
  "type": "node",
  "id": 3094052290,
  "lat": 46.1537808,
  "lon": -1.1164464,
  "tags": {
    "highway": "bus_stop",
    "name": "Jean-Paul Sartre",
    "public_transport": "platform"
  }
},
{
  "type": "node",
  "id": 3094059489,
  "lat": 46.1521740,
  "lon": -1.1152758,
  "tags": {
    "highway": "bus_stop",
    "name": "Villeneuve Fabre d'Eglantine"
  }
},
{
  "type": "node",
  "id": 3094075169,
  "lat": 46.1508865,
  "lon": -1.1160808,
  "tags": {
    "bus": "yes",
    "highway": "bus_stop",
    "name": "Villeneuve Fabre d'Eglantine",
    "public_transport": "stop_position"
  }
},
{
  "type": "node",
  "id": 3094076992,
  "lat": 46.1520423,
  "lon": -1.1215856,
  "tags": {
    "highway": "bus_stop",
    "name": "Billaud Varenne"
  }
},
{
  "type": "node",
  "id": 3094077853,
  "lat": 46.1514365,
  "lon": -1.1178913,
  "tags": {
    "highway": "bus_stop",
    "name": "Convention"
  }
},
{
  "type": "node",
  "id": 3094077854,
  "lat": 46.1513395,
  "lon": -1.1179190,
  "tags": {
    "highway": "bus_stop",
    "name": "Convention"
  }
},
{
  "type": "node",
  "id": 3094087504,
  "lat": 46.1519940,
  "lon": -1.1218914,
  "tags": {
    "highway": "bus_stop",
    "name": "Billaud Varenne"
  }
},
{
  "type": "node",
  "id": 3094087524,
  "lat": 46.1522065,
  "lon": -1.1247215,
  "tags": {
    "highway": "bus_stop",
    "name": "14 Juillet"
  }
},
{
  "type": "node",
  "id": 3094087525,
  "lat": 46.1519729,
  "lon": -1.1237087,
  "tags": {
    "highway": "bus_stop",
    "name": "14 Juillet"
  }
},
{
  "type": "node",
  "id": 3094089861,
  "lat": 46.1529838,
  "lon": -1.1267102,
  "tags": {
    "highway": "bus_stop",
    "name": "Lavoisier",
    "public_transport": "platform"
  }
},
{
  "type": "node",
  "id": 3094089862,
  "lat": 46.1528645,
  "lon": -1.1267544,
  "tags": {
    "highway": "bus_stop",
    "name": "Lavoisier",
    "public_transport": "platform"
  }
},
{
  "type": "node",
  "id": 3094094656,
  "lat": 46.1532655,
  "lon": -1.1310738,
  "tags": {
    "highway": "bus_stop",
    "name": "Proudhon"
  }
},
{
  "type": "node",
  "id": 3094094657,
  "lat": 46.1531495,
  "lon": -1.1310811,
  "tags": {
    "highway": "bus_stop",
    "name": "Proudhon"
  }
},
{
  "type": "node",
  "id": 3095178490,
  "lat": 46.1581659,
  "lon": -1.1439174,
  "tags": {
    "highway": "bus_stop",
    "name": "La Rochelle - Hôpital",
    "public_transport": "platform"
  }
},
{
  "type": "node",
  "id": 3095185957,
  "lat": 46.1581837,
  "lon": -1.1455176,
  "tags": {
    "highway": "bus_stop",
    "name": "La Rochelle - Hôpital",
    "public_transport": "platform"
  }
},
{
  "type": "node",
  "id": 3095185958,
  "lat": 46.1584956,
  "lon": -1.1453110,
  "tags": {
    "highway": "bus_stop",
    "name": "La Rochelle - Hôpital",
    "public_transport": "platform",
    "shelter": "no",
    "tactile_paving": "no"
  }
},
{
  "type": "node",
  "id": 3095186743,
  "lat": 46.1615768,
  "lon": -1.1455491,
  "tags": {
    "bus": "yes",
    "highway": "bus_stop",
    "name": "Cité Administrative",
    "public_transport": "platform",
    "shelter": "no"
  }
},
{
  "type": "node",
  "id": 3095462642,
  "lat": 46.1392599,
  "lon": -1.1423651,
  "tags": {
    "highway": "bus_stop",
    "name": "Jean Bart"
  }
},
{
  "type": "node",
  "id": 3095462644,
  "lat": 46.1388058,
  "lon": -1.1400052,
  "tags": {
    "highway": "bus_stop",
    "name": "Nicolas Gargot"
  }
},
{
  "type": "node",
  "id": 3095464365,
  "lat": 46.1400321,
  "lon": -1.1382150,
  "tags": {
    "highway": "bus_stop",
    "name": "Bongraine"
  }
},
{
  "type": "node",
  "id": 3118095197,
  "lat": 46.1708610,
  "lon": -1.1244609,
  "tags": {
    "highway": "bus_stop",
    "name": "La Rochelle - Moulin des Justices",
    "operator": "Yelo",
    "public_transport": "platform",
    "shelter": "yes"
  }
},
{
  "type": "node",
  "id": 3967947650,
  "lat": 46.1592509,
  "lon": -1.1561139,
  "tags": {
    "covered": "no",
    "highway": "bus_stop",
    "name": "Banque de France",
    "passenger_information_display": "yes",
    "public_transport": "platform"
  }
},
{
  "type": "node",
  "id": 3967947651,
  "lat": 46.1629143,
  "lon": -1.1353820,
  "tags": {
    "highway": "bus_stop",
    "name": "Cimetière 1",
    "public_transport": "platform"
  }
},
{
  "type": "node",
  "id": 3967947652,
  "lat": 46.1632069,
  "lon": -1.1657392,
  "tags": {
    "highway": "bus_stop",
    "name": "Coligny"
  }
},
{
  "type": "node",
  "id": 3967947653,
  "lat": 46.1631559,
  "lon": -1.1378242,
  "tags": {
    "bench": "no",
    "highway": "bus_stop",
    "name": "Les Routiers",
    "public_transport": "platform",
    "shelter": "no"
  }
},
{
  "type": "node",
  "id": 4966302921,
  "lat": 46.1743276,
  "lon": -1.2191709,
  "tags": {
    "bus": "yes",
    "highway": "bus_stop",
    "name": "La Rochelle - Belvédère",
    "public_transport": "platform"
  }
},
{
  "type": "node",
  "id": 5368647550,
  "lat": 46.1743433,
  "lon": -1.2193634,
  "tags": {
    "bus": "yes",
    "highway": "bus_stop",
    "name": "La Rochelle - Belvédère",
    "public_transport": "platform",
    "shelter": "yes"
  }
},
{
  "type": "node",
  "id": 5376065777,
  "lat": 46.1628876,
  "lon": -1.1547318,
  "tags": {
    "bus": "yes",
    "highway": "bus_stop",
    "name": "La Rochelle - Place de Verdun A",
    "public_transport": "platform"
  }
},
{
  "type": "node",
  "id": 5376065778,
  "lat": 46.1625517,
  "lon": -1.1548170,
  "tags": {
    "bus": "yes",
    "highway": "bus_stop",
    "name": "La Rochelle - Place de Verdun E",
    "public_transport": "platform"
  }
},
{
  "type": "node",
  "id": 5403992032,
  "lat": 46.1765023,
  "lon": -1.1363539,
  "tags": {
    "highway": "bus_stop",
    "name": "La Rochelle - Hôpital Lafond",
    "public_transport": "platform",
    "shelter": "yes"
  }
},
{
  "type": "node",
  "id": 5403992033,
  "lat": 46.1740768,
  "lon": -1.1454577,
  "tags": {
    "highway": "bus_stop",
    "name": "La Rochelle - Place de Lafond",
    "public_transport": "platform",
    "shelter": "yes"
  }
},
{
  "type": "node",
  "id": 5417889567,
  "lat": 46.1457401,
  "lon": -1.1425704,
  "tags": {
    "highway": "bus_stop",
    "name": "La Rochelle - Octroi",
    "public_transport": "platform",
    "shelter": "yes"
  }
},
{
  "type": "node",
  "id": 5417889568,
  "lat": 46.1414872,
  "lon": -1.1390371,
  "tags": {
    "highway": "bus_stop",
    "name": "La Rochelle - La Courbe (Normandin)",
    "public_transport": "platform"
  }
},
{
  "type": "node",
  "id": 5418326703,
  "lat": 46.1627987,
  "lon": -1.1547639,
  "tags": {
    "bus": "yes",
    "highway": "bus_stop",
    "name": "La Rochelle - Place de Verdun B",
    "public_transport": "platform"
  }
},
{
  "type": "node",
  "id": 5418326704,
  "lat": 46.1627158,
  "lon": -1.1547799,
  "tags": {
    "bus": "yes",
    "highway": "bus_stop",
    "name": "La Rochelle - Place de Verdun C",
    "public_transport": "platform"
  }
},
{
  "type": "node",
  "id": 5418326705,
  "lat": 46.1626363,
  "lon": -1.1547997,
  "tags": {
    "bus": "yes",
    "highway": "bus_stop",
    "name": "La Rochelle - Place de Verdun D",
    "public_transport": "platform"
  }
},
{
  "type": "node",
  "id": 5418401925,
  "lat": 46.1667975,
  "lon": -1.1361576,
  "tags": {
    "highway": "bus_stop",
    "name": "La Rochelle - Patte d'Oie",
    "public_transport": "platform"
  }
},
{
  "type": "node",
  "id": 5434980651,
  "lat": 46.1630393,
  "lon": -1.1458954,
  "tags": {
    "bench": "yes",
    "bin": "yes",
    "bus": "yes",
    "highway": "bus_stop",
    "name": "Porte de Cougnes",
    "passenger_information_display": "yes",
    "public_transport": "platform",
    "shelter": "yes",
    "wheelchair": "yes"
  }
},
{
  "type": "node",
  "id": 6322971273,
  "lat": 46.1682141,
  "lon": -1.1318520,
  "tags": {
    "highway": "bus_stop",
    "name": "Iris",
    "passenger_information_display": "yes",
    "public_transport": "platform"
  }
},
{
  "type": "node",
  "id": 6322971275,
  "lat": 46.1584123,
  "lon": -1.1497329,
  "tags": {
    "bench": "yes",
    "bin": "no",
    "covered": "yes",
    "highway": "bus_stop",
    "name": "Dames Blanches (St Nicolas)",
    "passenger_information_display": "yes",
    "public_transport": "platform",
    "shelter": "yes"
  }
},
{
  "type": "node",
  "id": 6322971276,
  "lat": 46.1584560,
  "lon": -1.1506864,
  "tags": {
    "bench": "yes",
    "covered": "yes",
    "highway": "bus_stop",
    "name": "Dames Blanches (Saint-Sauveur)",
    "passenger_information_display": "yes",
    "public_transport": "platform",
    "shelter": "yes",
    "wheelchair": "yes"
  }
},
{
  "type": "node",
  "id": 6322971277,
  "lat": 46.1652071,
  "lon": -1.1427820,
  "tags": {
    "highway": "bus_stop",
    "name": "Cordeliers",
    "passenger_information_display": "yes",
    "public_transport": "platform"
  }
},
{
  "type": "node",
  "id": 6322971278,
  "lat": 46.1652693,
  "lon": -1.1429134,
  "tags": {
    "highway": "bus_stop",
    "name": "Cordeliers",
    "passenger_information_display": "yes",
    "public_transport": "platform"
  }
},
{
  "type": "node",
  "id": 6322971279,
  "lat": 46.1672830,
  "lon": -1.1396800,
  "tags": {
    "bench": "yes",
    "covered": "yes",
    "highway": "bus_stop",
    "name": "Cognehors",
    "passenger_information_display": "yes",
    "public_transport": "platform",
    "shelter": "yes"
  }
},
{
  "type": "node",
  "id": 6322971280,
  "lat": 46.1671892,
  "lon": -1.1405236,
  "tags": {
    "bench": "yes",
    "covered": "yes",
    "highway": "bus_stop",
    "name": "Cognehors",
    "passenger_information_display": "yes",
    "public_transport": "platform",
    "shelter": "yes"
  }
},
{
  "type": "node",
  "id": 6322971281,
  "lat": 46.1723855,
  "lon": -1.1246382,
  "tags": {
    "highway": "bus_stop",
    "name": "Bourgogne",
    "passenger_information_display": "yes",
    "public_transport": "platform"
  }
},
{
  "type": "node",
  "id": 6322971282,
  "lat": 46.1737683,
  "lon": -1.1274397,
  "tags": {
    "highway": "bus_stop",
    "name": "Clinique",
    "passenger_information_display": "yes",
    "public_transport": "platform"
  }
},
{
  "type": "node",
  "id": 6328770087,
  "lat": 46.1593304,
  "lon": -1.1415169,
  "tags": {
    "highway": "bus_stop",
    "name": "La Rochelle - Hôpital (Joffre)",
    "public_transport": "platform"
  }
},
{
  "type": "node",
  "id": 6328770088,
  "lat": 46.1594696,
  "lon": -1.1415805,
  "tags": {
    "highway": "bus_stop",
    "name": "La Rochelle - Hôpital (Joffre)",
    "public_transport": "platform"
  }
},
{
  "type": "node",
  "id": 6331422099,
  "lat": 46.1602140,
  "lon": -1.1472110,
  "tags": {
    "highway": "bus_stop",
    "name": "Arsenal",
    "public_transport": "platform",
    "shelter": "yes"
  }
},
{
  "type": "node",
  "id": 6914740568,
  "lat": 46.1642344,
  "lon": -1.1761433,
  "tags": {
    "bus": "yes",
    "highway": "bus_stop",
    "name": "Saint-Maurice",
    "public_transport": "platform"
  }
},
{
  "type": "node",
  "id": 7160476598,
  "lat": 46.1599627,
  "lon": -1.1460100,
  "tags": {
    "highway": "bus_stop",
    "name": "Saint Louis",
    "public_transport": "platform",
    "shelter": "no",
    "tactile_paving": "no"
  }
},
{
  "type": "node",
  "id": 8000609761,
  "lat": 46.1549952,
  "lon": -1.1807247,
  "tags": {
    "highway": "bus_stop",
    "name": "Ecole maritime"
  }
},
{
  "type": "node",
  "id": 9281102056,
  "lat": 46.1677861,
  "lon": -1.1157606,
  "tags": {
    "bench": "no",
    "bus": "yes",
    "highway": "bus_stop",
    "local_ref": "Ligne 7",
    "name": "Maison de Retraite",
    "network": "Yélo",
    "public_transport": "platform",
    "shelter": "no"
  }
}

  ]
}
