{
  "version": 0.6,
  "generator": "Overpass API 0.7.57.1 74a55df1",
  "osm3s": {
    "timestamp_osm_base": "2022-02-13T13:18:30Z",
    "timestamp_areas_base": "2022-02-13T02:36:10Z",
    "copyright": "The data included in this document is from www.openstreetmap.org. The data is made available under ODbL."
  },
  "elements": [

{
  "type": "node",
  "id": 60742530,
  "lat": 43.4352598,
  "lon": 6.7376718,
  "tags": {
    "bus": "yes",
    "highway": "bus_stop",
    "name": "Fréjus - Gare Routière",
    "public_transport": "stop_position"
  }
},
{
  "type": "node",
  "id": 60742537,
  "lat": 43.4377530,
  "lon": 6.7369729,
  "tags": {
    "bus": "yes",
    "highway": "bus_stop",
    "name": "Lagon Bleu",
    "public_transport": "stop_position"
  }
},
{
  "type": "node",
  "id": 60742547,
  "lat": 43.4416192,
  "lon": 6.7380631,
  "tags": {
    "bus": "yes",
    "highway": "bus_stop",
    "name": "Acampadou",
    "public_transport": "stop_position"
  }
},
{
  "type": "node",
  "id": 259977127,
  "lat": 43.4710163,
  "lon": 6.7322153,
  "tags": {
    "bus": "yes",
    "highway": "bus_stop",
    "name": "Zoo",
    "public_transport": "stop_position"
  }
},
{
  "type": "node",
  "id": 261130516,
  "lat": 43.4791784,
  "lon": 6.7320412,
  "tags": {
    "bus": "yes",
    "highway": "bus_stop",
    "name": "Lou Capitou",
    "public_transport": "stop_position"
  }
},
{
  "type": "node",
  "id": 261130693,
  "lat": 43.4673648,
  "lon": 6.7223640,
  "tags": {
    "bus": "yes",
    "highway": "bus_stop",
    "name": "Curebéasse",
    "public_transport": "stop_position"
  }
},
{
  "type": "node",
  "id": 261130759,
  "lat": 43.4637279,
  "lon": 6.7292463,
  "tags": {
    "bus": "yes",
    "highway": "bus_stop",
    "name": "Lachenaud",
    "public_transport": "stop_position"
  }
},
{
  "type": "node",
  "id": 261132273,
  "lat": 43.4473465,
  "lon": 6.7270382,
  "tags": {
    "bus": "yes",
    "highway": "bus_stop",
    "name": "Le Colombier",
    "public_transport": "stop_position"
  }
},
{
  "type": "node",
  "id": 261132879,
  "lat": 43.4420362,
  "lon": 6.7235377,
  "tags": {
    "bus": "yes",
    "highway": "bus_stop",
    "name": "Les Vernèdes",
    "public_transport": "stop_position"
  }
},
{
  "type": "node",
  "id": 307391727,
  "lat": 43.3811108,
  "lon": 6.7216040,
  "tags": {
    "bus": "yes",
    "highway": "bus_stop",
    "name": "Le Catalogne",
    "public_transport": "stop_position"
  }
},
{
  "type": "node",
  "id": 309060083,
  "lat": 43.4550854,
  "lon": 6.7722521,
  "tags": {
    "bus": "yes",
    "highway": "bus_stop",
    "name": "Grand Mas",
    "public_transport": "stop_position"
  }
},
{
  "type": "node",
  "id": 309060085,
  "lat": 43.4553924,
  "lon": 6.7703009,
  "tags": {
    "bus": "yes",
    "highway": "bus_stop",
    "name": "Grand Mas",
    "public_transport": "stop_position"
  }
},
{
  "type": "node",
  "id": 331214056,
  "lat": 43.4328601,
  "lon": 6.7275567,
  "tags": {
    "bus": "yes",
    "highway": "bus_stop",
    "name": "Blazy",
    "public_transport": "stop_position"
  }
},
{
  "type": "node",
  "id": 331217036,
  "lat": 43.3816358,
  "lon": 6.7149688,
  "tags": {
    "bus": "yes",
    "highway": "bus_stop",
    "name": "Miramar",
    "public_transport": "stop_position"
  }
},
{
  "type": "node",
  "id": 354933275,
  "lat": 43.4274431,
  "lon": 6.7475670,
  "tags": {
    "bus": "yes",
    "highway": "bus_stop",
    "name": "Fougasse",
    "public_transport": "stop_position"
  }
},
{
  "type": "node",
  "id": 354934343,
  "lat": 43.4282272,
  "lon": 6.7386579,
  "tags": {
    "bus": "yes",
    "highway": "bus_stop",
    "name": "Théâtre le Forum",
    "public_transport": "stop_position"
  }
},
{
  "type": "node",
  "id": 354935819,
  "lat": 43.4235997,
  "lon": 6.7557152,
  "tags": {
    "bus": "yes",
    "highway": "bus_stop",
    "name": "République (Arrêt Navette)",
    "public_transport": "stop_position"
  }
},
{
  "type": "node",
  "id": 354938677,
  "lat": 43.4266969,
  "lon": 6.7552584,
  "tags": {
    "bus": "yes",
    "highway": "bus_stop",
    "name": "Salle du Sextant",
    "public_transport": "stop_position"
  }
},
{
  "type": "node",
  "id": 354938776,
  "lat": 43.4268165,
  "lon": 6.7532059,
  "tags": {
    "bus": "yes",
    "highway": "bus_stop",
    "name": "Salle du Sextant",
    "public_transport": "stop_position"
  }
},
{
  "type": "node",
  "id": 354948750,
  "lat": 43.4263466,
  "lon": 6.7581319,
  "tags": {
    "bus": "yes",
    "highway": "bus_stop",
    "name": "Verlaine",
    "public_transport": "stop_position"
  }
},
{
  "type": "node",
  "id": 354949280,
  "lat": 43.4260663,
  "lon": 6.7618399,
  "tags": {
    "bus": "yes",
    "highway": "bus_stop",
    "name": "Victor Hugo",
    "public_transport": "stop_position"
  }
},
{
  "type": "node",
  "id": 355545423,
  "lat": 43.4311471,
  "lon": 6.7299143,
  "tags": {
    "bus": "yes",
    "highway": "bus_stop",
    "name": "Rose des Sables",
    "public_transport": "stop_position"
  }
},
{
  "type": "node",
  "id": 355548711,
  "lat": 43.4249274,
  "lon": 6.7393872,
  "tags": {
    "bus": "yes",
    "highway": "bus_stop",
    "name": "Villa Laurence",
    "public_transport": "stop_position"
  }
},
{
  "type": "node",
  "id": 355548717,
  "lat": 43.4205486,
  "lon": 6.7444599,
  "tags": {
    "bus": "yes",
    "highway": "bus_stop",
    "name": "L'Oiseau Bleu",
    "public_transport": "stop_position"
  }
},
{
  "type": "node",
  "id": 355639221,
  "lat": 43.4381594,
  "lon": 6.7508645,
  "tags": {
    "bus": "yes",
    "highway": "bus_stop",
    "name": "Hôpital Bonnet",
    "public_transport": "stop_position"
  }
},
{
  "type": "node",
  "id": 355639737,
  "lat": 43.4361957,
  "lon": 6.7594805,
  "tags": {
    "bus": "yes",
    "highway": "bus_stop",
    "name": "Les Ifs",
    "public_transport": "stop_position"
  }
},
{
  "type": "node",
  "id": 355849079,
  "lat": 43.4315642,
  "lon": 6.7522928,
  "tags": {
    "bus": "yes",
    "highway": "bus_stop",
    "name": "Tassigny Donnadieu",
    "public_transport": "stop_position"
  }
},
{
  "type": "node",
  "id": 355850734,
  "lat": 43.4291642,
  "lon": 6.7616847,
  "tags": {
    "bus": "yes",
    "highway": "bus_stop",
    "name": "La Gabelle",
    "public_transport": "stop_position"
  }
},
{
  "type": "node",
  "id": 355852752,
  "lat": 43.4348732,
  "lon": 6.7382707,
  "tags": {
    "bus": "yes",
    "highway": "bus_stop",
    "name": "XVe Corps",
    "public_transport": "stop_position"
  }
},
{
  "type": "node",
  "id": 355865066,
  "lat": 43.4344560,
  "lon": 6.7513895,
  "tags": {
    "bus": "yes",
    "highway": "bus_stop",
    "name": "Lou Mistralet",
    "public_transport": "stop_position"
  }
},
{
  "type": "node",
  "id": 355867702,
  "lat": 43.4391822,
  "lon": 6.7487369,
  "tags": {
    "bus": "yes",
    "highway": "bus_stop",
    "name": "Parking Hôpital",
    "public_transport": "stop_position"
  }
},
{
  "type": "node",
  "id": 364319359,
  "lat": 43.4472986,
  "lon": 6.7490403,
  "tags": {
    "bus": "yes",
    "highway": "bus_stop",
    "name": "Lac Aurélien",
    "public_transport": "stop_position"
  }
},
{
  "type": "node",
  "id": 669086544,
  "lat": 43.4500768,
  "lon": 6.7433580,
  "tags": {
    "bus": "yes",
    "highway": "bus_stop",
    "name": "Bellevue",
    "public_transport": "stop_position"
  }
},
{
  "type": "node",
  "id": 1232365514,
  "lat": 43.4337236,
  "lon": 6.7646421,
  "tags": {
    "bus": "yes",
    "highway": "bus_stop",
    "name": "Le Suveret",
    "public_transport": "stop_position"
  }
},
{
  "type": "node",
  "id": 1867015029,
  "lat": 43.4341620,
  "lon": 6.7379601,
  "tags": {
    "highway": "bus_stop"
  }
},
{
  "type": "node",
  "id": 1876154320,
  "lat": 43.4690832,
  "lon": 6.7360571,
  "tags": {
    "bus": "yes",
    "highway": "bus_stop",
    "name": "ZI du Capitou",
    "public_transport": "stop_position"
  }
},
{
  "type": "node",
  "id": 1998443386,
  "lat": 43.4221283,
  "lon": 6.7447161,
  "tags": {
    "bus": "yes",
    "highway": "bus_stop",
    "name": "Port Fréjus Ouest",
    "public_transport": "stop_position"
  }
},
{
  "type": "node",
  "id": 2484144438,
  "lat": 43.4504511,
  "lon": 6.7553844,
  "tags": {
    "bus": "yes",
    "highway": "bus_stop",
    "name": "Le Counillier",
    "public_transport": "stop_position"
  }
},
{
  "type": "node",
  "id": 2489760026,
  "lat": 43.4820527,
  "lon": 6.7159425,
  "tags": {
    "bus": "yes",
    "highway": "bus_stop",
    "name": "21ème RIMA",
    "public_transport": "stop_position"
  }
},
{
  "type": "node",
  "id": 2489783573,
  "lat": 43.4383794,
  "lon": 6.7210327,
  "tags": {
    "bus": "yes",
    "highway": "bus_stop",
    "name": "Les Nectarines",
    "public_transport": "stop_position"
  }
},
{
  "type": "node",
  "id": 2489783618,
  "lat": 43.4384914,
  "lon": 6.7209997,
  "tags": {
    "bus": "yes",
    "highway": "bus_stop",
    "name": "Les Nectarines",
    "public_transport": "stop_position"
  }
},
{
  "type": "node",
  "id": 2489806377,
  "lat": 43.4361737,
  "lon": 6.7229105,
  "tags": {
    "bus": "yes",
    "highway": "bus_stop",
    "name": "SATAC",
    "public_transport": "stop_position"
  }
},
{
  "type": "node",
  "id": 2493158891,
  "lat": 43.4521888,
  "lon": 6.7572234,
  "tags": {
    "bus": "yes",
    "highway": "bus_stop",
    "name": "Roc Mare",
    "public_transport": "stop_position"
  }
},
{
  "type": "node",
  "id": 2493168429,
  "lat": 43.4680011,
  "lon": 6.7654843,
  "tags": {
    "bus": "yes",
    "highway": "bus_stop",
    "name": "Route de Cannes",
    "public_transport": "stop_position"
  }
},
{
  "type": "node",
  "id": 2493479519,
  "lat": 43.4640944,
  "lon": 6.7605078,
  "tags": {
    "bus": "yes",
    "highway": "bus_stop",
    "name": "Muscadière Nord",
    "public_transport": "stop_position"
  }
},
{
  "type": "node",
  "id": 2493479544,
  "lat": 43.4678517,
  "lon": 6.7443098,
  "tags": {
    "highway": "bus_stop"
  }
},
{
  "type": "node",
  "id": 2493479571,
  "lat": 43.4676024,
  "lon": 6.7443902,
  "tags": {
    "highway": "bus_stop"
  }
},
{
  "type": "node",
  "id": 3392698229,
  "lat": 43.4093959,
  "lon": 6.7242918,
  "tags": {
    "bus": "yes",
    "highway": "bus_stop",
    "name": "Chemin des Etangs",
    "public_transport": "stop_position"
  }
},
{
  "type": "node",
  "id": 3829506696,
  "lat": 43.5226803,
  "lon": 6.8656254,
  "tags": {
    "highway": "bus_stop"
  }
},
{
  "type": "node",
  "id": 4993325548,
  "lat": 43.4483363,
  "lon": 6.7451873,
  "tags": {
    "bus": "yes",
    "highway": "bus_stop",
    "name": "Auberge de Jeunesse",
    "public_transport": "platform"
  }
},
{
  "type": "node",
  "id": 4993336469,
  "lat": 43.4396109,
  "lon": 6.7436047,
  "tags": {
    "bus": "yes",
    "highway": "bus_stop",
    "name": "Les Chênes",
    "public_transport": "stop_position"
  }
},
{
  "type": "node",
  "id": 4993336472,
  "lat": 43.4396523,
  "lon": 6.7437295,
  "tags": {
    "bus": "yes",
    "highway": "bus_stop",
    "name": "Les Chênes",
    "public_transport": "stop_position"
  }
},
{
  "type": "node",
  "id": 5920023615,
  "lat": 43.4905362,
  "lon": 6.7117435,
  "tags": {
    "bus": "yes",
    "highway": "bus_stop",
    "name": "Pin de la Lègue",
    "public_transport": "stop_position"
  }
},
{
  "type": "node",
  "id": 6061197913,
  "lat": 43.4312813,
  "lon": 6.7356494,
  "tags": {
    "bus": "yes",
    "highway": "bus_stop",
    "name": "Montgolfier Centre Ville",
    "public_transport": "stop_position"
  }
},
{
  "type": "node",
  "id": 6074307877,
  "lat": 43.4382298,
  "lon": 6.7557248,
  "tags": {
    "bus": "yes",
    "highway": "bus_stop",
    "name": "Collège Léotard",
    "public_transport": "stop_position"
  }
},
{
  "type": "node",
  "id": 6074308302,
  "lat": 43.4383808,
  "lon": 6.7557295,
  "tags": {
    "bus": "yes",
    "highway": "bus_stop",
    "name": "Collège Léotard",
    "public_transport": "stop_position"
  }
},
{
  "type": "node",
  "id": 6074379128,
  "lat": 43.4107262,
  "lon": 6.7077476,
  "tags": {
    "bus": "yes",
    "highway": "bus_stop",
    "name": "Saint-Aygulf Grands Châteaux",
    "public_transport": "stop_position"
  }
},
{
  "type": "node",
  "id": 6076859498,
  "lat": 43.4440337,
  "lon": 6.7551669,
  "tags": {
    "bus": "yes",
    "highway": "bus_stop",
    "name": "Lycée Camus",
    "public_transport": "stop_position"
  }
},
{
  "type": "node",
  "id": 6076859499,
  "lat": 43.4439948,
  "lon": 6.7544443,
  "tags": {
    "bus": "yes",
    "highway": "bus_stop",
    "name": "Lycée Camus",
    "public_transport": "stop_position"
  }
},
{
  "type": "node",
  "id": 6080303211,
  "lat": 43.4646289,
  "lon": 6.7458847,
  "tags": {
    "bus": "yes",
    "highway": "bus_stop",
    "name": "Saint-Vincent",
    "public_transport": "stop_position"
  }
},
{
  "type": "node",
  "id": 6083232748,
  "lat": 43.4353540,
  "lon": 6.7372853,
  "tags": {
    "bus": "yes",
    "highway": "bus_stop",
    "local_ref": "C",
    "name": "Fréjus - Gare Routière",
    "public_transport": "stop_position"
  }
},
{
  "type": "node",
  "id": 6083329778,
  "lat": 43.4593826,
  "lon": 6.7573941,
  "tags": {
    "bus": "yes",
    "highway": "bus_stop",
    "name": "Pinède Romane",
    "public_transport": "stop_position"
  }
},
{
  "type": "node",
  "id": 6083402858,
  "lat": 43.4456632,
  "lon": 6.7679150,
  "tags": {
    "bus": "yes",
    "highway": "bus_stop",
    "name": "Villa Clythia",
    "public_transport": "stop_position"
  }
},
{
  "type": "node",
  "id": 6083402881,
  "lat": 43.4485452,
  "lon": 6.7660524,
  "tags": {
    "bus": "yes",
    "highway": "bus_stop",
    "name": "Vieille Bergerie",
    "public_transport": "stop_position"
  }
},
{
  "type": "node",
  "id": 6083404698,
  "lat": 43.4480932,
  "lon": 6.7658234,
  "tags": {
    "bus": "yes",
    "highway": "bus_stop",
    "name": "Vieille Bergerie",
    "public_transport": "stop_position"
  }
},
{
  "type": "node",
  "id": 6125034938,
  "lat": 43.4353456,
  "lon": 6.7374707,
  "tags": {
    "bus": "yes",
    "highway": "bus_stop",
    "local_ref": "B",
    "name": "Fréjus - Gare Routière",
    "public_transport": "stop_position"
  }
},
{
  "type": "node",
  "id": 6139274582,
  "lat": 43.4352947,
  "lon": 6.7373737,
  "tags": {
    "bus": "yes",
    "highway": "bus_stop",
    "local_ref": "A",
    "name": "Fréjus - Gare Routière",
    "public_transport": "stop_position"
  }
},
{
  "type": "node",
  "id": 8265290436,
  "lat": 43.4190961,
  "lon": 6.7465839,
  "tags": {
    "bus": "yes",
    "highway": "bus_stop",
    "name": "Base Nature François Leotard",
    "public_transport": "stop_position"
  }
},
{
  "type": "node",
  "id": 8542534507,
  "lat": 43.4354469,
  "lon": 6.7372474,
  "tags": {
    "bus": "yes",
    "highway": "bus_stop",
    "local_ref": "E",
    "name": "Fréjus - Gare Routière",
    "public_transport": "stop_position"
  }
},
{
  "type": "node",
  "id": 8542534508,
  "lat": 43.4354991,
  "lon": 6.7373484,
  "tags": {
    "bus": "yes",
    "highway": "bus_stop",
    "local_ref": "F",
    "name": "Fréjus - Gare Routière",
    "public_transport": "stop_position"
  }
},
{
  "type": "node",
  "id": 8542534509,
  "lat": 43.4354228,
  "lon": 6.7374195,
  "tags": {
    "bus": "yes",
    "highway": "bus_stop",
    "local_ref": "D",
    "name": "Fréjus - Gare Routière",
    "public_transport": "stop_position"
  }
},
{
  "type": "node",
  "id": 8542534514,
  "lat": 43.4347353,
  "lon": 6.7381081,
  "tags": {
    "bus": "yes",
    "highway": "bus_stop",
    "name": "XVe Corps",
    "public_transport": "stop_position"
  }
},
{
  "type": "node",
  "id": 8551124492,
  "lat": 43.4246071,
  "lon": 6.7633322,
  "tags": {
    "bus": "yes",
    "highway": "bus_stop",
    "name": "Les Sablettes",
    "public_transport": "stop_position"
  }
},
{
  "type": "node",
  "id": 8551124493,
  "lat": 43.4245830,
  "lon": 6.7628026,
  "tags": {
    "bus": "yes",
    "highway": "bus_stop",
    "name": "Les Sablettes",
    "public_transport": "stop_position"
  }
},
{
  "type": "node",
  "id": 8551124494,
  "lat": 43.4259412,
  "lon": 6.7622929,
  "tags": {
    "bus": "yes",
    "highway": "bus_stop",
    "name": "Victor Hugo",
    "public_transport": "stop_position"
  }
},
{
  "type": "node",
  "id": 8551124495,
  "lat": 43.4264046,
  "lon": 6.7582183,
  "tags": {
    "bus": "yes",
    "highway": "bus_stop",
    "name": "Verlaine",
    "public_transport": "stop_position"
  }
},
{
  "type": "node",
  "id": 8551124496,
  "lat": 43.4274514,
  "lon": 6.7466791,
  "tags": {
    "bus": "yes",
    "highway": "bus_stop",
    "name": "Fougasse",
    "public_transport": "stop_position"
  }
},
{
  "type": "node",
  "id": 8551124497,
  "lat": 43.4279528,
  "lon": 6.7421178,
  "tags": {
    "bus": "yes",
    "highway": "bus_stop",
    "name": "Lanterne d'Auguste",
    "public_transport": "stop_position"
  }
},
{
  "type": "node",
  "id": 8551124498,
  "lat": 43.4278402,
  "lon": 6.7423472,
  "tags": {
    "bus": "yes",
    "highway": "bus_stop",
    "name": "Lanterne d'Auguste",
    "public_transport": "stop_position"
  }
},
{
  "type": "node",
  "id": 8551124499,
  "lat": 43.4281225,
  "lon": 6.7371837,
  "tags": {
    "bus": "yes",
    "highway": "bus_stop",
    "name": "Théâtre le Forum",
    "public_transport": "stop_position"
  }
},
{
  "type": "node",
  "id": 8551124500,
  "lat": 43.4301316,
  "lon": 6.7354538,
  "tags": {
    "bus": "yes",
    "highway": "bus_stop",
    "name": "Eden Park",
    "public_transport": "stop_position"
  }
},
{
  "type": "node",
  "id": 8551124501,
  "lat": 43.4300696,
  "lon": 6.7353573,
  "tags": {
    "bus": "yes",
    "highway": "bus_stop",
    "name": "Eden Park",
    "public_transport": "stop_position"
  }
},
{
  "type": "node",
  "id": 8551124502,
  "lat": 43.4295002,
  "lon": 6.7326855,
  "tags": {
    "bus": "yes",
    "highway": "bus_stop",
    "name": "Les Eucalyptus",
    "public_transport": "stop_position"
  }
},
{
  "type": "node",
  "id": 8551124503,
  "lat": 43.4294066,
  "lon": 6.7334957,
  "tags": {
    "bus": "yes",
    "highway": "bus_stop",
    "name": "Les Eucalyptus",
    "public_transport": "stop_position"
  }
},
{
  "type": "node",
  "id": 8551124504,
  "lat": 43.4301695,
  "lon": 6.7305199,
  "tags": {
    "bus": "yes",
    "highway": "bus_stop",
    "name": "Salle des Sports Villeneuve",
    "public_transport": "stop_position"
  }
},
{
  "type": "node",
  "id": 8551124506,
  "lat": 43.4314153,
  "lon": 6.7299550,
  "tags": {
    "bus": "yes",
    "highway": "bus_stop",
    "name": "Rose des Sables",
    "public_transport": "stop_position"
  }
},
{
  "type": "node",
  "id": 8551124507,
  "lat": 43.4328658,
  "lon": 6.7273233,
  "tags": {
    "bus": "yes",
    "highway": "bus_stop",
    "name": "Blazy",
    "public_transport": "stop_position"
  }
},
{
  "type": "node",
  "id": 8551124508,
  "lat": 43.4350964,
  "lon": 6.7274327,
  "tags": {
    "bus": "yes",
    "highway": "bus_stop",
    "name": "Parking Relais des Arènes",
    "public_transport": "stop_position"
  }
},
{
  "type": "node",
  "id": 8551124509,
  "lat": 43.4352366,
  "lon": 6.7276987,
  "tags": {
    "bus": "yes",
    "highway": "bus_stop",
    "name": "Parking Relais des Arènes",
    "public_transport": "stop_position"
  }
},
{
  "type": "node",
  "id": 8551124510,
  "lat": 43.4378491,
  "lon": 6.7313449,
  "tags": {
    "bus": "yes",
    "highway": "bus_stop",
    "name": "Le Toril",
    "public_transport": "stop_position"
  }
},
{
  "type": "node",
  "id": 8551124516,
  "lat": 43.4363489,
  "lon": 6.7298750,
  "tags": {
    "bus": "yes",
    "highway": "bus_stop",
    "name": "Agachon",
    "public_transport": "stop_position"
  }
},
{
  "type": "node",
  "id": 8551130018,
  "lat": 43.4404886,
  "lon": 6.7377788,
  "tags": {
    "bus": "yes",
    "highway": "bus_stop",
    "name": "Gustave Bret",
    "public_transport": "stop_position"
  }
},
{
  "type": "node",
  "id": 8551130019,
  "lat": 43.4375099,
  "lon": 6.7372310,
  "tags": {
    "bus": "yes",
    "highway": "bus_stop",
    "name": "Lagon Bleu",
    "public_transport": "stop_position"
  }
},
{
  "type": "node",
  "id": 8551130020,
  "lat": 43.4375913,
  "lon": 6.7413897,
  "tags": {
    "bus": "yes",
    "highway": "bus_stop",
    "name": "Parking Relais Sainte-Croix",
    "public_transport": "stop_position"
  }
},
{
  "type": "node",
  "id": 8551130021,
  "lat": 43.4375215,
  "lon": 6.7412349,
  "tags": {
    "bus": "yes",
    "highway": "bus_stop",
    "name": "Parking Relais Sainte-Croix",
    "public_transport": "stop_position"
  }
},
{
  "type": "node",
  "id": 8551130022,
  "lat": 43.4411531,
  "lon": 6.7454216,
  "tags": {
    "bus": "yes",
    "highway": "bus_stop",
    "name": "Saint-Lambert",
    "public_transport": "stop_position"
  }
},
{
  "type": "node",
  "id": 8551130023,
  "lat": 43.4468456,
  "lon": 6.7524760,
  "tags": {
    "bus": "yes",
    "highway": "bus_stop",
    "name": "Mémorial d'Indochine",
    "public_transport": "stop_position"
  }
},
{
  "type": "node",
  "id": 8551130024,
  "lat": 43.4451143,
  "lon": 6.7554599,
  "tags": {
    "bus": "yes",
    "highway": "bus_stop",
    "name": "Lycée Galliéni",
    "public_transport": "stop_position"
  }
},
{
  "type": "node",
  "id": 8551130025,
  "lat": 43.4453598,
  "lon": 6.7551921,
  "tags": {
    "bus": "yes",
    "highway": "bus_stop",
    "name": "Lycée Galliéni",
    "public_transport": "stop_position"
  }
},
{
  "type": "node",
  "id": 8551146627,
  "lat": 43.4277071,
  "lon": 6.7448304,
  "tags": {
    "bus": "yes",
    "highway": "bus_stop",
    "name": "La Provence",
    "public_transport": "stop_position"
  }
},
{
  "type": "node",
  "id": 8554564285,
  "lat": 43.4680212,
  "lon": 6.7654363,
  "tags": {
    "bus": "yes",
    "highway": "bus_stop",
    "name": "Route de Cannes",
    "public_transport": "stop_position"
  }
},
{
  "type": "node",
  "id": 8554564286,
  "lat": 43.4680747,
  "lon": 6.7658974,
  "tags": {
    "bus": "yes",
    "highway": "bus_stop",
    "name": "Chapelle Cocteau",
    "public_transport": "stop_position"
  }
},
{
  "type": "node",
  "id": 8554564287,
  "lat": 43.4677637,
  "lon": 6.7661472,
  "tags": {
    "bus": "yes",
    "highway": "bus_stop",
    "name": "Chapelle Cocteau",
    "public_transport": "stop_position"
  }
},
{
  "type": "node",
  "id": 8554564288,
  "lat": 43.4660243,
  "lon": 6.7632352,
  "tags": {
    "bus": "yes",
    "highway": "bus_stop",
    "name": "Destremeau",
    "public_transport": "stop_position"
  }
},
{
  "type": "node",
  "id": 8554564289,
  "lat": 43.4657662,
  "lon": 6.7629655,
  "tags": {
    "bus": "yes",
    "highway": "bus_stop",
    "name": "Destremeau",
    "public_transport": "stop_position"
  }
},
{
  "type": "node",
  "id": 8554564290,
  "lat": 43.4643951,
  "lon": 6.7609363,
  "tags": {
    "bus": "yes",
    "highway": "bus_stop",
    "name": "Muscadière Nord",
    "public_transport": "stop_position"
  }
},
{
  "type": "node",
  "id": 8554564291,
  "lat": 43.4614364,
  "lon": 6.7597255,
  "tags": {
    "bus": "yes",
    "highway": "bus_stop",
    "name": "Les Bosquets",
    "public_transport": "stop_position"
  }
},
{
  "type": "node",
  "id": 8554564292,
  "lat": 43.4620920,
  "lon": 6.7600077,
  "tags": {
    "bus": "yes",
    "highway": "bus_stop",
    "name": "Les Bosquets",
    "public_transport": "stop_position"
  }
},
{
  "type": "node",
  "id": 8554564293,
  "lat": 43.4598461,
  "lon": 6.7577603,
  "tags": {
    "bus": "yes",
    "highway": "bus_stop",
    "name": "Pinède Romane",
    "public_transport": "stop_position"
  }
},
{
  "type": "node",
  "id": 8554564294,
  "lat": 43.4572075,
  "lon": 6.7571694,
  "tags": {
    "bus": "yes",
    "highway": "bus_stop",
    "name": "Les Jardins de César",
    "public_transport": "stop_position"
  }
},
{
  "type": "node",
  "id": 8554564295,
  "lat": 43.4571983,
  "lon": 6.7570910,
  "tags": {
    "bus": "yes",
    "highway": "bus_stop",
    "name": "Les Jardins de César",
    "public_transport": "stop_position"
  }
},
{
  "type": "node",
  "id": 8554564296,
  "lat": 43.4530592,
  "lon": 6.7566090,
  "tags": {
    "bus": "yes",
    "highway": "bus_stop",
    "name": "Héliotrope",
    "public_transport": "stop_position"
  }
},
{
  "type": "node",
  "id": 8554564297,
  "lat": 43.4527224,
  "lon": 6.7566061,
  "tags": {
    "bus": "yes",
    "highway": "bus_stop",
    "name": "Héliotrope",
    "public_transport": "stop_position"
  }
},
{
  "type": "node",
  "id": 8554564298,
  "lat": 43.4497591,
  "lon": 6.7545867,
  "tags": {
    "bus": "yes",
    "highway": "bus_stop",
    "name": "Le Counillier",
    "public_transport": "stop_position"
  }
},
{
  "type": "node",
  "id": 8554564299,
  "lat": 43.4421905,
  "lon": 6.7534363,
  "tags": {
    "bus": "yes",
    "highway": "bus_stop",
    "name": "Les Acacias",
    "public_transport": "stop_position"
  }
},
{
  "type": "node",
  "id": 8554564300,
  "lat": 43.4381195,
  "lon": 6.7513810,
  "tags": {
    "bus": "yes",
    "highway": "bus_stop",
    "name": "Hôpital Bonnet",
    "public_transport": "stop_position"
  }
},
{
  "type": "node",
  "id": 8554564301,
  "lat": 43.4392594,
  "lon": 6.7461734,
  "tags": {
    "bus": "yes",
    "highway": "bus_stop",
    "name": "André Léotard",
    "public_transport": "stop_position"
  }
},
{
  "type": "node",
  "id": 8554564302,
  "lat": 43.4393221,
  "lon": 6.7458264,
  "tags": {
    "bus": "yes",
    "highway": "bus_stop",
    "name": "André Léotard",
    "public_transport": "stop_position"
  }
},
{
  "type": "node",
  "id": 8554564315,
  "lat": 43.4348163,
  "lon": 6.7444608,
  "tags": {
    "bus": "yes",
    "highway": "bus_stop",
    "name": "Villa Marie",
    "public_transport": "stop_position"
  }
},
{
  "type": "node",
  "id": 8554564316,
  "lat": 43.4345045,
  "lon": 6.7442701,
  "tags": {
    "bus": "yes",
    "highway": "bus_stop",
    "name": "Thoron",
    "public_transport": "stop_position"
  }
},
{
  "type": "node",
  "id": 8554568817,
  "lat": 43.4326267,
  "lon": 6.7483853,
  "tags": {
    "bus": "yes",
    "highway": "bus_stop",
    "name": "Sécurité Sociale",
    "public_transport": "stop_position"
  }
},
{
  "type": "node",
  "id": 8554568818,
  "lat": 43.4325406,
  "lon": 6.7488593,
  "tags": {
    "bus": "yes",
    "highway": "bus_stop",
    "name": "Sécurité Sociale",
    "public_transport": "stop_position"
  }
},
{
  "type": "node",
  "id": 8554568819,
  "lat": 43.4316534,
  "lon": 6.7521035,
  "tags": {
    "bus": "yes",
    "highway": "bus_stop",
    "name": "Tassigny Donnadieu",
    "public_transport": "stop_position"
  }
},
{
  "type": "node",
  "id": 8554568820,
  "lat": 43.4305390,
  "lon": 6.7563412,
  "tags": {
    "bus": "yes",
    "highway": "bus_stop",
    "name": "Le Ligure",
    "public_transport": "stop_position"
  }
},
{
  "type": "node",
  "id": 8554568821,
  "lat": 43.4305566,
  "lon": 6.7561271,
  "tags": {
    "bus": "yes",
    "highway": "bus_stop",
    "name": "Le Ligure",
    "public_transport": "stop_position"
  }
},
{
  "type": "node",
  "id": 8554568822,
  "lat": 43.4298848,
  "lon": 6.7588995,
  "tags": {
    "bus": "yes",
    "highway": "bus_stop",
    "name": "L'Église",
    "public_transport": "stop_position"
  }
},
{
  "type": "node",
  "id": 8554568823,
  "lat": 43.4290712,
  "lon": 6.7623682,
  "tags": {
    "bus": "yes",
    "highway": "bus_stop",
    "name": "La Gabelle",
    "public_transport": "stop_position"
  }
},
{
  "type": "node",
  "id": 8615073250,
  "lat": 43.4325517,
  "lon": 6.7351225,
  "tags": {
    "bus": "yes",
    "highway": "bus_stop",
    "name": "Place du Marché",
    "public_transport": "stop_position"
  }
},
{
  "type": "node",
  "id": 8615073251,
  "lat": 43.4321524,
  "lon": 6.7372538,
  "tags": {
    "bus": "yes",
    "highway": "bus_stop",
    "name": "Grisolle",
    "public_transport": "stop_position"
  }
},
{
  "type": "node",
  "id": 8615073252,
  "lat": 43.4327313,
  "lon": 6.7420732,
  "tags": {
    "bus": "yes",
    "highway": "bus_stop",
    "name": "La Poste",
    "public_transport": "stop_position"
  }
},
{
  "type": "node",
  "id": 8615073253,
  "lat": 43.4328102,
  "lon": 6.7418990,
  "tags": {
    "bus": "yes",
    "highway": "bus_stop",
    "name": "La Poste",
    "public_transport": "stop_position"
  }
},
{
  "type": "node",
  "id": 8615073254,
  "lat": 43.4315201,
  "lon": 6.7459838,
  "tags": {
    "bus": "yes",
    "highway": "bus_stop",
    "name": "Hôtel des Impôts",
    "public_transport": "stop_position"
  }
},
{
  "type": "node",
  "id": 8615073255,
  "lat": 43.4311652,
  "lon": 6.7494236,
  "tags": {
    "bus": "yes",
    "highway": "bus_stop",
    "name": "L'Avélan",
    "public_transport": "stop_position"
  }
},
{
  "type": "node",
  "id": 8615073256,
  "lat": 43.4311188,
  "lon": 6.7493143,
  "tags": {
    "bus": "yes",
    "highway": "bus_stop",
    "name": "L'Avélan",
    "public_transport": "stop_position"
  }
},
{
  "type": "node",
  "id": 8615073257,
  "lat": 43.4259252,
  "lon": 6.7486618,
  "tags": {
    "bus": "yes",
    "highway": "bus_stop",
    "name": "Paul Arène",
    "public_transport": "stop_position"
  }
},
{
  "type": "node",
  "id": 8615073259,
  "lat": 43.4247128,
  "lon": 6.7515468,
  "tags": {
    "bus": "yes",
    "highway": "bus_stop",
    "name": "Hippolyte Fabre",
    "public_transport": "stop_position"
  }
},
{
  "type": "node",
  "id": 8615073260,
  "lat": 43.4227161,
  "lon": 6.7539205,
  "tags": {
    "bus": "yes",
    "highway": "bus_stop",
    "name": "Oasis",
    "public_transport": "stop_position"
  }
},
{
  "type": "node",
  "id": 8615073261,
  "lat": 43.4228044,
  "lon": 6.7538621,
  "tags": {
    "bus": "yes",
    "highway": "bus_stop",
    "name": "Oasis",
    "public_transport": "stop_position"
  }
},
{
  "type": "node",
  "id": 8615073262,
  "lat": 43.4238987,
  "lon": 6.7574335,
  "tags": {
    "bus": "yes",
    "highway": "bus_stop",
    "name": "République",
    "public_transport": "stop_position"
  }
},
{
  "type": "node",
  "id": 8615073263,
  "lat": 43.4238645,
  "lon": 6.7568495,
  "tags": {
    "bus": "yes",
    "highway": "bus_stop",
    "name": "République",
    "public_transport": "stop_position"
  }
},
{
  "type": "node",
  "id": 8615073264,
  "lat": 43.4242653,
  "lon": 6.7589773,
  "tags": {
    "bus": "yes",
    "highway": "bus_stop",
    "name": "Boulevard de la Libération",
    "public_transport": "stop_position"
  }
},
{
  "type": "node",
  "id": 8615073265,
  "lat": 43.4245383,
  "lon": 6.7597073,
  "tags": {
    "bus": "yes",
    "highway": "bus_stop",
    "name": "Boulevard de la Libération",
    "public_transport": "stop_position"
  }
},
{
  "type": "node",
  "id": 8615073267,
  "lat": 43.4235809,
  "lon": 6.7559830,
  "tags": {
    "bus": "yes",
    "highway": "bus_stop",
    "name": "République (Arrêt Navette)",
    "public_transport": "stop_position"
  }
},
{
  "type": "node",
  "id": 8615321716,
  "lat": 43.4843344,
  "lon": 6.7163354,
  "tags": {
    "bus": "yes",
    "highway": "bus_stop",
    "name": "Holiday Green",
    "public_transport": "stop_position"
  }
},
{
  "type": "node",
  "id": 8615331117,
  "lat": 43.4842077,
  "lon": 6.7163393,
  "tags": {
    "bus": "yes",
    "highway": "bus_stop",
    "name": "Holiday Green",
    "public_transport": "stop_position"
  }
},
{
  "type": "node",
  "id": 8615331118,
  "lat": 43.4696038,
  "lon": 6.7207586,
  "tags": {
    "bus": "yes",
    "highway": "bus_stop",
    "name": "Musée Militaire",
    "public_transport": "stop_position"
  }
},
{
  "type": "node",
  "id": 8615331119,
  "lat": 43.4690530,
  "lon": 6.7267758,
  "tags": {
    "bus": "yes",
    "highway": "bus_stop",
    "name": "Pôle BTP",
    "public_transport": "stop_position"
  }
},
{
  "type": "node",
  "id": 8615331120,
  "lat": 43.4693371,
  "lon": 6.7273317,
  "tags": {
    "bus": "yes",
    "highway": "bus_stop",
    "name": "Pôle BTP",
    "public_transport": "stop_position"
  }
},
{
  "type": "node",
  "id": 8615331121,
  "lat": 43.4715427,
  "lon": 6.7330244,
  "tags": {
    "bus": "yes",
    "highway": "bus_stop",
    "name": "Zoo",
    "public_transport": "stop_position"
  }
},
{
  "type": "node",
  "id": 8615331122,
  "lat": 43.4793759,
  "lon": 6.7340097,
  "tags": {
    "bus": "yes",
    "highway": "bus_stop",
    "name": "Domaine du Capitou",
    "public_transport": "stop_position"
  }
},
{
  "type": "node",
  "id": 8615331124,
  "lat": 43.4674273,
  "lon": 6.7220797,
  "tags": {
    "bus": "yes",
    "highway": "bus_stop",
    "name": "Curebéasse",
    "public_transport": "stop_position"
  }
},
{
  "type": "node",
  "id": 8615331125,
  "lat": 43.4642342,
  "lon": 6.7246854,
  "tags": {
    "bus": "yes",
    "highway": "bus_stop",
    "name": "La Baume",
    "public_transport": "stop_position"
  }
},
{
  "type": "node",
  "id": 8615331126,
  "lat": 43.4636764,
  "lon": 6.7250160,
  "tags": {
    "bus": "yes",
    "highway": "bus_stop",
    "name": "La Baume",
    "public_transport": "stop_position"
  }
},
{
  "type": "node",
  "id": 8615331127,
  "lat": 43.4665359,
  "lon": 6.7316561,
  "tags": {
    "bus": "yes",
    "highway": "bus_stop",
    "name": "Pôle Activité Jean-Louis",
    "public_transport": "stop_position"
  }
},
{
  "type": "node",
  "id": 8615331128,
  "lat": 43.4570119,
  "lon": 6.7281681,
  "tags": {
    "bus": "yes",
    "highway": "bus_stop",
    "name": "Caïs Écoles",
    "public_transport": "stop_position"
  }
},
{
  "type": "node",
  "id": 8615331129,
  "lat": 43.4568541,
  "lon": 6.7281623,
  "tags": {
    "bus": "yes",
    "highway": "bus_stop",
    "name": "Caïs Écoles",
    "public_transport": "stop_position"
  }
},
{
  "type": "node",
  "id": 8615331130,
  "lat": 43.4527914,
  "lon": 6.7264125,
  "tags": {
    "bus": "yes",
    "highway": "bus_stop",
    "name": "Village Vacances",
    "public_transport": "stop_position"
  }
},
{
  "type": "node",
  "id": 8615331131,
  "lat": 43.4540200,
  "lon": 6.7268767,
  "tags": {
    "bus": "yes",
    "highway": "bus_stop",
    "name": "Village Vacances",
    "public_transport": "stop_position"
  }
},
{
  "type": "node",
  "id": 8615331132,
  "lat": 43.4504701,
  "lon": 6.7275235,
  "tags": {
    "bus": "yes",
    "highway": "bus_stop",
    "name": "Le Bravet",
    "public_transport": "stop_position"
  }
},
{
  "type": "node",
  "id": 8615331133,
  "lat": 43.4502859,
  "lon": 6.7275888,
  "tags": {
    "bus": "yes",
    "highway": "bus_stop",
    "name": "Le Bravet",
    "public_transport": "stop_position"
  }
},
{
  "type": "node",
  "id": 8615331134,
  "lat": 43.4431902,
  "lon": 6.7246909,
  "tags": {
    "bus": "yes",
    "highway": "bus_stop",
    "name": "Les Vernèdes",
    "public_transport": "stop_position"
  }
},
{
  "type": "node",
  "id": 8615331135,
  "lat": 43.4324254,
  "lon": 6.7251065,
  "tags": {
    "bus": "yes",
    "highway": "bus_stop",
    "name": "Rond-Point des Harkis",
    "public_transport": "stop_position"
  }
},
{
  "type": "node",
  "id": 8615331136,
  "lat": 43.4325060,
  "lon": 6.7252512,
  "tags": {
    "bus": "yes",
    "highway": "bus_stop",
    "name": "Rond-Point des Harkis",
    "public_transport": "stop_position"
  }
},
{
  "type": "node",
  "id": 8615331137,
  "lat": 43.4283695,
  "lon": 6.7295860,
  "tags": {
    "bus": "yes",
    "highway": "bus_stop",
    "name": "Collège Villeneuve",
    "public_transport": "stop_position"
  }
},
{
  "type": "node",
  "id": 8615331138,
  "lat": 43.4281633,
  "lon": 6.7294054,
  "tags": {
    "bus": "yes",
    "highway": "bus_stop",
    "name": "Collège Villeneuve",
    "public_transport": "stop_position"
  }
},
{
  "type": "node",
  "id": 8615331139,
  "lat": 43.4311054,
  "lon": 6.7329047,
  "tags": {
    "bus": "yes",
    "highway": "bus_stop",
    "name": "Les Hespérides",
    "public_transport": "stop_position"
  }
},
{
  "type": "node",
  "id": 8615331140,
  "lat": 43.4320352,
  "lon": 6.7376795,
  "tags": {
    "bus": "yes",
    "highway": "bus_stop",
    "name": "Porte d'Orée",
    "public_transport": "stop_position"
  }
},
{
  "type": "node",
  "id": 8615331141,
  "lat": 43.4317755,
  "lon": 6.7373640,
  "tags": {
    "bus": "yes",
    "highway": "bus_stop",
    "name": "Porte d'Orée",
    "public_transport": "stop_position"
  }
},
{
  "type": "node",
  "id": 8615331144,
  "lat": 43.4343263,
  "lon": 6.7346994,
  "tags": {
    "bus": "yes",
    "highway": "bus_stop",
    "name": "Saint-Léonce",
    "public_transport": "stop_position"
  }
},
{
  "type": "node",
  "id": 8615331146,
  "lat": 43.4331368,
  "lon": 6.7295226,
  "tags": {
    "bus": "yes",
    "highway": "bus_stop",
    "name": "Les Arènes",
    "public_transport": "stop_position"
  }
},
{
  "type": "node",
  "id": 8615331147,
  "lat": 43.4322999,
  "lon": 6.7324284,
  "tags": {
    "bus": "yes",
    "highway": "bus_stop",
    "name": "Fréjus - Gare SNCF",
    "public_transport": "stop_position"
  }
},
{
  "type": "node",
  "id": 8615331148,
  "lat": 43.4278122,
  "lon": 6.7338827,
  "tags": {
    "bus": "yes",
    "highway": "bus_stop",
    "name": "Carrara",
    "public_transport": "stop_position"
  }
},
{
  "type": "node",
  "id": 8615331149,
  "lat": 43.4276395,
  "lon": 6.7337896,
  "tags": {
    "bus": "yes",
    "highway": "bus_stop",
    "name": "Carrara",
    "public_transport": "stop_position"
  }
},
{
  "type": "node",
  "id": 8615331152,
  "lat": 43.4240937,
  "lon": 6.7319954,
  "tags": {
    "bus": "yes",
    "highway": "bus_stop",
    "name": "Rond Point Aéronautique Navale",
    "public_transport": "stop_position"
  }
},
{
  "type": "node",
  "id": 8615331153,
  "lat": 43.4238194,
  "lon": 6.7311126,
  "tags": {
    "bus": "yes",
    "highway": "bus_stop",
    "name": "Rond Point Base Aéronavale",
    "public_transport": "stop_position"
  }
},
{
  "type": "node",
  "id": 8615331157,
  "lat": 43.4272765,
  "lon": 6.7354790,
  "tags": {
    "bus": "yes",
    "highway": "bus_stop",
    "name": "DDE",
    "public_transport": "stop_position"
  }
},
{
  "type": "node",
  "id": 8615331158,
  "lat": 43.4270990,
  "lon": 6.7349109,
  "tags": {
    "bus": "yes",
    "highway": "bus_stop",
    "name": "DDE",
    "public_transport": "stop_position"
  }
},
{
  "type": "node",
  "id": 8615331159,
  "lat": 43.4271597,
  "lon": 6.7370887,
  "tags": {
    "bus": "yes",
    "highway": "bus_stop",
    "name": "Théâtre le Forum",
    "public_transport": "stop_position"
  }
},
{
  "type": "node",
  "id": 8615331160,
  "lat": 43.4247891,
  "lon": 6.7395476,
  "tags": {
    "bus": "yes",
    "highway": "bus_stop",
    "name": "Villa Laurence",
    "public_transport": "stop_position"
  }
},
{
  "type": "node",
  "id": 8615331161,
  "lat": 43.4233363,
  "lon": 6.7412275,
  "tags": {
    "bus": "yes",
    "highway": "bus_stop",
    "name": "Mistral",
    "public_transport": "stop_position"
  }
},
{
  "type": "node",
  "id": 8615331162,
  "lat": 43.4207134,
  "lon": 6.7442737,
  "tags": {
    "bus": "yes",
    "highway": "bus_stop",
    "name": "L'Oiseau Bleu",
    "public_transport": "stop_position"
  }
},
{
  "type": "node",
  "id": 8615331163,
  "lat": 43.4238650,
  "lon": 6.7469008,
  "tags": {
    "bus": "yes",
    "highway": "bus_stop",
    "name": "Port Fréjus Est",
    "public_transport": "stop_position"
  }
},
{
  "type": "node",
  "id": 8615522147,
  "lat": 43.4227318,
  "lon": 6.7516677,
  "tags": {
    "bus": "yes",
    "highway": "bus_stop",
    "name": "Le Marie A",
    "public_transport": "stop_position"
  }
},
{
  "type": "node",
  "id": 8615522148,
  "lat": 43.4327443,
  "lon": 6.7545118,
  "tags": {
    "bus": "yes",
    "highway": "bus_stop",
    "name": "Donnadieu",
    "public_transport": "stop_position"
  }
},
{
  "type": "node",
  "id": 8615522149,
  "lat": 43.4328449,
  "lon": 6.7544957,
  "tags": {
    "bus": "yes",
    "highway": "bus_stop",
    "name": "Donnadieu",
    "public_transport": "stop_position"
  }
},
{
  "type": "node",
  "id": 8615522150,
  "lat": 43.4344692,
  "lon": 6.7515253,
  "tags": {
    "bus": "yes",
    "highway": "bus_stop",
    "name": "Lou Mistralet",
    "public_transport": "stop_position"
  }
},
{
  "type": "node",
  "id": 8615522151,
  "lat": 43.4346612,
  "lon": 6.7485075,
  "tags": {
    "bus": "yes",
    "highway": "bus_stop",
    "name": "La Madeleine",
    "public_transport": "stop_position"
  }
},
{
  "type": "node",
  "id": 8615522152,
  "lat": 43.4346753,
  "lon": 6.7483560,
  "tags": {
    "bus": "yes",
    "highway": "bus_stop",
    "name": "La Madeleine",
    "public_transport": "stop_position"
  }
},
{
  "type": "node",
  "id": 8615522154,
  "lat": 43.4336015,
  "lon": 6.7453601,
  "tags": {
    "bus": "yes",
    "highway": "bus_stop",
    "name": "Thoron",
    "public_transport": "stop_position"
  }
},
{
  "type": "node",
  "id": 8615563644,
  "lat": 43.4371803,
  "lon": 6.7675515,
  "tags": {
    "bus": "yes",
    "highway": "bus_stop",
    "name": "Communauté d'Agglomération",
    "public_transport": "stop_position"
  }
},
{
  "type": "node",
  "id": 8615563646,
  "lat": 43.4366346,
  "lon": 6.7580489,
  "tags": {
    "bus": "yes",
    "highway": "bus_stop",
    "name": "Les Ifs",
    "public_transport": "stop_position"
  }
},
{
  "type": "node",
  "id": 8615563647,
  "lat": 43.4493403,
  "lon": 6.7481178,
  "tags": {
    "bus": "yes",
    "highway": "bus_stop",
    "name": "Terre de Sienne",
    "public_transport": "stop_position"
  }
},
{
  "type": "node",
  "id": 8615563650,
  "lat": 43.4610301,
  "lon": 6.7442375,
  "tags": {
    "bus": "yes",
    "highway": "bus_stop",
    "name": "L'Orée du Parc",
    "public_transport": "stop_position"
  }
},
{
  "type": "node",
  "id": 8615563651,
  "lat": 43.4608669,
  "lon": 6.7442467,
  "tags": {
    "bus": "yes",
    "highway": "bus_stop",
    "name": "L'Orée du Parc",
    "public_transport": "stop_position"
  }
},
{
  "type": "node",
  "id": 8615563655,
  "lat": 43.4628791,
  "lon": 6.7487638,
  "tags": {
    "bus": "yes",
    "highway": "bus_stop",
    "name": "Sainte-Brigitte",
    "public_transport": "stop_position"
  }
},
{
  "type": "node",
  "id": 8615563656,
  "lat": 43.4634377,
  "lon": 6.7486973,
  "tags": {
    "bus": "yes",
    "highway": "bus_stop",
    "name": "Sainte-Brigitte",
    "public_transport": "stop_position"
  }
},
{
  "type": "node",
  "id": 8615563657,
  "lat": 43.4650509,
  "lon": 6.7444052,
  "tags": {
    "bus": "yes",
    "highway": "bus_stop",
    "name": "Saint-Vincent",
    "public_transport": "stop_position"
  }
},
{
  "type": "node",
  "id": 8615563658,
  "lat": 43.4697501,
  "lon": 6.7446169,
  "tags": {
    "bus": "yes",
    "highway": "bus_stop",
    "name": "Péage",
    "public_transport": "stop_position"
  }
},
{
  "type": "node",
  "id": 8615563659,
  "lat": 43.4726615,
  "lon": 6.7458510,
  "tags": {
    "bus": "yes",
    "highway": "bus_stop",
    "name": "Natura Parc",
    "public_transport": "stop_position"
  }
},
{
  "type": "node",
  "id": 8615563660,
  "lat": 43.4674946,
  "lon": 6.7327458,
  "tags": {
    "bus": "yes",
    "highway": "bus_stop",
    "name": "Rond-Point du Bonfin",
    "public_transport": "stop_position"
  }
},
{
  "type": "node",
  "id": 8615563661,
  "lat": 43.4676223,
  "lon": 6.7327861,
  "tags": {
    "bus": "yes",
    "highway": "bus_stop",
    "name": "Rond-Point du Bonfin",
    "public_transport": "stop_position"
  }
},
{
  "type": "node",
  "id": 8615850936,
  "lat": 43.4336846,
  "lon": 6.7277522,
  "tags": {
    "bus": "yes",
    "highway": "bus_stop",
    "name": "Parking Relais des Arènes",
    "public_transport": "stop_position"
  }
},
{
  "type": "node",
  "id": 8615850937,
  "lat": 43.4340796,
  "lon": 6.7269476,
  "tags": {
    "bus": "yes",
    "highway": "bus_stop",
    "name": "Parking Relais des Arènes",
    "public_transport": "stop_position"
  }
},
{
  "type": "node",
  "id": 8616029622,
  "lat": 43.4361937,
  "lon": 6.7540901,
  "tags": {
    "bus": "yes",
    "highway": "bus_stop",
    "name": "Les Clos",
    "public_transport": "stop_position"
  }
},
{
  "type": "node",
  "id": 8622724713,
  "lat": 43.4347055,
  "lon": 6.7560950,
  "tags": {
    "bus": "yes",
    "highway": "bus_stop",
    "name": "Clinique Les Lauriers",
    "public_transport": "stop_position"
  }
},
{
  "type": "node",
  "id": 8622724714,
  "lat": 43.4342208,
  "lon": 6.7597516,
  "tags": {
    "bus": "yes",
    "highway": "bus_stop",
    "name": "Giono",
    "public_transport": "stop_position"
  }
},
{
  "type": "node",
  "id": 8622724715,
  "lat": 43.4341214,
  "lon": 6.7604039,
  "tags": {
    "bus": "yes",
    "highway": "bus_stop",
    "name": "Giono",
    "public_transport": "stop_position"
  }
},
{
  "type": "node",
  "id": 8622724716,
  "lat": 43.4336587,
  "lon": 6.7642632,
  "tags": {
    "bus": "yes",
    "highway": "bus_stop",
    "name": "Le Suveret",
    "public_transport": "stop_position"
  }
},
{
  "type": "node",
  "id": 8622746718,
  "lat": 43.4361507,
  "lon": 6.7660332,
  "tags": {
    "bus": "yes",
    "highway": "bus_stop",
    "name": "Pins Parasols 1",
    "public_transport": "stop_position"
  }
},
{
  "type": "node",
  "id": 8622864338,
  "lat": 43.4521912,
  "lon": 6.7571642,
  "tags": {
    "bus": "yes",
    "highway": "bus_stop",
    "name": "Roc Mare",
    "public_transport": "stop_position"
  }
},
{
  "type": "node",
  "id": 8622864339,
  "lat": 43.4555000,
  "lon": 6.7604917,
  "tags": {
    "bus": "yes",
    "highway": "bus_stop",
    "name": "Via Aurélia",
    "public_transport": "stop_position"
  }
},
{
  "type": "node",
  "id": 8622864340,
  "lat": 43.4556813,
  "lon": 6.7606712,
  "tags": {
    "bus": "yes",
    "highway": "bus_stop",
    "name": "Via Aurélia",
    "public_transport": "stop_position"
  }
},
{
  "type": "node",
  "id": 8622864341,
  "lat": 43.4635955,
  "lon": 6.7684416,
  "tags": {
    "bus": "yes",
    "highway": "bus_stop",
    "name": "Nicolaï",
    "public_transport": "stop_position"
  }
},
{
  "type": "node",
  "id": 8622864342,
  "lat": 43.4620454,
  "lon": 6.7732696,
  "tags": {
    "bus": "yes",
    "highway": "bus_stop",
    "name": "La Louve",
    "public_transport": "stop_position"
  }
},
{
  "type": "node",
  "id": 8622864343,
  "lat": 43.4619497,
  "lon": 6.7738749,
  "tags": {
    "bus": "yes",
    "highway": "bus_stop",
    "name": "La Louve",
    "public_transport": "stop_position"
  }
},
{
  "type": "node",
  "id": 8622864344,
  "lat": 43.4592275,
  "lon": 6.7740462,
  "tags": {
    "bus": "yes",
    "highway": "bus_stop",
    "name": "Lac Saint-Esprit",
    "public_transport": "stop_position"
  }
},
{
  "type": "node",
  "id": 8622864348,
  "lat": 43.4537187,
  "lon": 6.7684143,
  "tags": {
    "bus": "yes",
    "highway": "bus_stop",
    "name": "Vallon des Pins",
    "public_transport": "stop_position"
  }
},
{
  "type": "node",
  "id": 8622864349,
  "lat": 43.4535085,
  "lon": 6.7687785,
  "tags": {
    "bus": "yes",
    "highway": "bus_stop",
    "name": "Vallon des Pins",
    "public_transport": "stop_position"
  }
},
{
  "type": "node",
  "id": 8622864350,
  "lat": 43.4496018,
  "lon": 6.7676535,
  "tags": {
    "bus": "yes",
    "highway": "bus_stop",
    "name": "Jardins Saint-Antoine",
    "public_transport": "stop_position"
  }
},
{
  "type": "node",
  "id": 8622864351,
  "lat": 43.4497702,
  "lon": 6.7684233,
  "tags": {
    "bus": "yes",
    "highway": "bus_stop",
    "name": "Jardins Saint-Antoine",
    "public_transport": "stop_position"
  }
},
{
  "type": "node",
  "id": 8622864354,
  "lat": 43.4449176,
  "lon": 6.7686073,
  "tags": {
    "bus": "yes",
    "highway": "bus_stop",
    "name": "Villa Clythia",
    "public_transport": "stop_position"
  }
},
{
  "type": "node",
  "id": 8622864356,
  "lat": 43.4432889,
  "lon": 6.7685847,
  "tags": {
    "bus": "yes",
    "highway": "bus_stop",
    "name": "Hameau de Valescure",
    "public_transport": "stop_position"
  }
},
{
  "type": "node",
  "id": 8622864357,
  "lat": 43.4435077,
  "lon": 6.7686972,
  "tags": {
    "bus": "yes",
    "highway": "bus_stop",
    "name": "Hameau de Valescure",
    "public_transport": "stop_position"
  }
},
{
  "type": "node",
  "id": 8622864358,
  "lat": 43.4410162,
  "lon": 6.7670434,
  "tags": {
    "bus": "yes",
    "highway": "bus_stop",
    "name": "Pins Parasols 2",
    "public_transport": "stop_position"
  }
},
{
  "type": "node",
  "id": 8622864359,
  "lat": 43.4384495,
  "lon": 6.7669701,
  "tags": {
    "bus": "yes",
    "highway": "bus_stop",
    "name": "Clos de Valescure",
    "public_transport": "stop_position"
  }
},
{
  "type": "node",
  "id": 8636465460,
  "lat": 43.3856549,
  "lon": 6.7176721,
  "tags": {
    "bus": "yes",
    "highway": "bus_stop",
    "name": "Flaubert",
    "public_transport": "stop_position"
  }
},
{
  "type": "node",
  "id": 8636465461,
  "lat": 43.3854618,
  "lon": 6.7175490,
  "tags": {
    "bus": "yes",
    "highway": "bus_stop",
    "name": "Flaubert",
    "public_transport": "stop_position"
  }
},
{
  "type": "node",
  "id": 8636465462,
  "lat": 43.4284352,
  "lon": 6.7264288,
  "tags": {
    "bus": "yes",
    "highway": "bus_stop",
    "name": "Argentière",
    "public_transport": "stop_position"
  }
},
{
  "type": "node",
  "id": 8636465463,
  "lat": 43.4283688,
  "lon": 6.7263292,
  "tags": {
    "bus": "yes",
    "highway": "bus_stop",
    "name": "Argentière",
    "public_transport": "stop_position"
  }
},
{
  "type": "node",
  "id": 8636467918,
  "lat": 43.3699131,
  "lon": 6.7137531,
  "tags": {
    "bus": "yes",
    "highway": "bus_stop",
    "name": "Les Mouettes",
    "public_transport": "stop_position"
  }
},
{
  "type": "node",
  "id": 8636467920,
  "lat": 43.4073583,
  "lon": 6.7093076,
  "tags": {
    "bus": "yes",
    "highway": "bus_stop",
    "name": "Le Mas des Etangs",
    "public_transport": "stop_position"
  }
},
{
  "type": "node",
  "id": 8636467921,
  "lat": 43.4074862,
  "lon": 6.7092433,
  "tags": {
    "bus": "yes",
    "highway": "bus_stop",
    "name": "Le Mas des Etangs",
    "public_transport": "stop_position"
  }
},
{
  "type": "node",
  "id": 8636467922,
  "lat": 43.4021506,
  "lon": 6.7121406,
  "tags": {
    "bus": "yes",
    "highway": "bus_stop",
    "name": "Le Reydissart",
    "public_transport": "stop_position"
  }
},
{
  "type": "node",
  "id": 8636467923,
  "lat": 43.3997108,
  "lon": 6.7169689,
  "tags": {
    "bus": "yes",
    "highway": "bus_stop",
    "name": "Le Grand Calme",
    "public_transport": "stop_position"
  }
},
{
  "type": "node",
  "id": 8636467924,
  "lat": 43.3993989,
  "lon": 6.7177378,
  "tags": {
    "bus": "yes",
    "highway": "bus_stop",
    "name": "Le Grand Calme",
    "public_transport": "stop_position"
  }
},
{
  "type": "node",
  "id": 8636467925,
  "lat": 43.3919220,
  "lon": 6.7185797,
  "tags": {
    "bus": "yes",
    "highway": "bus_stop",
    "name": "Club Hippique",
    "public_transport": "stop_position"
  }
},
{
  "type": "node",
  "id": 8636467926,
  "lat": 43.3919884,
  "lon": 6.7185084,
  "tags": {
    "bus": "yes",
    "highway": "bus_stop",
    "name": "Club Hippique",
    "public_transport": "stop_position"
  }
},
{
  "type": "node",
  "id": 8636467927,
  "lat": 43.3869715,
  "lon": 6.7206850,
  "tags": {
    "bus": "yes",
    "highway": "bus_stop",
    "name": "Balzac",
    "public_transport": "stop_position"
  }
},
{
  "type": "node",
  "id": 8636467928,
  "lat": 43.3868835,
  "lon": 6.7209282,
  "tags": {
    "bus": "yes",
    "highway": "bus_stop",
    "name": "Balzac",
    "public_transport": "stop_position"
  }
},
{
  "type": "node",
  "id": 8636467929,
  "lat": 43.3871193,
  "lon": 6.7187192,
  "tags": {
    "bus": "yes",
    "highway": "bus_stop",
    "name": "École Flaubert",
    "public_transport": "stop_position"
  }
},
{
  "type": "node",
  "id": 8636467930,
  "lat": 43.3792073,
  "lon": 6.7158994,
  "tags": {
    "bus": "yes",
    "highway": "bus_stop",
    "name": "Paul Valéry",
    "public_transport": "stop_position"
  }
},
{
  "type": "node",
  "id": 8636467931,
  "lat": 43.3792585,
  "lon": 6.7155699,
  "tags": {
    "bus": "yes",
    "highway": "bus_stop",
    "name": "Paul Valéry",
    "public_transport": "stop_position"
  }
},
{
  "type": "node",
  "id": 8636467932,
  "lat": 43.3801551,
  "lon": 6.7194296,
  "tags": {
    "bus": "yes",
    "highway": "bus_stop",
    "name": "Rives d'Or",
    "public_transport": "stop_position"
  }
},
{
  "type": "node",
  "id": 8636467934,
  "lat": 43.3842507,
  "lon": 6.7221149,
  "tags": {
    "bus": "yes",
    "highway": "bus_stop",
    "name": "Centre Administratif",
    "public_transport": "stop_position"
  }
},
{
  "type": "node",
  "id": 8636467935,
  "lat": 43.3850831,
  "lon": 6.7225425,
  "tags": {
    "bus": "yes",
    "highway": "bus_stop",
    "name": "Saint-Aygulf La Poste",
    "public_transport": "stop_position"
  }
},
{
  "type": "node",
  "id": 8636467936,
  "lat": 43.3851335,
  "lon": 6.7226313,
  "tags": {
    "bus": "yes",
    "highway": "bus_stop",
    "name": "Saint-Aygulf La Poste",
    "public_transport": "stop_position"
  }
},
{
  "type": "node",
  "id": 8636467937,
  "lat": 43.3890721,
  "lon": 6.7250783,
  "tags": {
    "bus": "yes",
    "highway": "bus_stop",
    "name": "Grand Parc",
    "public_transport": "stop_position"
  }
},
{
  "type": "node",
  "id": 8636467938,
  "lat": 43.3895903,
  "lon": 6.7254183,
  "tags": {
    "bus": "yes",
    "highway": "bus_stop",
    "name": "Grand Parc",
    "public_transport": "stop_position"
  }
},
{
  "type": "node",
  "id": 8636467939,
  "lat": 43.3923102,
  "lon": 6.7281048,
  "tags": {
    "bus": "yes",
    "highway": "bus_stop",
    "name": "La Galiote",
    "public_transport": "stop_position"
  }
},
{
  "type": "node",
  "id": 8636467940,
  "lat": 43.3988081,
  "lon": 6.7297456,
  "tags": {
    "bus": "yes",
    "highway": "bus_stop",
    "name": "Le Venise",
    "public_transport": "stop_position"
  }
},
{
  "type": "node",
  "id": 8636467941,
  "lat": 43.3981529,
  "lon": 6.7294404,
  "tags": {
    "bus": "yes",
    "highway": "bus_stop",
    "name": "Le Venise",
    "public_transport": "stop_position"
  }
},
{
  "type": "node",
  "id": 8636467942,
  "lat": 43.4025407,
  "lon": 6.7299341,
  "tags": {
    "bus": "yes",
    "highway": "bus_stop",
    "name": "Les Esclamandes",
    "public_transport": "stop_position"
  }
},
{
  "type": "node",
  "id": 8636467943,
  "lat": 43.4030103,
  "lon": 6.7297771,
  "tags": {
    "bus": "yes",
    "highway": "bus_stop",
    "name": "Les Esclamandes",
    "public_transport": "stop_position"
  }
},
{
  "type": "node",
  "id": 8636467956,
  "lat": 43.4198936,
  "lon": 6.7294985,
  "tags": {
    "bus": "yes",
    "highway": "bus_stop",
    "name": "Parc d'Attraction",
    "public_transport": "stop_position"
  }
},
{
  "type": "node",
  "id": 8636467957,
  "lat": 43.4184959,
  "lon": 6.7287505,
  "tags": {
    "bus": "yes",
    "highway": "bus_stop",
    "name": "Parc d'Attraction",
    "public_transport": "stop_position"
  }
},
{
  "type": "node",
  "id": 8636467958,
  "lat": 43.4250598,
  "lon": 6.7289215,
  "tags": {
    "bus": "yes",
    "highway": "bus_stop",
    "name": "Avenue du 8 Mai 1945",
    "public_transport": "stop_position"
  }
},
{
  "type": "node",
  "id": 8636467959,
  "lat": 43.4243169,
  "lon": 6.7297878,
  "tags": {
    "bus": "yes",
    "highway": "bus_stop",
    "name": "Avenue du 8 Mai 1945",
    "public_transport": "stop_position"
  }
},
{
  "type": "node",
  "id": 8636467960,
  "lat": 43.4423860,
  "lon": 6.7384884,
  "tags": {
    "bus": "yes",
    "highway": "bus_stop",
    "name": "Floralies",
    "public_transport": "stop_position"
  }
},
{
  "type": "node",
  "id": 8636489075,
  "lat": 43.4233892,
  "lon": 6.7313322,
  "tags": {
    "bus": "yes",
    "highway": "bus_stop",
    "name": "Rond Point Aéronautique Navale",
    "public_transport": "stop_position"
  }
},
{
  "type": "node",
  "id": 9366334344,
  "lat": 43.4578576,
  "lon": 6.7270727,
  "tags": {
    "highway": "bus_stop",
    "public_transport": "platform"
  }
},
{
  "type": "node",
  "id": 9469680721,
  "lat": 43.4330608,
  "lon": 6.7297704,
  "tags": {
    "bus": "yes",
    "highway": "bus_stop",
    "name": "Les Arènes",
    "public_transport": "stop_position"
  }
},
{
  "type": "node",
  "id": 9497994476,
  "lat": 43.4299140,
  "lon": 6.7589062,
  "tags": {
    "bus": "yes",
    "highway": "bus_stop",
    "name": "L'Église",
    "public_transport": "stop_position"
  }
}

  ]
}
